[{"city": "Luanda", "lat": -8.8383, "lng": 13.2344}, {"city": "Cacuaco", "lat": -8.7833, "lng": 13.3667}, {"city": "Lubango", "lat": -14.9167, "lng": 13.5}, {"city": "Huambo", "lat": -12.7667, "lng": 15.7333}, {"city": "Benguela", "lat": -12.55, "lng": 13.4167}, {"city": "Cabinda", "lat": -5.5667, "lng": 12.2}, {"city": "Belas", "lat": -9.0689, "lng": 13.1608}, {"city": "Talatona", "lat": -8.9167, "lng": 13.1833}, {"city": "Lobito", "lat": -12.3597, "lng": 13.5308}, {"city": "Saurimo", "lat": -9.6589, "lng": 20.3934}, {"city": "Cubal", "lat": -13.1117, "lng": 14.3672}, {"city": "Uige", "lat": -7.6087, "lng": 15.0613}, {"city": "Menongue", "lat": -14.6556, "lng": 17.6842}, {"city": "Vila Teixeira da Silva", "lat": -12.1958, "lng": 15.8556}, {"city": "Sumbe", "lat": -11.2052, "lng": 13.8417}, {"city": "Gabela", "lat": -10.85, "lng": 14.3667}, {"city": "Mocamedes", "lat": -15.1953, "lng": 12.1508}, {"city": "Ganda", "lat": -13.0167, "lng": 14.6333}, {"city": "Barra do Dande", "lat": -8.4728, "lng": 13.3731}, {"city": "Tchitato", "lat": -7.345, "lng": 20.8198}, {"city": "Chibia", "lat": -15.1833, "lng": 13.7}, {"city": "Cuango", "lat": -9.1444, "lng": 18.0464}, {"city": "Catumbela", "lat": -12.4167, "lng": 13.5333}, {"city": "Catape", "lat": -13.7667, "lng": 15.0833}, {"city": "Bocoio", "lat": -12.4667, "lng": 14.1333}, {"city": "Quibala", "lat": -10.7311, "lng": 15.0003}, {"city": "Ndalatando", "lat": -9.3, "lng": 14.9167}, {"city": "Quipungo", "lat": -14.8167, "lng": 14.5167}, {"city": "Lucapa", "lat": -8.4228, "lng": 20.7393}, {"city": "Mbanza Kongo", "lat": -6.2667, "lng": 14.25}, {"city": "Namacunde", "lat": -17.3, "lng": 15.85}, {"city": "Negage", "lat": -7.7667, "lng": 15.2667}, {"city": "Porto Amboim", "lat": -10.7183, "lng": 13.75}, {"city": "Londuimbali", "lat": -12.2419, "lng": 15.3133}, {"city": "Chicomba", "lat": -14.1333, "lng": 14.9167}, {"city": "Chinguar", "lat": -12.55, "lng": 16.3333}, {"city": "Catabola", "lat": -12.1167, "lng": 17.3}, {"city": "Malanje", "lat": -9.5469, "lng": 16.3387}, {"city": "Ondjiva", "lat": -17.0667, "lng": 15.7333}, {"city": "Catchiungo", "lat": -12.5667, "lng": 16.2333}, {"city": "Cassongue", "lat": -11.8333, "lng": 15.0}, {"city": "Cuito", "lat": -12.3833, "lng": 16.9333}, {"city": "Quilengues", "lat": -14.0814, "lng": 14.0764}, {"city": "Mungo", "lat": -11.6667, "lng": 16.1667}, {"city": "Balombo", "lat": -12.35, "lng": 14.7667}, {"city": "Baia Farta", "lat": -12.6128, "lng": 13.1987}, {"city": "Ndjamba", "lat": -14.7, "lng": 16.0667}, {"city": "Caxito", "lat": -8.5785, "lng": 13.6642}, {"city": "Luena", "lat": -11.79, "lng": 19.9}, {"city": "Dundo", "lat": -7.38, "lng": 20.83}, {"city": "Quilenda", "lat": -10.6333, "lng": 14.3333}, {"city": "Caimbambo", "lat": -12.9, "lng": 14.0833}, {"city": "Cambambe", "lat": -9.7431, "lng": 14.4914}, {"city": "Uacu Cungo", "lat": -11.3583, "lng": 15.1194}, {"city": "Luau", "lat": -10.7, "lng": 22.2333}, {"city": "Conda", "lat": -11.1667, "lng": 14.5}, {"city": "Humpata", "lat": -15.0725, "lng": 13.3678}, {"city": "Chongoroi", "lat": -13.5667, "lng": 13.95}, {"city": "Capenda Camulemba", "lat": -9.4233, "lng": 18.4328}, {"city": "Kuvango", "lat": -14.4667, "lng": 16.3}, {"city": "Chitembo", "lat": -13.5167, "lng": 16.7667}, {"city": "Cahama", "lat": -16.2833, "lng": 14.3167}, {"city": "Soio", "lat": -6.1333, "lng": 12.3667}, {"city": "Chipindo", "lat": -13.8244, "lng": 15.8}, {"city": "Camabatela", "lat": -8.1833, "lng": 15.3667}, {"city": "Nambuangongo", "lat": -8.0483, "lng": 14.3372}, {"city": "Cuemba", "lat": -12.15, "lng": 18.0833}, {"city": "Ucuma", "lat": -12.85, "lng": 15.0667}, {"city": "Cuchi", "lat": -14.6372, "lng": 16.9611}, {"city": "Cuito Cuanavale", "lat": -15.1639, "lng": 19.1731}, {"city": "PortoAlexandre", "lat": -15.8032, "lng": 11.8459}, {"city": "Tchindjendje", "lat": -12.8167, "lng": 14.9333}, {"city": "Mavinga", "lat": -15.7895, "lng": 20.36}, {"city": "Caluquembe", "lat": -13.9208, "lng": 14.5347}, {"city": "Longonjo", "lat": -12.9067, "lng": 15.1864}, {"city": "Alto-Cuilo", "lat": -10.05, "lng": 19.5167}, {"city": "Cacongo", "lat": -5.2333, "lng": 12.1333}, {"city": "Lubalo", "lat": -9.15, "lng": 19.2833}, {"city": "Camacupa", "lat": -12.0167, "lng": 17.4833}, {"city": "Ambriz", "lat": -7.85, "lng": 13.1167}, {"city": "Bolongongo", "lat": -8.4667, "lng": 15.25}, {"city": "Nzeto", "lat": -7.229, "lng": 12.865}, {"city": "Songo", "lat": -7.3496, "lng": 14.85}, {"city": "Dondo", "lat": -9.6942, "lng": 14.4228}, {"city": "Muconda", "lat": -10.6, "lng": 21.3167}, {"city": "Chibemba", "lat": -15.7355, "lng": 13.8905}, {"city": "Cacolo", "lat": -10.1365, "lng": 19.2865}, {"city": "Xangongo", "lat": -16.7467, "lng": 14.9747}, {"city": "Cazombo", "lat": -11.9058, "lng": 22.9217}, {"city": "Bala Cangamba", "lat": -13.6996, "lng": 19.86}, {"city": "Calulo", "lat": -9.9996, "lng": 14.9}, {"city": "Calenga", "lat": -11.3196, "lng": 16.2}, {"city": "Tchitado", "lat": -17.3196, "lng": 13.92}]