[{"city": "Dubai", "lat": 25.2697, "lng": 55.3094}, {"city": "Abu Dhabi", "lat": 24.4511, "lng": 54.3969}, {"city": "Sharjah", "lat": 25.3575, "lng": 55.3919}, {"city": "Al `Ayn", "lat": 24.2075, "lng": 55.7447}, {"city": "`Ajman", "lat": 25.3994, "lng": 55.4797}, {"city": "Ra's al Khaymah", "lat": 25.7851, "lng": 55.9479}, {"city": "Al Fujayrah", "lat": 25.1308, "lng": 56.3347}, {"city": "Umm al Qaywayn", "lat": 25.5653, "lng": 55.5533}, {"city": "Madinat Zayid", "lat": 23.6522, "lng": 53.6536}]