[{"city": "Buenos Aires", "lat": -34.5997, "lng": -58.3819}, {"city": "Cordoba", "lat": -31.4167, "lng": -64.1833}, {"city": "Rosario", "lat": -32.9575, "lng": -60.6394}, {"city": "Comodoro Rivadavia", "lat": -45.8667, "lng": -67.5}, {"city": "San Miguel de Tucuman", "lat": -26.8167, "lng": -65.2167}, {"city": "Mar del Plata", "lat": -38.0, "lng": -57.55}, {"city": "Salta", "lat": -24.7883, "lng": -65.4106}, {"city": "San Juan", "lat": -31.5375, "lng": -68.5364}, {"city": "Lanus", "lat": -34.7, "lng": -58.4}, {"city": "Florencio Varela", "lat": -34.8167, "lng": -58.2833}, {"city": "Santa Fe", "lat": -31.6333, "lng": -60.7}, {"city": "Corrientes", "lat": -27.4833, "lng": -58.8167}, {"city": "San Salvador de Jujuy", "lat": -24.1856, "lng": -65.2994}, {"city": "Bahia Blanca", "lat": -38.7167, "lng": -62.2667}, {"city": "Resistencia", "lat": -27.4514, "lng": -58.9867}, {"city": "Posadas", "lat": -27.3667, "lng": -55.8969}, {"city": "Santiago del Estero", "lat": -27.7844, "lng": -64.2669}, {"city": "Parana", "lat": -31.7444, "lng": -60.5175}, {"city": "Merlo", "lat": -34.6653, "lng": -58.7275}, {"city": "Gonzalez Catan", "lat": -34.7708, "lng": -58.6464}, {"city": "Quilmes", "lat": -34.7167, "lng": -58.2667}, {"city": "Neuquen", "lat": -38.9573, "lng": -68.0455}, {"city": "Banfield", "lat": -34.75, "lng": -58.3833}, {"city": "Jose C. Paz", "lat": -34.5167, "lng": -58.7667}, {"city": "Formosa", "lat": -26.1847, "lng": -58.1758}, {"city": "Isidro Casanova", "lat": -34.7, "lng": -58.5833}, {"city": "La Plata", "lat": -34.9333, "lng": -57.95}, {"city": "Godoy Cruz", "lat": -32.9167, "lng": -68.8333}, {"city": "Berazategui", "lat": -34.7679, "lng": -58.2133}, {"city": "La Rioja", "lat": -29.4131, "lng": -66.8558}, {"city": "San Luis", "lat": -33.2994, "lng": -66.3392}, {"city": "San Miguel", "lat": -34.5333, "lng": -58.7167}, {"city": "Jose Maria Ezeiza", "lat": -34.8333, "lng": -58.5167}, {"city": "San Nicolas de los Arroyos", "lat": -33.3333, "lng": -60.2167}, {"city": "Catamarca", "lat": -28.4686, "lng": -65.7792}, {"city": "Rafael Castillo", "lat": -34.7167, "lng": -58.6167}, {"city": "Rio Cuarto", "lat": -33.123, "lng": -64.3478}, {"city": "Florencio Varela", "lat": -34.8167, "lng": -58.3833}, {"city": "Concordia", "lat": -31.3922, "lng": -58.0169}, {"city": "San Justo", "lat": -34.6833, "lng": -58.55}, {"city": "Ituzaingo", "lat": -34.6582, "lng": -58.6672}, {"city": "Temperley", "lat": -34.7667, "lng": -58.3833}, {"city": "Ramos Mejia", "lat": -34.65, "lng": -58.5667}, {"city": "Lomas de Zamora", "lat": -34.7667, "lng": -58.4}, {"city": "San Martin", "lat": -33.0806, "lng": -68.4706}, {"city": "Mendoza", "lat": -32.8833, "lng": -68.8333}, {"city": "Tandil", "lat": -37.3167, "lng": -59.1333}, {"city": "Puerto Madryn", "lat": -42.773, "lng": -65.0366}, {"city": "Bernal", "lat": -34.7, "lng": -58.2833}, {"city": "Castelar", "lat": -34.65, "lng": -58.65}, {"city": "San Carlos de Bariloche", "lat": -41.15, "lng": -71.3}, {"city": "Esteban Echeverria", "lat": -34.8167, "lng": -58.4667}, {"city": "Villa Mercedes", "lat": -33.6667, "lng": -65.4667}, {"city": "Gualeguaychu", "lat": -33.0078, "lng": -58.5111}, {"city": "San Rafael", "lat": -34.6175, "lng": -68.3356}, {"city": "Moron", "lat": -34.65, "lng": -58.6167}, {"city": "La Banda", "lat": -27.7333, "lng": -64.25}, {"city": "Villa Luzuriaga", "lat": -34.6667, "lng": -58.5833}, {"city": "Caseros", "lat": -34.6167, "lng": -58.5333}, {"city": "Santa Rosa", "lat": -36.6203, "lng": -64.2906}, {"city": "Libertad", "lat": -34.6833, "lng": -58.6833}, {"city": "Burzaco", "lat": -34.8167, "lng": -58.3667}, {"city": "Ciudad General Belgrano", "lat": -34.7261, "lng": -58.5289}, {"city": "San Francisco Solano", "lat": -34.7667, "lng": -58.3167}, {"city": "Rio Gallegos", "lat": -51.6333, "lng": -69.2333}, {"city": "Monte Chingolo", "lat": -34.7333, "lng": -58.35}, {"city": "Remedios de Escalada", "lat": -34.7167, "lng": -58.4}, {"city": "Ezpeleta", "lat": -34.7517, "lng": -58.2344}, {"city": "Villa Celina", "lat": -34.7006, "lng": -58.4825}, {"city": "Lomas del Mirador", "lat": -34.6667, "lng": -58.5297}, {"city": "Bella Vista", "lat": -34.5333, "lng": -58.6667}, {"city": "Wilde", "lat": -34.7, "lng": -58.3167}, {"city": "Villa Dominico", "lat": -34.6917, "lng": -58.3333}, {"city": "Los Polvorines", "lat": -34.5, "lng": -58.7}, {"city": "Rafael Calzada", "lat": -34.7833, "lng": -58.3667}, {"city": "Viedma", "lat": -40.8, "lng": -63.0}, {"city": "Ushuaia", "lat": -54.8072, "lng": -68.3044}, {"city": "Longchamps", "lat": -34.8596, "lng": -58.387}, {"city": "Villa Alsina", "lat": -34.6667, "lng": -58.4167}, {"city": "San Isidro", "lat": -34.4667, "lng": -58.5167}, {"city": "Jose Marmol", "lat": -34.7833, "lng": -58.3667}, {"city": "Haedo", "lat": -34.65, "lng": -58.6}, {"city": "Munro", "lat": -34.5333, "lng": -58.5167}, {"city": "Dock Sur", "lat": -34.6417, "lng": -58.3478}, {"city": "Villa Adelina", "lat": -34.5175, "lng": -58.5475}, {"city": "Adrogue", "lat": -34.8, "lng": -58.3833}, {"city": "Avellaneda", "lat": -34.6625, "lng": -58.3678}, {"city": "Vicente Lopez", "lat": -34.5333, "lng": -58.475}, {"city": "Tapiales", "lat": -34.7058, "lng": -58.5047}, {"city": "Don Bosco", "lat": -34.7, "lng": -58.2833}, {"city": "Rawson", "lat": -43.3, "lng": -65.1}, {"city": "Villa Sarmiento", "lat": -34.6333, "lng": -58.5667}, {"city": "Aldo Bonzi", "lat": -34.7083, "lng": -58.5181}, {"city": "Malvinas Argentinas", "lat": -31.3697, "lng": -64.0531}, {"city": "Zarate", "lat": -34.0833, "lng": -59.0333}, {"city": "Trelew", "lat": -43.2533, "lng": -65.3094}, {"city": "Rafaela", "lat": -31.2667, "lng": -61.4833}, {"city": "Pergamino", "lat": -33.8836, "lng": -60.5669}, {"city": "Campana", "lat": -34.1667, "lng": -58.9167}, {"city": "Olavarria", "lat": -36.9, "lng": -60.3333}, {"city": "Junin", "lat": -34.5939, "lng": -60.9464}, {"city": "Pilar", "lat": -34.4588, "lng": -58.9142}, {"city": "Presidencia Roque Saenz Pena", "lat": -26.7833, "lng": -60.45}, {"city": "Lujan", "lat": -34.5703, "lng": -59.105}, {"city": "General Roca", "lat": -39.0333, "lng": -67.5833}, {"city": "Gobernador Galvez", "lat": -33.0251, "lng": -60.6337}, {"city": "Necochea", "lat": -38.55, "lng": -58.7333}, {"city": "Villa Maria", "lat": -32.4103, "lng": -63.2314}, {"city": "Venado Tuerto", "lat": -33.75, "lng": -61.9667}, {"city": "San Ramon de la Nueva Oran", "lat": -23.1361, "lng": -64.3222}, {"city": "Concepcion del Uruguay", "lat": -32.4833, "lng": -58.2333}, {"city": "Goya", "lat": -29.1333, "lng": -59.25}, {"city": "Reconquista", "lat": -29.1443, "lng": -59.6438}, {"city": "Las Heras", "lat": -32.825, "lng": -68.8017}, {"city": "Obera", "lat": -27.4833, "lng": -55.1333}, {"city": "Santo Tome", "lat": -31.6667, "lng": -60.7667}, {"city": "Villa Carlos Paz", "lat": -31.4, "lng": -64.5167}, {"city": "San Francisco", "lat": -31.4356, "lng": -62.0714}, {"city": "Sarandi", "lat": -34.6833, "lng": -58.3333}, {"city": "Tartagal", "lat": -22.5, "lng": -63.8333}, {"city": "San Pedro", "lat": -24.2196, "lng": -64.87}, {"city": "Punta Alta", "lat": -38.88, "lng": -62.075}, {"city": "General Pico", "lat": -35.6587, "lng": -63.7577}, {"city": "Azul", "lat": -36.7833, "lng": -59.85}, {"city": "Chivilcoy", "lat": -34.9, "lng": -60.0167}, {"city": "Mercedes", "lat": -34.65, "lng": -59.4333}, {"city": "Cruz del Eje", "lat": -30.7333, "lng": -64.8}, {"city": "Caleta Olivia", "lat": -46.4333, "lng": -67.5333}, {"city": "El Talar de Pacheco", "lat": -34.4719, "lng": -58.655}, {"city": "Villaguay", "lat": -31.85, "lng": -59.0167}, {"city": "Libertador General San Martin", "lat": -23.8, "lng": -64.7833}, {"city": "La Reja", "lat": -34.6394, "lng": -58.8283}, {"city": "Alta Gracia", "lat": -31.6667, "lng": -64.4333}, {"city": "San Lorenzo", "lat": -28.12, "lng": -58.77}, {"city": "San Pedro", "lat": -33.6794, "lng": -59.6669}, {"city": "Villa Constitucion", "lat": -33.2333, "lng": -60.3333}, {"city": "Tres Arroyos", "lat": -38.3667, "lng": -60.2667}, {"city": "Rio Tercero", "lat": -32.1768, "lng": -64.113}, {"city": "Chajari", "lat": -30.7667, "lng": -57.9833}, {"city": "Pinamar", "lat": -37.1, "lng": -56.85}, {"city": "Esperanza", "lat": -31.4489, "lng": -60.9317}, {"city": "Gualeguay", "lat": -33.15, "lng": -59.3167}, {"city": "Balcarce", "lat": -37.8464, "lng": -58.2556}, {"city": "Aristobulo del Valle", "lat": -27.0952, "lng": -54.897}, {"city": "Granadero Baigorria", "lat": -32.85, "lng": -60.7}, {"city": "Esquel", "lat": -42.9, "lng": -71.3167}, {"city": "Nueve de Julio", "lat": -35.45, "lng": -60.8833}, {"city": "Cutral-Co", "lat": -38.9333, "lng": -69.2333}, {"city": "Casilda", "lat": -33.0442, "lng": -61.1681}, {"city": "Chacabuco", "lat": -34.65, "lng": -60.49}, {"city": "Centenario", "lat": -38.8167, "lng": -68.1333}, {"city": "Bell Ville", "lat": -32.6333, "lng": -62.6833}, {"city": "Chilecito", "lat": -29.1667, "lng": -67.5}, {"city": "Bragado", "lat": -35.1167, "lng": -60.5}, {"city": "La Calera", "lat": -31.3439, "lng": -64.3353}, {"city": "Plottier", "lat": -38.95, "lng": -68.2333}, {"city": "Zapala", "lat": -38.9028, "lng": -70.065}, {"city": "Jesus Maria", "lat": -30.9817, "lng": -64.0942}, {"city": "Rio Grande", "lat": -53.7914, "lng": -67.699}, {"city": "Mercedes", "lat": -29.1796, "lng": -58.08}, {"city": "Victoria", "lat": -32.6167, "lng": -60.1667}, {"city": "Villa Angela", "lat": -27.5833, "lng": -60.7167}, {"city": "Villa Regina", "lat": -39.1, "lng": -67.0667}, {"city": "Villa Gesell", "lat": -37.2556, "lng": -56.9681}, {"city": "Capitan Bermudez", "lat": -32.8167, "lng": -60.7167}, {"city": "Canada de Gomez", "lat": -32.8167, "lng": -61.4}, {"city": "Baradero", "lat": -33.8, "lng": -59.5167}, {"city": "Villa Allende", "lat": -31.2944, "lng": -64.2953}, {"city": "San Martin de los Andes", "lat": -40.1667, "lng": -71.35}, {"city": "Marcos Juarez", "lat": -32.7, "lng": -62.1}, {"city": "Dolores", "lat": -36.3132, "lng": -57.6792}, {"city": "Firmat", "lat": -33.45, "lng": -61.4833}, {"city": "Colon", "lat": -32.2241, "lng": -58.1419}, {"city": "Lincoln", "lat": -34.85, "lng": -61.5167}, {"city": "Coronel Suarez", "lat": -37.4667, "lng": -61.9333}, {"city": "Veinticinco de Mayo", "lat": -35.4167, "lng": -60.1667}, {"city": "Avellaneda", "lat": -29.1175, "lng": -59.6583}, {"city": "Allen", "lat": -38.9772, "lng": -67.8272}, {"city": "Tunuyan", "lat": -33.5667, "lng": -69.0167}, {"city": "Cinco Saltos", "lat": -38.8167, "lng": -68.0667}, {"city": "San Justo", "lat": -30.7833, "lng": -60.5833}, {"city": "Dean Funes", "lat": -30.4333, "lng": -64.35}, {"city": "El Calafate", "lat": -50.3395, "lng": -72.2649}, {"city": "Chascomus", "lat": -35.575, "lng": -58.0089}, {"city": "Pico Truncado", "lat": -46.8, "lng": -67.9667}, {"city": "Sunchales", "lat": -30.9442, "lng": -61.5614}, {"city": "Laboulaye", "lat": -34.1267, "lng": -63.3911}, {"city": "Brandsen", "lat": -35.1667, "lng": -58.2167}, {"city": "General Martin Miguel de Guemes", "lat": -24.6667, "lng": -65.05}, {"city": "Rio Segundo", "lat": -31.6526, "lng": -63.9099}, {"city": "Vera", "lat": -29.4667, "lng": -60.2167}, {"city": "Villa Nueva", "lat": -32.4331, "lng": -63.2475}, {"city": "Rufino", "lat": -34.2683, "lng": -62.7125}, {"city": "Unquillo", "lat": -31.2333, "lng": -64.3167}, {"city": "Charata", "lat": -27.2144, "lng": -61.1881}, {"city": "Lobos", "lat": -35.1864, "lng": -59.0961}, {"city": "Coronda", "lat": -31.9667, "lng": -60.9167}, {"city": "General Juan Madariaga", "lat": -37.0167, "lng": -57.1333}, {"city": "General Deheza", "lat": -32.7564, "lng": -63.7889}, {"city": "Las Heras", "lat": -46.55, "lng": -68.95}, {"city": "Santa Elena", "lat": -30.95, "lng": -59.8}, {"city": "Catriel", "lat": -37.8778, "lng": -67.7917}, {"city": "Veinticinco de Mayo", "lat": -37.771, "lng": -67.7173}, {"city": "Eldorado", "lat": -26.4, "lng": -54.6333}, {"city": "Ayacucho", "lat": -37.1525, "lng": -58.4882}, {"city": "Santa Maria", "lat": -26.6833, "lng": -66.0333}, {"city": "Federacion", "lat": -30.9833, "lng": -57.9167}, {"city": "La Falda", "lat": -31.0833, "lng": -64.5}, {"city": "Carcarana", "lat": -32.85, "lng": -61.15}, {"city": "San Antonio Oeste", "lat": -40.7333, "lng": -64.95}, {"city": "Villa del Rosario", "lat": -31.5833, "lng": -63.5333}, {"city": "Villa Paranacito", "lat": -33.7, "lng": -58.6833}, {"city": "Fray Luis A. Beltran", "lat": -32.7833, "lng": -60.7333}, {"city": "Carmen de Areco", "lat": -34.3833, "lng": -59.8167}, {"city": "Ceres", "lat": -29.8833, "lng": -61.95}, {"city": "San Cristobal", "lat": -30.3105, "lng": -61.2372}, {"city": "Puerto Deseado", "lat": -47.75, "lng": -65.9167}, {"city": "Anatuya", "lat": -28.4667, "lng": -62.8333}, {"city": "Mar de Ajo", "lat": -36.7162, "lng": -56.6766}, {"city": "La Quiaca", "lat": -22.1056, "lng": -65.6}, {"city": "San Javier", "lat": -30.5833, "lng": -59.95}, {"city": "Frias", "lat": -28.6496, "lng": -65.15}, {"city": "Joaquin V. Gonzalez", "lat": -25.1171, "lng": -64.1247}, {"city": "Puerto San Martin", "lat": -32.7167, "lng": -60.7333}, {"city": "Plaza Huincul", "lat": -38.9338, "lng": -69.1987}, {"city": "Oncativo", "lat": -31.9134, "lng": -63.6818}, {"city": "Chos Malal", "lat": -37.3833, "lng": -70.2667}, {"city": "Santa Rosa de Calamuchita", "lat": -32.0667, "lng": -64.5333}, {"city": "Rosario del Tala", "lat": -32.3008, "lng": -59.1389}, {"city": "San Salvador", "lat": -31.6167, "lng": -58.5}, {"city": "Junin de los Andes", "lat": -39.9506, "lng": -71.0694}, {"city": "La Carlota", "lat": -33.4179, "lng": -63.2935}, {"city": "Laguna Paiva", "lat": -31.3039, "lng": -60.6589}, {"city": "Las Parejas", "lat": -32.6833, "lng": -61.5333}, {"city": "Malargue", "lat": -35.4745, "lng": -69.5853}, {"city": "Cafayate", "lat": -26.07, "lng": -65.98}, {"city": "Rio Colorado", "lat": -38.9908, "lng": -64.0958}, {"city": "Oliva", "lat": -32.0416, "lng": -63.5698}, {"city": "Cerrillos", "lat": -24.9, "lng": -65.4833}, {"city": "Coronel Dorrego", "lat": -38.7, "lng": -61.2667}, {"city": "Monte Quemado", "lat": -25.8072, "lng": -62.8278}, {"city": "Humahuaca", "lat": -23.2054, "lng": -65.3505}, {"city": "Belen", "lat": -27.6496, "lng": -67.0333}, {"city": "Capilla del Monte", "lat": -30.85, "lng": -64.5167}, {"city": "Armstrong", "lat": -32.7819, "lng": -61.6019}, {"city": "Villa La Angostura", "lat": -40.7616, "lng": -71.6448}, {"city": "Sarmiento", "lat": -45.6, "lng": -69.0833}, {"city": "Benito Juarez", "lat": -37.6833, "lng": -59.8}, {"city": "Frontera", "lat": -31.4278, "lng": -62.0619}, {"city": "Corral de Bustos", "lat": -33.2833, "lng": -62.2}, {"city": "Leones", "lat": -32.6617, "lng": -62.2967}, {"city": "Choele Choel", "lat": -39.2858, "lng": -65.6542}, {"city": "Santa Maria", "lat": -31.2611, "lng": -64.4639}, {"city": "Castelli", "lat": -25.95, "lng": -60.6167}, {"city": "Embalse", "lat": -32.1833, "lng": -64.4167}, {"city": "Rada Tilly", "lat": -45.9257, "lng": -67.5526}, {"city": "Chamical", "lat": -30.3592, "lng": -66.3133}, {"city": "Yacimiento Rio Turbio", "lat": -51.5361, "lng": -72.3361}, {"city": "Jesus Nazareno", "lat": -32.9111, "lng": -68.79}, {"city": "Mina Clavero", "lat": -31.7239, "lng": -65.005}, {"city": "Laprida", "lat": -37.5333, "lng": -60.8167}, {"city": "Helvecia", "lat": -31.1, "lng": -60.0833}, {"city": "San Julian", "lat": -49.307, "lng": -67.7298}, {"city": "Villa General Belgrano", "lat": -31.9667, "lng": -64.5667}, {"city": "Santa Rosa de Rio Primero", "lat": -31.15, "lng": -63.3833}, {"city": "Lamarque", "lat": -39.4236, "lng": -65.7}, {"city": "Las Lomitas", "lat": -24.7072, "lng": -60.5944}, {"city": "Laguna Larga", "lat": -31.7764, "lng": -63.8011}, {"city": "Carhue", "lat": -37.1667, "lng": -62.7333}, {"city": "General Fernandez Oro", "lat": -38.95, "lng": -67.9167}, {"city": "Rinconada", "lat": -22.4403, "lng": -66.1672}, {"city": "Ingeniero Guillermo N. Juarez", "lat": -23.9, "lng": -61.85}, {"city": "Comandante Luis Piedra Buena", "lat": -49.983, "lng": -68.91}, {"city": "Villa Cura Brochero", "lat": -31.71, "lng": -65.02}, {"city": "Trevelin", "lat": -43.0833, "lng": -71.4667}, {"city": "Ingeniero Jacobacci", "lat": -41.3, "lng": -69.5833}, {"city": "Ingeniero Luis A. Huergo", "lat": -39.0833, "lng": -67.2333}, {"city": "Veintiocho de Noviembre", "lat": -51.584, "lng": -72.2143}, {"city": "Chepes", "lat": -31.35, "lng": -66.6}, {"city": "Villa Huidobro", "lat": -34.8333, "lng": -64.5833}, {"city": "General Conesa", "lat": -40.1, "lng": -64.4333}, {"city": "San Antonio de los Cobres", "lat": -24.2256, "lng": -66.3192}, {"city": "Macachin", "lat": -37.1377, "lng": -63.662}, {"city": "Los Menucos", "lat": -40.8424, "lng": -68.0896}, {"city": "Perito Moreno", "lat": -46.59, "lng": -70.9297}, {"city": "Gobernador Gregores", "lat": -48.7509, "lng": -70.2485}, {"city": "Abra Pampa", "lat": -22.7167, "lng": -65.7}, {"city": "Victorica", "lat": -36.2167, "lng": -65.434}, {"city": "La Paz", "lat": -33.4661, "lng": -67.55}, {"city": "Comandante Fontana", "lat": -25.3333, "lng": -59.6833}, {"city": "El Maiten", "lat": -42.05, "lng": -71.1667}, {"city": "Pampa del Infierno", "lat": -26.5167, "lng": -61.1667}, {"city": "Rio Mayo", "lat": -45.687, "lng": -70.26}, {"city": "Chumbicha", "lat": -28.8666, "lng": -66.2333}, {"city": "Trancas", "lat": -26.2308, "lng": -65.2781}, {"city": "Alto Rio Senguer", "lat": -45.0419, "lng": -70.8234}, {"city": "Sierra Colorada", "lat": -40.5875, "lng": -67.7583}, {"city": "Las Lajas", "lat": -38.5208, "lng": -70.3667}, {"city": "Susques", "lat": -23.4006, "lng": -66.3672}, {"city": "Comallo", "lat": -41.0333, "lng": -70.2667}, {"city": "Rodeo", "lat": -30.2156, "lng": -69.14}, {"city": "Gastre", "lat": -42.2667, "lng": -69.2167}, {"city": "Tinogasta", "lat": -28.0667, "lng": -67.5667}, {"city": "Telsen", "lat": -42.3833, "lng": -66.95}, {"city": "Pedro Luro", "lat": -39.5, "lng": -62.6833}, {"city": "Monte Cristo", "lat": -31.3431, "lng": -63.9444}, {"city": "Justiniano Posse", "lat": -32.8833, "lng": -62.6667}, {"city": "Senillosa", "lat": -39.01, "lng": -68.43}, {"city": "Sierra Grande", "lat": -41.6061, "lng": -65.3558}, {"city": "Santa Rosa", "lat": -28.2631, "lng": -58.1189}, {"city": "Rio Primero", "lat": -31.3333, "lng": -63.6167}, {"city": "General Levalle", "lat": -34.0167, "lng": -63.9167}, {"city": "Perugorria", "lat": -29.3408, "lng": -58.6083}, {"city": "Bialet Masse", "lat": -31.3214, "lng": -64.4694}, {"city": "Darregueira", "lat": -37.6996, "lng": -63.1666}, {"city": "Villalonga", "lat": -39.8829, "lng": -62.5833}, {"city": "Uspallata", "lat": -32.5931, "lng": -69.346}, {"city": "Villa Rumipal", "lat": -32.1879, "lng": -64.4803}, {"city": "Los Blancos", "lat": -23.5996, "lng": -62.6}]