[{"city": "Sydney", "lat": -33.865, "lng": 151.2094}, {"city": "Melbourne", "lat": -37.8136, "lng": 144.9631}, {"city": "Brisbane", "lat": -27.4678, "lng": 153.0281}, {"city": "Perth", "lat": -31.9522, "lng": 115.8589}, {"city": "Adelaide", "lat": -34.9275, "lng": 138.6}, {"city": "Canberra", "lat": -35.2931, "lng": 149.1269}, {"city": "Gold Coast", "lat": -28.0167, "lng": 153.4}, {"city": "Cranbourne", "lat": -38.0996, "lng": 145.2834}, {"city": "Central Coast", "lat": -33.3, "lng": 151.2}, {"city": "Wollongong", "lat": -34.4331, "lng": 150.8831}, {"city": "Hobart", "lat": -42.8806, "lng": 147.325}, {"city": "Geelong", "lat": -38.15, "lng": 144.35}, {"city": "Townsville", "lat": -19.25, "lng": 146.8167}, {"city": "Ipswich", "lat": -27.6167, "lng": 152.7667}, {"city": "Newcastle", "lat": -32.9167, "lng": 151.75}, {"city": "Cairns", "lat": -16.92, "lng": 145.78}, {"city": "Darwin", "lat": -12.4381, "lng": 130.8411}, {"city": "Toowoomba", "lat": -27.5667, "lng": 151.95}, {"city": "Launceston", "lat": -41.4419, "lng": 147.145}, {"city": "Caloundra", "lat": -26.7986, "lng": 153.1289}, {"city": "Dandenong", "lat": -37.981, "lng": 145.215}, {"city": "Campbelltown", "lat": -34.0733, "lng": 150.8261}, {"city": "Leopold", "lat": -38.1892, "lng": 144.4644}, {"city": "Corinda", "lat": -27.4833, "lng": 153.1}, {"city": "Worragee", "lat": -34.9144, "lng": 150.6386}, {"city": "Ballarat", "lat": -37.5608, "lng": 143.8475}, {"city": "Bendigo", "lat": -36.75, "lng": 144.2667}, {"city": "Bunbury", "lat": -33.3272, "lng": 115.6369}, {"city": "Bundaberg", "lat": -24.8661, "lng": 152.3494}, {"city": "Wagga Wagga", "lat": -35.1189, "lng": 147.3689}, {"city": "Melton", "lat": -37.6833, "lng": 144.5833}, {"city": "Hervey Bay", "lat": -25.29, "lng": 152.84}, {"city": "Pakenham", "lat": -38.0712, "lng": 145.4878}, {"city": "Port Macquarie", "lat": -31.4333, "lng": 152.9}, {"city": "Dubbo", "lat": -32.2569, "lng": 148.6011}, {"city": "Orange", "lat": -33.2833, "lng": 149.1}, {"city": "Frankston", "lat": -38.158, "lng": 145.135}, {"city": "Sunbury", "lat": -37.5811, "lng": 144.7139}, {"city": "Bathurst", "lat": -33.42, "lng": 149.5778}, {"city": "Gladstone", "lat": -23.8427, "lng": 151.2555}, {"city": "Mildura", "lat": -34.1889, "lng": 142.1583}, {"city": "Southport", "lat": -27.9667, "lng": 153.4}, {"city": "Geraldton", "lat": -28.7744, "lng": 114.6089}, {"city": "Shepparton", "lat": -36.3833, "lng": 145.4}, {"city": "Kalgoorlie", "lat": -30.7489, "lng": 121.4658}, {"city": "Warrnambool", "lat": -38.3833, "lng": 142.4833}, {"city": "Albany", "lat": -35.0228, "lng": 117.8814}, {"city": "Quakers Hill", "lat": -33.7344, "lng": 150.8789}, {"city": "Burnie", "lat": -41.0636, "lng": 145.8753}, {"city": "Caboolture", "lat": -27.0667, "lng": 152.967}, {"city": "Coffs Harbour", "lat": -30.3022, "lng": 153.1189}, {"city": "Mount Gambier", "lat": -37.8294, "lng": 140.7828}, {"city": "Traralgon", "lat": -38.1958, "lng": 146.5403}, {"city": "Busselton", "lat": -33.6478, "lng": 115.3458}, {"city": "Armidale", "lat": -30.5, "lng": 151.65}, {"city": "Alice Springs", "lat": -23.7, "lng": 133.8667}, {"city": "Devonport", "lat": -41.18, "lng": 146.3503}, {"city": "Goulburn", "lat": -34.7547, "lng": 149.6186}, {"city": "Whyalla", "lat": -33.0333, "lng": 137.5667}, {"city": "Kwinana", "lat": -32.2394, "lng": 115.7702}, {"city": "Mount Eliza", "lat": -38.189, "lng": 145.092}, {"city": "Griffith", "lat": -34.29, "lng": 146.04}, {"city": "Wodonga", "lat": -36.1214, "lng": 146.8881}, {"city": "Narangba", "lat": -27.2015, "lng": 152.9655}, {"city": "Wangaratta", "lat": -36.3583, "lng": 146.3125}, {"city": "Broken Hill", "lat": -31.95, "lng": 141.4667}, {"city": "Taree", "lat": -31.9, "lng": 152.45}, {"city": "Banora Point", "lat": -28.2225, "lng": 153.5386}, {"city": "Nerang", "lat": -27.9956, "lng": 153.322}, {"city": "Lara", "lat": -38.0167, "lng": 144.4167}, {"city": "Cessnock", "lat": -32.8342, "lng": 151.3555}, {"city": "Warragul", "lat": -38.15, "lng": 145.9333}, {"city": "Karratha", "lat": -20.7364, "lng": 116.8464}, {"city": "Maryborough", "lat": -25.5375, "lng": 152.7019}, {"city": "Ulladulla", "lat": -35.3486, "lng": 150.4678}, {"city": "Murray Bridge", "lat": -35.117, "lng": 139.267}, {"city": "Ulverstone", "lat": -41.1667, "lng": 146.1667}, {"city": "Barwon Heads", "lat": -38.25, "lng": 144.5167}, {"city": "Horsham", "lat": -36.7167, "lng": 142.2}, {"city": "Australind", "lat": -33.28, "lng": 115.726}, {"city": "Rochedale", "lat": -27.6, "lng": 153.133}, {"city": "Penrith", "lat": -33.7511, "lng": 150.6942}, {"city": "Bongaree", "lat": -27.0813, "lng": 153.1636}, {"city": "Echuca", "lat": -36.1333, "lng": 144.75}, {"city": "Morwell", "lat": -38.2333, "lng": 146.4}, {"city": "Emerald", "lat": -23.5208, "lng": 148.1619}, {"city": "Port Lincoln", "lat": -34.7322, "lng": 135.8586}, {"city": "Forster", "lat": -32.1806, "lng": 152.5117}, {"city": "Mount Barker", "lat": -35.0667, "lng": 138.85}, {"city": "Goonellabah", "lat": -28.8167, "lng": 153.3167}, {"city": "Raymond Terrace", "lat": -32.7615, "lng": 151.7441}, {"city": "Torquay", "lat": -38.3333, "lng": 144.3167}, {"city": "Sale", "lat": -38.1, "lng": 147.0667}, {"city": "Rutherford", "lat": -32.715, "lng": 151.5317}, {"city": "Jimboomba", "lat": -27.83, "lng": 153.0313}, {"city": "Dalby", "lat": -27.1813, "lng": 151.2661}, {"city": "Warwick", "lat": -28.2152, "lng": 152.0352}, {"city": "Muswellbrook", "lat": -32.2654, "lng": 150.8885}, {"city": "Drouin", "lat": -38.1333, "lng": 145.85}, {"city": "Inverell", "lat": -29.7667, "lng": 151.1167}, {"city": "Parkes", "lat": -33.133, "lng": 148.176}, {"city": "Nelson Bay", "lat": -32.715, "lng": 152.1511}, {"city": "Wallan", "lat": -37.4167, "lng": 144.9833}, {"city": "Nambour", "lat": -26.6269, "lng": 152.9591}, {"city": "Somerville", "lat": -38.226, "lng": 145.177}, {"city": "Gracemere", "lat": -23.4391, "lng": 150.4558}, {"city": "Kingston", "lat": -42.9769, "lng": 147.3083}, {"city": "Casino", "lat": -28.8667, "lng": 153.05}, {"city": "Mareeba", "lat": -16.9833, "lng": 145.4167}, {"city": "Grafton", "lat": -29.6833, "lng": 152.9333}, {"city": "Gympie", "lat": -26.19, "lng": 152.6655}, {"city": "Bowen", "lat": -20.0102, "lng": 148.2416}, {"city": "Young", "lat": -34.3, "lng": 148.3}, {"city": "Bowral", "lat": -34.4792, "lng": 150.4181}, {"city": "Nowra", "lat": -34.8808, "lng": 150.6075}, {"city": "Swan Hill", "lat": -35.3333, "lng": 143.55}, {"city": "Mount Evelyn", "lat": -37.783, "lng": 145.385}, {"city": "Benalla", "lat": -36.5519, "lng": 145.9817}, {"city": "Mudgee", "lat": -32.6125, "lng": 149.5872}, {"city": "Cowra", "lat": -33.8183, "lng": 148.6578}, {"city": "Kingaroy", "lat": -26.5408, "lng": 151.8394}, {"city": "Kangaroo Flat", "lat": -36.7833, "lng": 144.233}, {"city": "Hamilton", "lat": -37.7333, "lng": 142.0167}, {"city": "Ballina", "lat": -28.8333, "lng": 153.5333}, {"city": "Andergrove", "lat": -21.0931, "lng": 149.186}, {"city": "Moree", "lat": -29.465, "lng": 149.8344}, {"city": "Portland", "lat": -38.3333, "lng": 141.6}, {"city": "Highfields", "lat": -27.4633, "lng": 151.9458}, {"city": "Gunnedah", "lat": -30.9667, "lng": 150.25}, {"city": "Springwood", "lat": -33.7036, "lng": 150.55}, {"city": "Colac", "lat": -38.3403, "lng": 143.5847}, {"city": "Ayr", "lat": -19.5744, "lng": 147.4066}, {"city": "Leeton", "lat": -34.5667, "lng": 146.4}, {"city": "Tweed Heads", "lat": -28.1833, "lng": 153.55}, {"city": "Moe", "lat": -38.1722, "lng": 146.2678}, {"city": "Gisborne", "lat": -37.49, "lng": 144.5889}, {"city": "Moranbah", "lat": -22.0016, "lng": 148.0533}, {"city": "Yanchep", "lat": -31.55, "lng": 115.634}, {"city": "Currumbin", "lat": -28.158, "lng": 153.469}, {"city": "Bli Bli", "lat": -26.618, "lng": 153.037}, {"city": "Ararat", "lat": -37.2833, "lng": 142.9167}, {"city": "Kelso", "lat": -33.4186, "lng": 149.6056}, {"city": "Moss Vale", "lat": -34.55, "lng": 150.3833}, {"city": "Clifton Springs", "lat": -38.15, "lng": 144.5667}, {"city": "Katoomba", "lat": -33.715, "lng": 150.312}, {"city": "Bairnsdale", "lat": -37.8333, "lng": 147.6167}, {"city": "Emu Plains", "lat": -33.7483, "lng": 150.6678}, {"city": "Wollert", "lat": -37.5833, "lng": 145.0333}, {"city": "Merrimac", "lat": -28.05, "lng": 153.3667}, {"city": "Charters Towers", "lat": -20.0765, "lng": 146.2614}, {"city": "Rye", "lat": -38.377, "lng": 144.838}, {"city": "Deniliquin", "lat": -35.5331, "lng": 144.9667}, {"city": "Mooroopna", "lat": -36.3833, "lng": 145.35}, {"city": "Forbes", "lat": -33.3817, "lng": 148.0011}, {"city": "Redlynch", "lat": -16.8833, "lng": 145.7}, {"city": "Maryborough", "lat": -37.05, "lng": 143.735}, {"city": "Narrabri", "lat": -30.3317, "lng": 149.7678}, {"city": "Kingscliff", "lat": -28.2617, "lng": 153.5769}, {"city": "Atherton", "lat": -17.2658, "lng": 145.478}, {"city": "Darley", "lat": -37.6547, "lng": 144.437}, {"city": "Kilmore", "lat": -37.2833, "lng": 144.95}, {"city": "Gatton", "lat": -27.5611, "lng": 152.2755}, {"city": "Blaxland", "lat": -33.75, "lng": 150.6167}, {"city": "Yarrawonga", "lat": -36.0167, "lng": 146.0}, {"city": "Collie", "lat": -33.363, "lng": 116.156}, {"city": "Kyabram", "lat": -36.3167, "lng": 145.05}, {"city": "Sanctuary Point", "lat": -35.1036, "lng": 150.6267}, {"city": "Healesville", "lat": -37.6561, "lng": 145.5139}, {"city": "Burpengary", "lat": -27.1442, "lng": 153.0}, {"city": "Margaret River", "lat": -33.955, "lng": 115.075}, {"city": "Urraween", "lat": -25.2955, "lng": 152.8219}, {"city": "Kiama", "lat": -34.6708, "lng": 150.8542}, {"city": "Narre Warren North", "lat": -37.982, "lng": 145.314}, {"city": "Bargara", "lat": -24.8205, "lng": 152.4625}, {"city": "Mandurah", "lat": -32.5289, "lng": 115.7231}, {"city": "Kyneton", "lat": -37.247, "lng": 144.455}, {"city": "Fremantle", "lat": -32.0569, "lng": 115.7439}, {"city": "Murwillumbah", "lat": -28.3333, "lng": 153.3833}, {"city": "Cootamundra", "lat": -34.6483, "lng": 148.0344}, {"city": "Gordonvale", "lat": -17.0936, "lng": 145.7866}, {"city": "Bacchus Marsh", "lat": -37.675, "lng": 144.4389}, {"city": "Roma", "lat": -26.5733, "lng": 148.7869}, {"city": "Waterford", "lat": -27.6906, "lng": 153.1332}, {"city": "North Tamborine", "lat": -27.9694, "lng": 153.1992}, {"city": "Kurri Kurri", "lat": -32.8167, "lng": 151.4833}, {"city": "Castlemaine", "lat": -37.0636, "lng": 144.2172}, {"city": "Port Augusta", "lat": -32.4925, "lng": 137.7658}, {"city": "Lennox Head", "lat": -28.7983, "lng": 153.5844}, {"city": "Bomaderry", "lat": -34.848, "lng": 150.605}, {"city": "Tuncurry", "lat": -32.175, "lng": 152.4989}, {"city": "Strathalbyn", "lat": -35.2667, "lng": 138.9}, {"city": "Yeppoon", "lat": -23.1288, "lng": 150.7444}, {"city": "Seymour", "lat": -37.03, "lng": 145.13}, {"city": "Wauchope", "lat": -31.45, "lng": 152.7333}, {"city": "Beaudesert", "lat": -27.988, "lng": 152.9958}, {"city": "Helensburgh", "lat": -34.1889, "lng": 150.9811}, {"city": "Yass", "lat": -34.8203, "lng": 148.9136}, {"city": "Newman", "lat": -23.3539, "lng": 119.7319}, {"city": "Cooma", "lat": -36.2317, "lng": 149.1178}, {"city": "Nuriootpa", "lat": -34.4667, "lng": 138.9833}, {"city": "Beerwah", "lat": -26.8583, "lng": 152.9588}, {"city": "Chinchilla", "lat": -26.7383, "lng": 150.6283}, {"city": "Goondiwindi", "lat": -28.5461, "lng": 150.3097}, {"city": "Tumut", "lat": -35.3039, "lng": 148.2233}, {"city": "Cannonvale", "lat": -20.2787, "lng": 148.6994}, {"city": "Nambucca Heads", "lat": -30.6414, "lng": 152.9906}, {"city": "Wynyard", "lat": -41.0, "lng": 145.7167}, {"city": "North Mackay", "lat": -21.1216, "lng": 149.1783}, {"city": "Northam", "lat": -31.6531, "lng": 116.6661}, {"city": "Mount Cotton", "lat": -27.6188, "lng": 153.221}, {"city": "Alstonville", "lat": -28.8317, "lng": 153.4344}, {"city": "Glen Innes", "lat": -29.7317, "lng": 151.7511}, {"city": "Yamba", "lat": -29.44, "lng": 153.3594}, {"city": "Biloela", "lat": -24.4002, "lng": 150.5133}, {"city": "Kiama Downs", "lat": -34.6317, "lng": 150.8511}, {"city": "Pottsville", "lat": -28.3869, "lng": 153.5608}, {"city": "Lysterfield", "lat": -37.93, "lng": 145.301}, {"city": "Lakes Entrance", "lat": -37.8667, "lng": 147.9833}, {"city": "Stawell", "lat": -37.05, "lng": 142.7667}, {"city": "Wentworth Falls", "lat": -33.7164, "lng": 150.3772}, {"city": "Mittagong", "lat": -34.45, "lng": 150.45}, {"city": "Scone", "lat": -32.0483, "lng": 150.8678}, {"city": "Tannum Sands", "lat": -23.9474, "lng": 151.3675}, {"city": "Dromana", "lat": -38.338, "lng": 144.965}, {"city": "Palmwoods", "lat": -26.6883, "lng": 152.9597}, {"city": "Leongatha", "lat": -38.4833, "lng": 145.95}, {"city": "South Grafton", "lat": -29.715, "lng": 152.9344}, {"city": "Point Vernon", "lat": -25.2538, "lng": 152.8177}, {"city": "Kununurra", "lat": -15.7736, "lng": 128.7386}, {"city": "Naracoorte", "lat": -36.955, "lng": 140.7429}, {"city": "Corowa", "lat": -35.9942, "lng": 146.3844}, {"city": "Woolgoolga", "lat": -30.115, "lng": 153.2011}, {"city": "Cobram", "lat": -35.9667, "lng": 145.65}, {"city": "Queanbeyan", "lat": -35.3533, "lng": 149.2342}, {"city": "Albury", "lat": -36.0806, "lng": 146.9158}, {"city": "Maffra", "lat": -37.95, "lng": 146.983}, {"city": "Tahmoor", "lat": -34.2233, "lng": 150.5928}, {"city": "Woodend", "lat": -37.363, "lng": 144.526}, {"city": "Inverloch", "lat": -38.6334, "lng": 145.7278}, {"city": "Whittlesea", "lat": -37.5139, "lng": 145.114}, {"city": "Lithgow", "lat": -33.4833, "lng": 150.15}, {"city": "Emerald", "lat": -37.9331, "lng": 145.437}, {"city": "Richmond", "lat": -33.5983, "lng": 150.7511}, {"city": "New Norfolk", "lat": -42.7828, "lng": 147.0594}, {"city": "East Ballina", "lat": -28.8594, "lng": 153.5872}, {"city": "Sarina", "lat": -21.4225, "lng": 149.2175}, {"city": "Wingham", "lat": -31.85, "lng": 152.367}, {"city": "Millicent", "lat": -37.5967, "lng": 140.3524}, {"city": "Dunsborough", "lat": -33.6167, "lng": 115.1}, {"city": "Irymple", "lat": -34.2333, "lng": 142.1667}, {"city": "Cooranbong", "lat": -33.074, "lng": 151.451}, {"city": "Red Cliffs", "lat": -34.3075, "lng": 142.1881}, {"city": "Nairne", "lat": -35.0333, "lng": 138.9167}, {"city": "Bannockburn", "lat": -38.05, "lng": 144.1667}, {"city": "Glenbrook", "lat": -33.765, "lng": 150.6267}, {"city": "Smithfield Heights", "lat": -16.8314, "lng": 145.691}, {"city": "Calliope", "lat": -24.0061, "lng": 151.1988}, {"city": "Byron Bay", "lat": -28.6483, "lng": 153.6178}, {"city": "Glass House Mountains", "lat": -26.9, "lng": 152.9167}, {"city": "Singleton", "lat": -32.5667, "lng": 151.1697}, {"city": "Wonthaggi", "lat": -38.6056, "lng": 145.5917}, {"city": "Ocean Shores", "lat": -28.5092, "lng": 153.5375}, {"city": "Berri", "lat": -34.2833, "lng": 140.6}, {"city": "Howard Springs", "lat": -12.4922, "lng": 131.053}, {"city": "Mackay", "lat": -21.1411, "lng": 149.1858}, {"city": "Victor Harbor", "lat": -35.55, "lng": 138.6167}, {"city": "Lismore", "lat": -28.8167, "lng": 153.2833}, {"city": "Ingham", "lat": -18.65, "lng": 146.1667}, {"city": "Manjimup", "lat": -34.2411, "lng": 116.1464}, {"city": "Smithton", "lat": -40.844, "lng": 145.12}, {"city": "Narrogin", "lat": -32.936, "lng": 117.178}, {"city": "Proserpine", "lat": -20.4017, "lng": 148.5814}, {"city": "Merimbula", "lat": -36.8983, "lng": 149.9011}, {"city": "Broome", "lat": -17.9619, "lng": 122.2361}, {"city": "Katanning", "lat": -33.6908, "lng": 117.5553}, {"city": "Port Hedland", "lat": -20.31, "lng": 118.6011}, {"city": "Charleville", "lat": -26.4016, "lng": 146.2383}, {"city": "Weipa", "lat": -12.6167, "lng": 141.8667}, {"city": "Port Douglas", "lat": -16.4834, "lng": 145.4652}, {"city": "Clare", "lat": -33.8333, "lng": 138.6}, {"city": "Wallaroo", "lat": -33.9167, "lng": 137.6167}, {"city": "Longreach", "lat": -23.4422, "lng": 144.2491}, {"city": "Rockhampton", "lat": -23.375, "lng": 150.5117}, {"city": "Tom Price", "lat": -22.6939, "lng": 117.795}, {"city": "Cloncurry", "lat": -20.7047, "lng": 140.5052}, {"city": "Bordertown", "lat": -36.3118, "lng": 140.7702}, {"city": "Mount Barker", "lat": -34.63, "lng": 117.6669}, {"city": "Esperance", "lat": -33.8611, "lng": 121.8919}, {"city": "Merredin", "lat": -31.482, "lng": 118.279}, {"city": "Scottsdale", "lat": -41.1667, "lng": 147.5167}, {"city": "Maitland", "lat": -32.7167, "lng": 151.55}, {"city": "Bourke", "lat": -30.1, "lng": 145.9333}, {"city": "Exmouth", "lat": -21.9331, "lng": 114.1281}, {"city": "Queenstown", "lat": -42.0667, "lng": 145.55}, {"city": "Tumby Bay", "lat": -34.3667, "lng": 136.1}, {"city": "Penola", "lat": -37.3786, "lng": 140.8362}, {"city": "Kalbarri", "lat": -27.71, "lng": 114.16}, {"city": "Innisfail", "lat": -17.5238, "lng": 146.0311}, {"city": "Batemans Bay", "lat": -35.7081, "lng": 150.1744}, {"city": "Port Denison", "lat": -29.2833, "lng": 114.9167}, {"city": "Barcaldine", "lat": -23.5555, "lng": 145.2888}, {"city": "Kingston South East", "lat": -36.8167, "lng": 139.85}, {"city": "Wagin", "lat": -33.3167, "lng": 117.35}, {"city": "Gawler", "lat": -34.5981, "lng": 138.745}, {"city": "Peterborough", "lat": -32.9667, "lng": 138.8333}, {"city": "Streaky Bay", "lat": -32.8, "lng": 134.2167}, {"city": "Halls Creek", "lat": -18.23, "lng": 127.67}, {"city": "Ouyen", "lat": -35.0667, "lng": 142.317}, {"city": "Katherine", "lat": -14.4667, "lng": 132.2667}, {"city": "Mount Isa", "lat": -20.7333, "lng": 139.5}, {"city": "Hughenden", "lat": -20.8438, "lng": 144.1986}, {"city": "Port Pirie", "lat": -33.1858, "lng": 138.0169}, {"city": "Meningie", "lat": -35.6883, "lng": 139.338}, {"city": "Cowell", "lat": -33.6833, "lng": 136.9167}, {"city": "Meekatharra", "lat": -26.5931, "lng": 118.4911}, {"city": "Yulara", "lat": -25.2406, "lng": 130.9889}, {"city": "Wyndham", "lat": -15.4825, "lng": 128.123}, {"city": "Roebourne", "lat": -20.7667, "lng": 117.15}, {"city": "Bicheno", "lat": -41.8667, "lng": 148.2833}, {"city": "Winton", "lat": -22.3913, "lng": 143.0381}, {"city": "Oatlands", "lat": -42.3, "lng": 147.3706}, {"city": "Leonora", "lat": -28.88, "lng": 121.33}, {"city": "Kempsey", "lat": -31.0833, "lng": 152.8333}, {"city": "Gingin", "lat": -31.34, "lng": 115.91}, {"city": "Wilcannia", "lat": -31.565, "lng": 143.3678}, {"city": "Onslow", "lat": -21.6333, "lng": 115.1167}, {"city": "Laverton", "lat": -28.628, "lng": 122.403}, {"city": "Morawa", "lat": -29.2111, "lng": 116.009}, {"city": "Southern Cross", "lat": -31.25, "lng": 119.35}, {"city": "Quilpie", "lat": -26.6161, "lng": 144.2675}, {"city": "Tamworth", "lat": -31.0833, "lng": 150.9167}, {"city": "Norseman", "lat": -32.1961, "lng": 121.778}, {"city": "Ravensthorpe", "lat": -33.5831, "lng": 120.049}, {"city": "Eidsvold", "lat": -25.3667, "lng": 151.1333}, {"city": "Pannawonica", "lat": -21.635, "lng": 116.336}, {"city": "Kimba", "lat": -33.1333, "lng": 136.417}, {"city": "Richmond", "lat": -20.7305, "lng": 143.1425}, {"city": "Mount Magnet", "lat": -28.06, "lng": 117.846}, {"city": "Three Springs", "lat": -29.5333, "lng": 115.717}, {"city": "Theodore", "lat": -24.95, "lng": 150.0833}, {"city": "Carnarvon", "lat": -24.8672, "lng": 113.6611}, {"city": "Karumba", "lat": -17.4838, "lng": 140.8397}, {"city": "Andamooka", "lat": -30.447, "lng": 137.166}, {"city": "Georgetown", "lat": -18.3, "lng": 143.55}, {"city": "Boulia", "lat": -22.9, "lng": 139.9}, {"city": "Adelaide River", "lat": -13.2381, "lng": 131.1061}, {"city": "Burketown", "lat": -17.7167, "lng": 139.5667}, {"city": "Ivanhoe", "lat": -32.8983, "lng": 144.3}, {"city": "Thargomindah", "lat": -28.0, "lng": 143.8167}, {"city": "Pine Creek", "lat": -13.8231, "lng": 131.833}, {"city": "Camooweal", "lat": -19.9167, "lng": 138.117}, {"city": "Birdsville", "lat": -25.8989, "lng": 139.352}, {"city": "Bedourie", "lat": -24.35, "lng": 139.4667}, {"city": "Windorah", "lat": -25.4206, "lng": 142.6547}, {"city": "Kingoonya", "lat": -30.9, "lng": 135.3}, {"city": "Bullsbrook", "lat": -31.663, "lng": 116.03}, {"city": "McMinns Lagoon", "lat": -12.5329, "lng": 131.05}, {"city": "Ceduna", "lat": -32.1167, "lng": 133.6667}, {"city": "Woomera", "lat": -31.1496, "lng": 136.8}]