[{"city": "Baku", "lat": 40.3667, "lng": 49.8352}, {"city": "Sumqayit", "lat": 40.5917, "lng": 49.6397}, {"city": "Ganca", "lat": 40.6828, "lng": 46.3606}, {"city": "Mingacevir", "lat": 40.77, "lng": 47.0489}, {"city": "Xirdalan", "lat": 40.4486, "lng": 49.7564}, {"city": "Naxcivan", "lat": 39.2089, "lng": 45.4122}, {"city": "Sirvan", "lat": 39.9323, "lng": 48.9203}, {"city": "Saki", "lat": 41.1919, "lng": 47.1706}, {"city": "Yevlax", "lat": 40.6172, "lng": 47.15}, {"city": "M.A. Rasulzada", "lat": 40.4344, "lng": 49.8336}, {"city": "Lankaran", "lat": 38.7536, "lng": 48.8511}, {"city": "Samkir", "lat": 40.8297, "lng": 46.0189}, {"city": "Xacmaz", "lat": 41.4681, "lng": 48.8028}, {"city": "Agcabadi", "lat": 40.0489, "lng": 47.4502}, {"city": "Barda", "lat": 40.3831, "lng": 47.1186}, {"city": "Goycay", "lat": 40.6553, "lng": 47.7389}, {"city": "Zaqatala", "lat": 41.6336, "lng": 46.6433}, {"city": "Imisli", "lat": 39.8697, "lng": 48.06}, {"city": "Salyan", "lat": 39.5961, "lng": 48.9847}, {"city": "Agdas", "lat": 40.65, "lng": 47.4833}, {"city": "Calilabad", "lat": 39.2042, "lng": 48.4958}, {"city": "Haci Zeynalabdin", "lat": 40.6242, "lng": 49.5575}, {"city": "Bilasuvar", "lat": 39.4481, "lng": 48.5428}, {"city": "Quba", "lat": 41.3653, "lng": 48.5264}, {"city": "Ismayilli", "lat": 40.7839, "lng": 48.1439}, {"city": "Agsu", "lat": 40.5708, "lng": 48.3928}, {"city": "Agstafa", "lat": 41.1167, "lng": 45.45}, {"city": "Ahmadli", "lat": 40.3839, "lng": 49.9475}, {"city": "Siyazan", "lat": 41.0783, "lng": 49.1061}, {"city": "Sabirabad", "lat": 40.0053, "lng": 48.4719}, {"city": "Saatli", "lat": 39.9311, "lng": 48.3697}, {"city": "Fuzuli", "lat": 39.6003, "lng": 47.1431}, {"city": "Astara", "lat": 38.44, "lng": 48.875}, {"city": "Kurdamir", "lat": 40.3383, "lng": 48.1608}, {"city": "Masalli", "lat": 39.0324, "lng": 48.6722}, {"city": "Ucar", "lat": 40.5183, "lng": 47.6542}, {"city": "Neftcala", "lat": 39.3791, "lng": 49.2486}, {"city": "Qusar", "lat": 41.4219, "lng": 48.4214}, {"city": "Tovuz", "lat": 40.9864, "lng": 45.6275}, {"city": "Tartar", "lat": 40.3353, "lng": 46.9303}, {"city": "Culfa", "lat": 38.9558, "lng": 45.6308}, {"city": "Beylaqan", "lat": 39.7692, "lng": 47.6156}, {"city": "Qax", "lat": 41.4194, "lng": 46.9181}, {"city": "Daskasan", "lat": 40.5181, "lng": 46.0828}, {"city": "Ordubad", "lat": 38.9047, "lng": 46.0231}, {"city": "Naftalan", "lat": 40.5058, "lng": 46.8192}, {"city": "Samux", "lat": 40.7642, "lng": 46.4083}, {"city": "Gadabay", "lat": 40.5656, "lng": 45.8161}, {"city": "Zardab", "lat": 40.2111, "lng": 47.7108}, {"city": "Balakan", "lat": 41.7186, "lng": 46.4165}, {"city": "Yardimli", "lat": 38.9206, "lng": 48.2372}, {"city": "Goranboy", "lat": 40.61, "lng": 46.7872}, {"city": "Lerik", "lat": 38.7753, "lng": 48.4153}, {"city": "Oguz", "lat": 41.0708, "lng": 47.4583}, {"city": "Cabrayil", "lat": 39.4, "lng": 47.0261}, {"city": "Babak", "lat": 39.1111, "lng": 45.4114}, {"city": "Susa", "lat": 39.7602, "lng": 46.7504}, {"city": "Agdam", "lat": 39.9833, "lng": 46.9167}, {"city": "Sahbuz", "lat": 39.4073, "lng": 45.5733}, {"city": "Lacin", "lat": 39.6408, "lng": 46.5469}, {"city": "Xocali", "lat": 39.9131, "lng": 46.7903}, {"city": "Qubadli", "lat": 39.3439, "lng": 46.5797}, {"city": "Heydarabad", "lat": 39.7229, "lng": 44.8485}, {"city": "Qazax", "lat": 41.0925, "lng": 45.3656}, {"city": "Sarur", "lat": 39.5544, "lng": 44.9826}, {"city": "Qabala", "lat": 40.9825, "lng": 47.8491}, {"city": "Goygol", "lat": 40.5858, "lng": 46.3189}, {"city": "Davaci", "lat": 41.2012, "lng": 48.9871}, {"city": "Qivraq", "lat": 39.3994, "lng": 45.1151}, {"city": "Haciqabul", "lat": 40.0387, "lng": 48.9429}, {"city": "Kalbacar", "lat": 40.1098, "lng": 46.0445}, {"city": "Qobustan", "lat": 40.5336, "lng": 48.9282}, {"city": "Xocavand", "lat": 39.795, "lng": 47.1117}, {"city": "Xizi", "lat": 40.9111, "lng": 49.0694}, {"city": "Qaracuxur", "lat": 40.3969, "lng": 49.9733}, {"city": "Bakixanov", "lat": 40.4217, "lng": 49.9644}, {"city": "Xankandi", "lat": 39.8153, "lng": 46.7519}, {"city": "Mastaga", "lat": 40.5286, "lng": 50.0103}, {"city": "Qazyan", "lat": 39.2015, "lng": 46.415}, {"city": "Lokbatan", "lat": 40.3272, "lng": 49.73}, {"city": "Buzovna", "lat": 40.5167, "lng": 50.1167}, {"city": "Amircan", "lat": 40.4236, "lng": 49.9886}, {"city": "Samaxi", "lat": 40.6339, "lng": 48.6392}, {"city": "Corat", "lat": 40.5739, "lng": 49.7036}, {"city": "Pirallahi", "lat": 40.4708, "lng": 50.3217}, {"city": "Alat", "lat": 39.9483, "lng": 49.4067}, {"city": "Qazmalar", "lat": 40.9814, "lng": 47.8458}, {"city": "Xudat", "lat": 41.6339, "lng": 48.6772}, {"city": "Qovlar", "lat": 40.9419, "lng": 45.7358}, {"city": "Goytapa", "lat": 39.1167, "lng": 48.5953}, {"city": "Asagi Ayibli", "lat": 40.9347, "lng": 45.8261}, {"city": "Liman", "lat": 38.8733, "lng": 48.8139}, {"city": "Xacmaz", "lat": 41.0471, "lng": 47.6043}, {"city": "Xindiristan", "lat": 40.1214, "lng": 47.1075}, {"city": "Kis", "lat": 41.2594, "lng": 47.1881}, {"city": "Agdam", "lat": 40.9053, "lng": 45.5564}]