[{"city": "Dhaka", "lat": 23.7289, "lng": 90.3944}, {"city": "Chattogram", "lat": 22.335, "lng": 91.8325}, {"city": "Khulna", "lat": 22.8167, "lng": 89.55}, {"city": "Sylhet", "lat": 24.9, "lng": 91.8667}, {"city": "Rajshahi", "lat": 24.3667, "lng": 88.6}, {"city": "Mymensingh", "lat": 24.7504, "lng": 90.38}, {"city": "Comilla", "lat": 23.45, "lng": 91.2}, {"city": "Rangpur", "lat": 25.75, "lng": 89.2444}, {"city": "Brahmanbaria", "lat": 23.9667, "lng": 91.1}, {"city": "Jessore", "lat": 23.1704, "lng": 89.2}, {"city": "Narayanganj", "lat": 23.6167, "lng": 90.5}, {"city": "Saidpur", "lat": 25.8004, "lng": 89.0}, {"city": "Barishal", "lat": 22.7, "lng": 90.3667}, {"city": "Narsingdi", "lat": 23.9, "lng": 90.7167}, {"city": "Tangail", "lat": 24.25, "lng": 89.92}, {"city": "Jamalpur", "lat": 24.9004, "lng": 89.95}, {"city": "Nawabganj", "lat": 24.5804, "lng": 88.35}, {"city": "Pabna", "lat": 24.0004, "lng": 89.25}, {"city": "Harinakunda", "lat": 23.65, "lng": 89.0333}]