[{"city": "Sofia", "lat": 42.6979, "lng": 23.3217}, {"city": "Plovdiv", "lat": 42.1421, "lng": 24.7415}, {"city": "Varna", "lat": 43.2114, "lng": 27.9111}, {"city": "Burgas", "lat": 42.503, "lng": 27.4702}, {"city": "Ruse", "lat": 43.8445, "lng": 25.9539}, {"city": "Stara Zagora", "lat": 42.4257, "lng": 25.6346}, {"city": "Pleven", "lat": 43.4132, "lng": 24.6169}, {"city": "Dobrich", "lat": 43.5667, "lng": 27.8333}, {"city": "Sliven", "lat": 42.6781, "lng": 26.326}, {"city": "Shumen", "lat": 43.2746, "lng": 26.9349}, {"city": "Pazardzhik", "lat": 42.1935, "lng": 24.3328}, {"city": "Pernik", "lat": 42.5998, "lng": 23.0308}, {"city": "Blagoevgrad", "lat": 42.0119, "lng": 23.0897}, {"city": "Haskovo", "lat": 41.9346, "lng": 25.5556}, {"city": "Yambol", "lat": 42.4824, "lng": 26.5038}, {"city": "Veliko Tarnovo", "lat": 43.0787, "lng": 25.6283}, {"city": "Vratsa", "lat": 43.2121, "lng": 23.5444}, {"city": "Gabrovo", "lat": 42.8742, "lng": 25.3178}, {"city": "Kardzhali", "lat": 41.6447, "lng": 25.375}, {"city": "Vidin", "lat": 43.9887, "lng": 22.8741}, {"city": "Kyustendil", "lat": 42.2797, "lng": 22.687}, {"city": "Montana", "lat": 43.4055, "lng": 23.2242}, {"city": "Targovishte", "lat": 43.2414, "lng": 26.5719}, {"city": "Silistra", "lat": 44.1092, "lng": 27.2654}, {"city": "Lovech", "lat": 43.1348, "lng": 24.7115}, {"city": "Razgrad", "lat": 43.5409, "lng": 26.5288}, {"city": "Smolyan", "lat": 41.5753, "lng": 24.7128}, {"city": "Asenovgrad", "lat": 42.0082, "lng": 24.8773}, {"city": "Kazanlak", "lat": 42.6187, "lng": 25.3932}, {"city": "Dimitrovgrad", "lat": 42.0574, "lng": 25.5862}, {"city": "Dupnitsa", "lat": 42.265, "lng": 23.1185}, {"city": "Gorna Oryahovitsa", "lat": 43.1304, "lng": 25.7041}, {"city": "Petrich", "lat": 41.3953, "lng": 23.2069}, {"city": "Sandanski", "lat": 41.5681, "lng": 23.2823}, {"city": "Samokov", "lat": 42.3371, "lng": 23.5554}, {"city": "Velingrad", "lat": 42.0276, "lng": 23.9913}, {"city": "Svishtov", "lat": 43.6113, "lng": 25.3569}, {"city": "Sevlievo", "lat": 43.0207, "lng": 25.0945}, {"city": "Aytos", "lat": 42.699, "lng": 27.249}, {"city": "Lom", "lat": 43.8254, "lng": 23.2374}, {"city": "Nova Zagora", "lat": 42.486, "lng": 26.016}, {"city": "Karlovo", "lat": 42.642, "lng": 24.8082}, {"city": "Botevgrad", "lat": 42.9073, "lng": 23.7937}, {"city": "Troyan", "lat": 42.8915, "lng": 24.7105}, {"city": "Harmanli", "lat": 41.9297, "lng": 25.9019}, {"city": "Gotse Delchev", "lat": 41.5737, "lng": 23.7291}, {"city": "Peshtera", "lat": 42.034, "lng": 24.3025}, {"city": "Svilengrad", "lat": 41.7652, "lng": 26.203}, {"city": "Karnobat", "lat": 42.6513, "lng": 26.9855}, {"city": "Panagyurishte", "lat": 42.5026, "lng": 24.1802}, {"city": "Rakovski", "lat": 42.2884, "lng": 24.9655}, {"city": "Popovo", "lat": 43.3496, "lng": 26.227}, {"city": "Chirpan", "lat": 42.1981, "lng": 25.3304}, {"city": "Novi Iskar", "lat": 42.8226, "lng": 23.3538}, {"city": "Pomorie", "lat": 42.5569, "lng": 27.6405}, {"city": "Nesebar", "lat": 42.6595, "lng": 27.7247}, {"city": "Ihtiman", "lat": 42.4374, "lng": 23.8164}, {"city": "Parvomay", "lat": 42.0956, "lng": 25.2189}, {"city": "Radomir", "lat": 42.5457, "lng": 22.9623}, {"city": "Berkovitsa", "lat": 43.2371, "lng": 23.1251}, {"city": "Novi Pazar", "lat": 43.3476, "lng": 27.1981}, {"city": "Provadia", "lat": 43.1694, "lng": 27.4428}, {"city": "Balchik", "lat": 43.4102, "lng": 28.1662}, {"city": "Razlog", "lat": 41.8865, "lng": 23.468}, {"city": "Bankya", "lat": 42.7069, "lng": 23.1472}, {"city": "Kozloduy", "lat": 43.7764, "lng": 23.7294}, {"city": "Stamboliyski", "lat": 42.1332, "lng": 24.5379}, {"city": "Radnevo", "lat": 42.2915, "lng": 25.9368}, {"city": "Kostinbrod", "lat": 42.8101, "lng": 23.2168}, {"city": "Kavarna", "lat": 43.436, "lng": 28.3392}, {"city": "Byala Slatina", "lat": 43.4688, "lng": 23.9454}, {"city": "Etropole", "lat": 42.8288, "lng": 23.9924}, {"city": "Knezha", "lat": 43.4931, "lng": 24.0806}, {"city": "Pavlikeni", "lat": 43.2375, "lng": 25.3074}, {"city": "Mezdra", "lat": 43.144, "lng": 23.7131}, {"city": "Elhovo", "lat": 42.172, "lng": 26.5694}, {"city": "Lukovit", "lat": 43.2102, "lng": 24.1629}, {"city": "Teteven", "lat": 42.9177, "lng": 24.2574}, {"city": "Omurtag", "lat": 43.1069, "lng": 26.4198}, {"city": "Momchilgrad", "lat": 41.5297, "lng": 25.4064}, {"city": "Tutrakan", "lat": 44.039, "lng": 26.6194}, {"city": "Bansko", "lat": 41.8385, "lng": 23.4888}, {"city": "Devnya", "lat": 43.218, "lng": 27.558}, {"city": "Sredets", "lat": 42.3475, "lng": 27.1789}, {"city": "Rakitovo", "lat": 41.9906, "lng": 24.0902}, {"city": "Isperih", "lat": 43.7204, "lng": 26.8281}, {"city": "Tryavna", "lat": 42.8661, "lng": 25.4919}, {"city": "Aksakovo", "lat": 43.2608, "lng": 27.8159}, {"city": "Veliki Preslav", "lat": 43.1605, "lng": 26.812}, {"city": "Krichim", "lat": 42.0426, "lng": 24.4646}, {"city": "Septemvri", "lat": 42.2164, "lng": 24.125}, {"city": "Lyaskovets", "lat": 43.1081, "lng": 25.7132}, {"city": "Beloslav", "lat": 43.1937, "lng": 27.7067}, {"city": "Simeonovgrad", "lat": 42.0324, "lng": 25.8345}, {"city": "Svoge", "lat": 42.9598, "lng": 23.3527}, {"city": "Lyubimets", "lat": 41.8445, "lng": 26.081}, {"city": "Belene", "lat": 43.644, "lng": 25.1254}, {"city": "Dulovo", "lat": 43.8229, "lng": 27.1412}, {"city": "Slivnitsa", "lat": 42.8515, "lng": 23.0383}, {"city": "Elin Pelin", "lat": 42.6693, "lng": 23.6021}, {"city": "Dryanovo", "lat": 42.979, "lng": 25.4771}, {"city": "Dolni Chiflik", "lat": 42.9918, "lng": 27.7213}, {"city": "Lozen", "lat": 42.6, "lng": 23.4833}, {"city": "Zlatograd", "lat": 41.3805, "lng": 25.0947}, {"city": "Simitli", "lat": 41.8914, "lng": 23.1117}, {"city": "Kubrat", "lat": 43.7965, "lng": 26.5001}, {"city": "Pirdop", "lat": 42.7011, "lng": 24.1857}, {"city": "Tervel", "lat": 43.7486, "lng": 27.4065}, {"city": "General Toshevo", "lat": 43.7003, "lng": 28.0366}, {"city": "Aydemir", "lat": 44.0978, "lng": 27.1691}, {"city": "Straldzha", "lat": 42.5974, "lng": 26.6914}, {"city": "Bistritsa", "lat": 42.5861, "lng": 23.36}, {"city": "Devin", "lat": 41.7432, "lng": 24.3967}, {"city": "Kuklen", "lat": 42.0343, "lng": 24.7878}, {"city": "Tvarditsa", "lat": 42.7018, "lng": 25.897}, {"city": "Kostenets", "lat": 42.3102, "lng": 23.8581}, {"city": "Tsarevo", "lat": 42.1702, "lng": 27.8483}, {"city": "Varshets", "lat": 43.1955, "lng": 23.2882}, {"city": "Kameno", "lat": 42.5698, "lng": 27.2907}, {"city": "Kotel", "lat": 42.8863, "lng": 26.45}, {"city": "Krumovgrad", "lat": 41.4709, "lng": 25.6546}, {"city": "Strazhitsa", "lat": 43.2253, "lng": 25.9519}, {"city": "Yakoruda", "lat": 42.0184, "lng": 23.6693}, {"city": "Bozhurishte", "lat": 42.7627, "lng": 23.1988}, {"city": "Bobov Dol", "lat": 42.3638, "lng": 22.9979}, {"city": "Suvorovo", "lat": 43.3283, "lng": 27.5924}, {"city": "Perushtitsa", "lat": 42.0563, "lng": 24.5414}]