[{"city": "Sarajevo", "lat": 43.8563, "lng": 18.4132}, {"city": "Banja Luka", "lat": 44.7667, "lng": 17.1833}, {"city": "Mostar", "lat": 43.3494, "lng": 17.8125}, {"city": "Bijeljina", "lat": 44.75, "lng": 19.2167}, {"city": "Tuzla", "lat": 44.5381, "lng": 18.6761}, {"city": "Brcko", "lat": 44.8783, "lng": 18.8092}, {"city": "Prijedor", "lat": 44.9667, "lng": 16.7}, {"city": "Zenica", "lat": 44.2017, "lng": 17.9039}, {"city": "Doboj", "lat": 44.7333, "lng": 18.1333}, {"city": "Zvornik", "lat": 44.3833, "lng": 19.1}, {"city": "Sanski Most", "lat": 44.7667, "lng": 16.6667}, {"city": "Lukavac", "lat": 44.5333, "lng": 18.5333}, {"city": "Bihac", "lat": 44.8167, "lng": 15.8667}, {"city": "Bugojno", "lat": 44.0572, "lng": 17.4508}, {"city": "Zepce", "lat": 44.4333, "lng": 18.0333}, {"city": "Trebinje", "lat": 42.7089, "lng": 18.3217}, {"city": "Bosanska Krupa", "lat": 44.8833, "lng": 16.15}, {"city": "Capljina", "lat": 43.11, "lng": 17.7}, {"city": "Banovici", "lat": 44.4089, "lng": 18.5287}, {"city": "Breza", "lat": 44.021, "lng": 18.261}, {"city": "Derventa", "lat": 44.98, "lng": 17.91}, {"city": "Gorazde", "lat": 43.6667, "lng": 18.9778}, {"city": "Foca", "lat": 43.5, "lng": 18.7833}, {"city": "Sapna", "lat": 44.4917, "lng": 19.0028}, {"city": "Jablanica", "lat": 43.6583, "lng": 17.7583}, {"city": "Vares", "lat": 44.1644, "lng": 18.3283}, {"city": "Livno", "lat": 43.8269, "lng": 17.0081}, {"city": "Bosanski Petrovac", "lat": 44.55, "lng": 16.3667}, {"city": "Mrkonjic Grad", "lat": 44.4167, "lng": 17.0833}, {"city": "Drvar", "lat": 44.3739, "lng": 16.3808}, {"city": "Velika Kladusa", "lat": 45.1667, "lng": 15.8}, {"city": "Visegrad", "lat": 43.7833, "lng": 19.2833}, {"city": "Tomislavgrad", "lat": 43.7135, "lng": 17.2266}]