[{"city": "Minsk", "lat": 53.9022, "lng": 27.5618}, {"city": "Homyel'", "lat": 52.4417, "lng": 30.9833}, {"city": "Vitsyebsk", "lat": 55.1833, "lng": 30.1667}, {"city": "Mahilyow", "lat": 53.9089, "lng": 30.343}, {"city": "Hrodna", "lat": 53.6667, "lng": 23.8167}, {"city": "Brest", "lat": 52.0847, "lng": 23.6569}, {"city": "Babruysk", "lat": 53.15, "lng": 29.2333}, {"city": "Baranavichy", "lat": 53.1167, "lng": 25.9833}, {"city": "Horad Barysaw", "lat": 54.226, "lng": 28.4922}, {"city": "Pinsk", "lat": 52.1153, "lng": 26.1031}, {"city": "Orsha", "lat": 54.5092, "lng": 30.4258}, {"city": "Mazyr", "lat": 52.05, "lng": 29.2333}, {"city": "Lida", "lat": 53.8872, "lng": 25.3028}, {"city": "Salihorsk", "lat": 52.7842, "lng": 27.5425}, {"city": "Navapolatsk", "lat": 55.5333, "lng": 28.6667}, {"city": "Maladzyechna", "lat": 54.3136, "lng": 26.8517}, {"city": "Polatsk", "lat": 55.4833, "lng": 28.8}, {"city": "Svyetlahorsk", "lat": 52.6333, "lng": 29.7333}, {"city": "Slutsk", "lat": 53.0167, "lng": 27.55}, {"city": "Kobryn", "lat": 52.2167, "lng": 24.3667}, {"city": "Slonim", "lat": 53.0833, "lng": 25.3167}, {"city": "Vawkavysk", "lat": 53.1667, "lng": 24.4667}, {"city": "Kalinkavichy", "lat": 52.1333, "lng": 29.3333}, {"city": "Smarhon'", "lat": 54.4836, "lng": 26.4}, {"city": "Horki", "lat": 54.2833, "lng": 30.9833}, {"city": "Asipovichy", "lat": 53.3, "lng": 28.65}, {"city": "Dzyarzhynsk", "lat": 53.6833, "lng": 27.1333}, {"city": "Byaroza", "lat": 52.5333, "lng": 24.9825}, {"city": "Navahrudak", "lat": 53.5833, "lng": 25.8167}, {"city": "Vilyeyka", "lat": 54.4833, "lng": 26.9167}, {"city": "Krychaw", "lat": 53.7194, "lng": 31.7139}, {"city": "Luninyets", "lat": 52.25, "lng": 26.8}, {"city": "Mar''ina Horka", "lat": 53.5167, "lng": 28.1417}, {"city": "Pastavy", "lat": 55.1167, "lng": 26.8333}, {"city": "Pruzhany", "lat": 52.5567, "lng": 24.4644}, {"city": "Dobrush", "lat": 52.4167, "lng": 31.3167}, {"city": "Hlybokaye", "lat": 55.1333, "lng": 27.6833}, {"city": "Zaslawye", "lat": 54.0, "lng": 27.2833}, {"city": "Fanipal'", "lat": 53.75, "lng": 27.3333}, {"city": "Stowbtsy", "lat": 53.4833, "lng": 26.7333}, {"city": "Ashmyany", "lat": 54.425, "lng": 25.9375}, {"city": "Ivanava", "lat": 52.1333, "lng": 25.55}, {"city": "Klimavichy", "lat": 53.6167, "lng": 31.95}, {"city": "Lahoysk", "lat": 54.2, "lng": 27.85}, {"city": "Masty", "lat": 53.4, "lng": 24.5333}, {"city": "Drahichyn", "lat": 52.1833, "lng": 25.15}, {"city": "Astravyets", "lat": 54.6136, "lng": 25.9553}, {"city": "Khoyniki", "lat": 51.9, "lng": 29.9667}, {"city": "Stolin", "lat": 51.8897, "lng": 26.8507}, {"city": "Malaryta", "lat": 51.7972, "lng": 24.0808}, {"city": "Mikashevichy", "lat": 52.2167, "lng": 27.4667}, {"city": "Novalukoml'", "lat": 54.6658, "lng": 29.1547}, {"city": "Haradok", "lat": 55.4667, "lng": 29.9833}, {"city": "Lyuban'", "lat": 52.7819, "lng": 28.0525}, {"city": "Klyetsk", "lat": 53.0636, "lng": 26.6372}, {"city": "Byerazino", "lat": 53.8333, "lng": 28.9833}, {"city": "Staryya Darohi", "lat": 53.0394, "lng": 28.265}, {"city": "Byelaazyorsk", "lat": 52.4717, "lng": 25.1783}, {"city": "Uzda", "lat": 53.4661, "lng": 27.2244}, {"city": "Baran'", "lat": 54.4833, "lng": 30.3333}, {"city": "Kapyl'", "lat": 53.15, "lng": 27.0917}, {"city": "Mstsislaw", "lat": 54.0196, "lng": 31.7247}, {"city": "Skidal'", "lat": 53.5833, "lng": 24.25}, {"city": "Byarozawka", "lat": 53.7167, "lng": 25.5}, {"city": "Valozhyn", "lat": 54.0833, "lng": 26.5167}, {"city": "Pyetrykaw", "lat": 52.1333, "lng": 28.5}, {"city": "Byalynichy", "lat": 53.9956, "lng": 29.7096}, {"city": "Talachyn", "lat": 54.4167, "lng": 29.7}, {"city": "Braslaw", "lat": 55.6397, "lng": 27.0397}, {"city": "Buda-Kashalyova", "lat": 52.7167, "lng": 30.5667}, {"city": "Krupki", "lat": 54.325, "lng": 29.1361}, {"city": "Vyetka", "lat": 52.5592, "lng": 31.1808}, {"city": "Narowlya", "lat": 51.8, "lng": 29.5}, {"city": "Kamyanyets", "lat": 52.4028, "lng": 23.8083}, {"city": "Kirawsk", "lat": 53.2686, "lng": 29.4736}, {"city": "Dzyatlava", "lat": 53.45, "lng": 25.4}, {"city": "Slawharad", "lat": 53.4453, "lng": 30.9964}, {"city": "Cherykaw", "lat": 53.5667, "lng": 31.3667}, {"city": "Myory", "lat": 55.6167, "lng": 27.6167}, {"city": "Kruhlaye", "lat": 54.2479, "lng": 29.7966}, {"city": "Syanno", "lat": 54.8, "lng": 29.7}, {"city": "Iwye", "lat": 53.9307, "lng": 25.7703}, {"city": "Klichaw", "lat": 53.4828, "lng": 29.3411}, {"city": "Myadzyel", "lat": 54.8756, "lng": 26.9386}, {"city": "Vyerkhnyadzvinsk", "lat": 55.7667, "lng": 27.9333}, {"city": "Dubrowna", "lat": 54.5667, "lng": 30.6833}, {"city": "Svislach", "lat": 53.0333, "lng": 24.1}, {"city": "Davyd-Haradok", "lat": 52.0556, "lng": 27.2139}]