[{"city": "Santa Cruz", "lat": -17.7892, "lng": -63.1975}, {"city": "La Paz", "lat": -16.4942, "lng": -68.1475}, {"city": "Sucre", "lat": -19.0431, "lng": -65.2592}, {"city": "Cochabamba", "lat": -17.3935, "lng": -66.157}, {"city": "Oruro", "lat": -17.9667, "lng": -67.1167}, {"city": "Oruro", "lat": -17.9799, "lng": -67.13}, {"city": "Warnes", "lat": -17.5103, "lng": -63.1647}, {"city": "Potosi", "lat": -19.5833, "lng": -65.75}, {"city": "Tarija", "lat": -21.5317, "lng": -64.7311}, {"city": "Sacaba", "lat": -17.4042, "lng": -66.0408}, {"city": "Quillacollo", "lat": -17.3975, "lng": -66.2817}, {"city": "Montero", "lat": -17.3333, "lng": -63.3833}, {"city": "Trinidad", "lat": -14.8333, "lng": -64.9}, {"city": "Cobija", "lat": -11.0183, "lng": -68.7537}, {"city": "Yacuiba", "lat": -22.0139, "lng": -63.6778}, {"city": "Riberalta", "lat": -10.983, "lng": -66.1}, {"city": "Villa Tunari", "lat": -16.9725, "lng": -65.42}, {"city": "Puerto Villarroel", "lat": -16.8667, "lng": -64.7831}, {"city": "Villamontes", "lat": -21.2647, "lng": -63.4586}, {"city": "Guayaramerin", "lat": -10.8267, "lng": -65.3567}, {"city": "Camiri", "lat": -20.0386, "lng": -63.5183}, {"city": "Tiquipaya", "lat": -17.3381, "lng": -66.2189}, {"city": "Viacha", "lat": -16.6333, "lng": -68.2833}, {"city": "Bermejo", "lat": -22.7322, "lng": -64.3425}, {"city": "Llallagua", "lat": -18.4231, "lng": -66.5856}, {"city": "Villazon", "lat": -22.091, "lng": -65.596}, {"city": "Uyuni", "lat": -20.4627, "lng": -66.824}, {"city": "San Borja", "lat": -14.8167, "lng": -66.85}, {"city": "San Ignacio de Velasco", "lat": -16.3667, "lng": -60.95}, {"city": "Tupiza", "lat": -21.4423, "lng": -65.719}, {"city": "Patacamaya", "lat": -17.2333, "lng": -67.9167}, {"city": "Capinota", "lat": -17.7147, "lng": -66.2631}, {"city": "San Jose de Chiquitos", "lat": -17.85, "lng": -60.75}, {"city": "Vallegrande", "lat": -18.4894, "lng": -64.1083}, {"city": "Mapiri", "lat": -15.25, "lng": -68.1667}, {"city": "Portachuelo", "lat": -17.3547, "lng": -63.3947}, {"city": "Comarapa", "lat": -17.9136, "lng": -64.5297}, {"city": "Punata", "lat": -17.5469, "lng": -65.8367}, {"city": "Villa Yapacani", "lat": -17.4028, "lng": -63.885}, {"city": "Ascension", "lat": -15.6996, "lng": -63.08}, {"city": "Vinto", "lat": -17.3972, "lng": -66.3136}, {"city": "Chulumani", "lat": -16.4102, "lng": -67.5255}, {"city": "Santa Ana de Yacuma", "lat": -13.7444, "lng": -65.4269}, {"city": "Rurrenabaque", "lat": -14.4422, "lng": -67.5283}, {"city": "Puerto Suarez", "lat": -18.9633, "lng": -57.7978}, {"city": "Torotoro", "lat": -18.1339, "lng": -65.7628}, {"city": "Puerto Quijarro", "lat": -17.7796, "lng": -57.77}, {"city": "Robore", "lat": -18.3295, "lng": -59.76}, {"city": "Challapata", "lat": -18.9, "lng": -66.7667}, {"city": "Achacachi", "lat": -16.0444, "lng": -68.685}, {"city": "Aiquile", "lat": -18.1667, "lng": -65.1667}, {"city": "Reyes", "lat": -14.2958, "lng": -67.3353}, {"city": "Cliza", "lat": -17.5919, "lng": -65.9342}, {"city": "Charagua", "lat": -19.7919, "lng": -63.2006}, {"city": "San Ramon", "lat": -13.2672, "lng": -64.6172}, {"city": "San Carlos", "lat": -17.4044, "lng": -63.7325}, {"city": "Uncia", "lat": -18.4682, "lng": -66.5648}, {"city": "Camargo", "lat": -20.6403, "lng": -65.2103}, {"city": "Sicasica", "lat": -17.3333, "lng": -67.7333}, {"city": "Magdalena", "lat": -13.2606, "lng": -64.0528}, {"city": "Samaipata", "lat": -18.1794, "lng": -63.8756}, {"city": "Padilla", "lat": -19.3075, "lng": -64.3022}, {"city": "Tarabuco", "lat": -19.1825, "lng": -64.915}, {"city": "Baures", "lat": -13.5833, "lng": -63.5833}, {"city": "Coroico", "lat": -16.1833, "lng": -67.7333}, {"city": "Sorata", "lat": -15.7736, "lng": -68.6486}, {"city": "Cuevo", "lat": -20.4547, "lng": -63.5189}, {"city": "San Matias", "lat": -16.36, "lng": -58.42}, {"city": "Betanzos", "lat": -19.56, "lng": -65.45}, {"city": "San Javier", "lat": -16.2896, "lng": -62.5}, {"city": "Apolo", "lat": -14.7196, "lng": -68.42}, {"city": "Quime", "lat": -16.98, "lng": -67.22}, {"city": "San Lorenzo", "lat": -21.4799, "lng": -64.77}, {"city": "Entre Rios", "lat": -21.53, "lng": -64.19}, {"city": "Corocoro", "lat": -17.1667, "lng": -68.4167}, {"city": "San Rafael", "lat": -16.7795, "lng": -60.6799}, {"city": "Puerto Acosta", "lat": -15.4996, "lng": -69.1667}, {"city": "Sabaya", "lat": -19.1, "lng": -68.4333}, {"city": "Llica", "lat": -19.8496, "lng": -68.25}, {"city": "Charana", "lat": -17.5996, "lng": -69.4666}, {"city": "Villa Martin Colchak", "lat": -20.7665, "lng": -67.7833}, {"city": "Puerto Heath", "lat": -12.52, "lng": -68.6186}, {"city": "Piso Firme", "lat": -13.683, "lng": -61.8666}]