[{"city": "Kinshasa", "lat": -4.3317, "lng": 15.3139}, {"city": "Kananga", "lat": -5.8961, "lng": 22.4167}, {"city": "Lubumbashi", "lat": -11.6697, "lng": 27.4581}, {"city": "Mbuji-Mayi", "lat": -6.1209, "lng": 23.5967}, {"city": "Kisangani", "lat": 0.5153, "lng": 25.1911}, {"city": "Kikwit", "lat": -5.0333, "lng": 18.8167}, {"city": "Bukavu", "lat": -2.4908, "lng": 28.8428}, {"city": "Likasi", "lat": -10.9833, "lng": 26.7333}, {"city": "Kolwezi", "lat": -10.7167, "lng": 25.4667}, {"city": "Beni", "lat": 0.4911, "lng": 29.4731}, {"city": "Matadi", "lat": -5.8167, "lng": 13.4833}, {"city": "Mbandaka", "lat": 0.0486, "lng": 18.2603}, {"city": "Tshikapa", "lat": -6.4167, "lng": 20.8}, {"city": "Goma", "lat": -1.6794, "lng": 29.2336}, {"city": "Butembo", "lat": 0.1251, "lng": 29.299}, {"city": "Kalemie", "lat": -5.9475, "lng": 29.1947}, {"city": "Gemena", "lat": 3.25, "lng": 19.7667}, {"city": "Mbanza-Ngungu", "lat": -5.25, "lng": 14.8667}, {"city": "Mwene-Ditu", "lat": -7.0, "lng": 23.45}, {"city": "Boma", "lat": -5.85, "lng": 13.05}, {"city": "Kindu", "lat": -2.95, "lng": 25.9167}, {"city": "Uvira", "lat": -3.3953, "lng": 29.1378}, {"city": "Isiro", "lat": 2.7833, "lng": 27.6167}, {"city": "Gandajika", "lat": -6.75, "lng": 23.9667}, {"city": "Moanda", "lat": -5.9229, "lng": 12.355}, {"city": "Wamba", "lat": 2.1404, "lng": 27.99}, {"city": "Kamina", "lat": -8.7351, "lng": 24.998}, {"city": "Bandundu", "lat": -3.31, "lng": 17.38}, {"city": "Kipushi", "lat": -11.76, "lng": 27.25}, {"city": "Ilebo", "lat": -4.3167, "lng": 20.6}, {"city": "Kongolo", "lat": -5.3795, "lng": 26.98}, {"city": "Bumba", "lat": 2.19, "lng": 22.46}, {"city": "Bunia", "lat": 1.5604, "lng": 30.24}, {"city": "Lisala", "lat": 2.14, "lng": 21.51}, {"city": "Kabinda", "lat": -6.1296, "lng": 24.48}, {"city": "Gbadolite", "lat": 4.275, "lng": 21.0}, {"city": "Buta", "lat": 2.82, "lng": 24.74}, {"city": "Lusambo", "lat": -4.9696, "lng": 23.43}, {"city": "Inongo", "lat": -1.94, "lng": 18.28}, {"city": "Luebo", "lat": -5.3495, "lng": 21.41}, {"city": "Boende", "lat": -0.2817, "lng": 20.8806}, {"city": "Kenge", "lat": -4.8296, "lng": 16.8999}, {"city": "Lodja", "lat": -3.5242, "lng": 23.5964}, {"city": "Binga", "lat": 2.3834, "lng": 20.42}, {"city": "Kasongo", "lat": -4.45, "lng": 26.66}, {"city": "Idiofa", "lat": -4.9596, "lng": 19.5986}, {"city": "Aketi", "lat": 2.7405, "lng": 23.78}, {"city": "Basankusu", "lat": 1.2222, "lng": 19.8028}, {"city": "Mulongo", "lat": -7.8349, "lng": 26.9985}, {"city": "Mweka", "lat": -4.84, "lng": 21.57}, {"city": "Kahemba", "lat": -7.2829, "lng": 19.0}, {"city": "Bulungu", "lat": -4.5496, "lng": 18.6}, {"city": "Manono", "lat": -7.2947, "lng": 27.4545}, {"city": "Basoko", "lat": 1.2333, "lng": 23.6}, {"city": "Lubao", "lat": -5.3896, "lng": 25.75}, {"city": "Tshela", "lat": -4.9696, "lng": 12.93}, {"city": "Bukama", "lat": -9.2, "lng": 25.8333}, {"city": "Mangai", "lat": -4.0396, "lng": 19.53}, {"city": "Kampene", "lat": -3.5968, "lng": 26.6671}, {"city": "Kambove", "lat": -10.87, "lng": 26.6}, {"city": "Kaniama", "lat": -7.5696, "lng": 24.17}, {"city": "Yangambi", "lat": 0.7675, "lng": 24.4414}, {"city": "Businga", "lat": 3.3404, "lng": 20.87}, {"city": "Mushie", "lat": -3.0196, "lng": 16.92}, {"city": "Kabalo", "lat": -6.0525, "lng": 26.9142}, {"city": "Kasangulu", "lat": -4.5796, "lng": 15.18}, {"city": "Bolobo", "lat": -2.16, "lng": 16.24}, {"city": "Libenge", "lat": 3.6604, "lng": 18.62}, {"city": "Watsa", "lat": 3.04, "lng": 29.53}, {"city": "Bondo", "lat": 3.81, "lng": 23.67}, {"city": "Demba", "lat": -5.5096, "lng": 22.26}, {"city": "Kasongo-Lunda", "lat": -6.4796, "lng": 16.83}, {"city": "Zongo", "lat": 4.35, "lng": 18.6}, {"city": "Nyunzu", "lat": -5.95, "lng": 28.0167}, {"city": "Bosobolo", "lat": 4.1904, "lng": 19.88}, {"city": "Kasaji", "lat": -10.3662, "lng": 23.45}, {"city": "Kimpese", "lat": -5.55, "lng": 14.43}, {"city": "Moba", "lat": -7.0596, "lng": 29.72}, {"city": "Dilolo", "lat": -10.6833, "lng": 22.3333}, {"city": "Mangbwalu", "lat": 1.9504, "lng": 30.0333}, {"city": "Ikela", "lat": -1.1833, "lng": 23.2667}, {"city": "Bongandanga", "lat": 1.5104, "lng": 21.05}, {"city": "Mwenga", "lat": -3.0382, "lng": 28.4325}, {"city": "Lubutu", "lat": -0.7329, "lng": 26.5833}, {"city": "Buluko", "lat": -0.757, "lng": 28.528}, {"city": "Luanza", "lat": -8.6996, "lng": 28.7}, {"city": "Dibaya", "lat": -6.5095, "lng": 22.87}, {"city": "Kalima", "lat": -2.5096, "lng": 26.43}, {"city": "Lusanga", "lat": -5.5829, "lng": 16.5167}, {"city": "Bafwasende", "lat": 1.0838, "lng": 27.2666}]