[{"city": "Brazzaville", "lat": -4.2667, "lng": 15.2833}, {"city": "Pointe-Noire", "lat": -4.7889, "lng": 11.8653}, {"city": "Dolisie", "lat": -4.1961, "lng": 12.6731}, {"city": "Ouesso", "lat": 1.6167, "lng": 16.05}, {"city": "Owando", "lat": -0.4833, "lng": 15.9}, {"city": "Sibiti", "lat": -3.6819, "lng": 13.3498}, {"city": "Madingou", "lat": -4.1536, "lng": 13.55}, {"city": "Impfondo", "lat": 1.6333, "lng": 18.0667}, {"city": "Kinkala", "lat": -4.35, "lng": 14.76}, {"city": "Djambala", "lat": -2.55, "lng": 14.75}, {"city": "Ewo", "lat": -0.8667, "lng": 14.8167}, {"city": "Loango", "lat": -4.6519, "lng": 11.8125}, {"city": "Kayes", "lat": -4.1806, "lng": 13.2889}, {"city": "Mossendjo", "lat": -2.9458, "lng": 12.7147}, {"city": "Gamboma", "lat": -1.8764, "lng": 15.8644}, {"city": "Boloso", "lat": 2.0337, "lng": 15.2167}, {"city": "Makoua", "lat": -0.0047, "lng": 15.6228}, {"city": "Sembe", "lat": 1.6481, "lng": 14.5806}]