[{"city": "Havana", "lat": 23.1367, "lng": -82.3589}, {"city": "Santiago de Cuba", "lat": 20.0217, "lng": -75.8294}, {"city": "Holguin", "lat": 20.8872, "lng": -76.2631}, {"city": "Camaguey", "lat": 21.3786, "lng": -77.9186}, {"city": "Santa Clara", "lat": 22.4067, "lng": -79.9531}, {"city": "Bayamo", "lat": 20.3817, "lng": -76.6428}, {"city": "Guantanamo", "lat": 20.1383, "lng": -75.2061}, {"city": "Carlos Manuel de Cespedes", "lat": 21.5767, "lng": -78.2775}, {"city": "Arroyo Naranjo", "lat": 23.0436, "lng": -82.3328}, {"city": "Las Tunas", "lat": 20.9667, "lng": -76.95}, {"city": "Pinar del Rio", "lat": 22.4122, "lng": -83.6719}, {"city": "Cienfuegos", "lat": 22.1456, "lng": -80.4364}, {"city": "Manzanillo", "lat": 20.3397, "lng": -77.1086}, {"city": "Centro Habana", "lat": 23.1333, "lng": -82.3833}, {"city": "Matanzas", "lat": 23.0494, "lng": -81.5736}, {"city": "Ciego de Avila", "lat": 21.8481, "lng": -78.7631}, {"city": "Sancti Spiritus", "lat": 21.9339, "lng": -79.4439}, {"city": "Guanabacoa", "lat": 23.1252, "lng": -82.3007}, {"city": "Contramaestre", "lat": 20.3, "lng": -76.2506}, {"city": "Mayari", "lat": 20.6592, "lng": -75.6781}, {"city": "San Jose de las Lajas", "lat": 22.9678, "lng": -82.1558}, {"city": "Artemisa", "lat": 22.8136, "lng": -82.7633}, {"city": "Nueva Gerona", "lat": 21.8847, "lng": -82.8011}, {"city": "San Luis", "lat": 20.1881, "lng": -75.8486}, {"city": "Jaguey Grande", "lat": 22.5292, "lng": -81.1325}, {"city": "Consolacion del Sur", "lat": 22.5083, "lng": -83.5172}, {"city": "Cardenas", "lat": 23.0428, "lng": -81.2036}, {"city": "Baracoa", "lat": 20.3444, "lng": -74.4956}, {"city": "Palma Soriano", "lat": 20.2139, "lng": -75.9919}, {"city": "Moa", "lat": 20.6556, "lng": -74.9417}, {"city": "Colon", "lat": 22.7225, "lng": -80.9067}, {"city": "Florida", "lat": 21.5294, "lng": -78.2228}, {"city": "Placetas", "lat": 22.3158, "lng": -79.6556}, {"city": "Gibara", "lat": 21.1072, "lng": -76.1367}, {"city": "Guines", "lat": 22.8475, "lng": -82.0236}, {"city": "Yara", "lat": 20.2767, "lng": -76.9469}, {"city": "Moron", "lat": 22.1108, "lng": -78.6278}, {"city": "Jovellanos", "lat": 22.8106, "lng": -81.1981}, {"city": "Bartolome Maso", "lat": 20.1686, "lng": -76.9428}, {"city": "Sagua la Grande", "lat": 22.8086, "lng": -80.0711}, {"city": "Trinidad", "lat": 21.8, "lng": -79.9667}, {"city": "Jobabo", "lat": 20.9075, "lng": -77.2819}, {"city": "Salvador", "lat": 20.2094, "lng": -75.2231}, {"city": "Remedios", "lat": 22.4922, "lng": -79.5458}, {"city": "San Juan y Martinez", "lat": 22.2667, "lng": -83.8333}, {"city": "Bahia Honda", "lat": 22.9064, "lng": -83.1639}, {"city": "Jatibonico", "lat": 21.9464, "lng": -79.1675}, {"city": "Mariel", "lat": 22.9936, "lng": -82.7539}, {"city": "Niquero", "lat": 20.0472, "lng": -77.5781}, {"city": "Chambas", "lat": 22.1967, "lng": -78.9133}, {"city": "Nuevitas", "lat": 21.5403, "lng": -77.2644}, {"city": "Los Palacios", "lat": 22.5822, "lng": -83.2489}, {"city": "Caibarien", "lat": 22.5158, "lng": -79.4722}, {"city": "Guira de Melena", "lat": 22.8019, "lng": -82.5047}, {"city": "Caimito", "lat": 22.9575, "lng": -82.5964}, {"city": "Guane", "lat": 22.2006, "lng": -84.0839}, {"city": "Guama Abajo", "lat": 19.9758, "lng": -76.41}, {"city": "La Palma", "lat": 22.7472, "lng": -83.5525}, {"city": "Banes", "lat": 20.9697, "lng": -75.7117}, {"city": "San Antonio de los Banos", "lat": 22.8889, "lng": -82.4989}, {"city": "Mella", "lat": 20.3694, "lng": -75.9111}, {"city": "San Luis", "lat": 22.2828, "lng": -83.7681}, {"city": "Baragua", "lat": 21.6819, "lng": -78.6244}, {"city": "Cabaiguan", "lat": 22.0839, "lng": -79.4953}, {"city": "Madruga", "lat": 22.9164, "lng": -81.9239}, {"city": "Alquizar", "lat": 22.8067, "lng": -82.5828}, {"city": "Quivican", "lat": 22.8247, "lng": -82.3558}, {"city": "Primero de Enero", "lat": 21.9453, "lng": -78.4189}, {"city": "San Cristobal", "lat": 22.7169, "lng": -83.0511}, {"city": "Venezuela", "lat": 21.7511, "lng": -78.7792}, {"city": "Ciro Redondo", "lat": 22.0189, "lng": -78.7031}, {"city": "Vinales", "lat": 22.6153, "lng": -83.7158}, {"city": "Majagua", "lat": 21.9244, "lng": -78.9906}, {"city": "San Antonio del Sur", "lat": 20.0569, "lng": -74.8078}, {"city": "Batabano", "lat": 22.7167, "lng": -82.2833}, {"city": "Limonar", "lat": 22.9561, "lng": -81.4086}, {"city": "Nueva Paz", "lat": 22.7667, "lng": -81.75}, {"city": "Bauta", "lat": 22.9919, "lng": -82.5492}, {"city": "Abreus", "lat": 22.2806, "lng": -80.5678}, {"city": "Guanajay", "lat": 22.9306, "lng": -82.6881}, {"city": "Lajas", "lat": 22.4164, "lng": -80.2906}, {"city": "San Nicolas", "lat": 22.7819, "lng": -81.9069}, {"city": "Varadero", "lat": 23.1394, "lng": -81.2861}, {"city": "Manuel Tames", "lat": 20.1803, "lng": -75.0514}, {"city": "Florencia", "lat": 22.1475, "lng": -78.9669}, {"city": "Melena del Sur", "lat": 22.7814, "lng": -82.1486}, {"city": "Candelaria", "lat": 22.7439, "lng": -82.9581}, {"city": "Najasa", "lat": 21.0836, "lng": -77.7472}, {"city": "Imias", "lat": 20.0694, "lng": -74.6314}, {"city": "Caimanera", "lat": 19.9908, "lng": -75.152}]