[{"city": "Prague", "lat": 50.0833, "lng": 14.4167}, {"city": "Brno", "lat": 49.1953, "lng": 16.6083}, {"city": "Ostrava", "lat": 49.8356, "lng": 18.2925}, {"city": "Plzen", "lat": 49.7414, "lng": 13.3825}, {"city": "Liberec", "lat": 50.77, "lng": 15.0584}, {"city": "Olomouc", "lat": 49.5939, "lng": 17.2508}, {"city": "Ceske Budejovice", "lat": 48.9747, "lng": 14.4747}, {"city": "Hradec Kralove", "lat": 50.2092, "lng": 15.8319}, {"city": "Usti nad Labem", "lat": 50.6592, "lng": 14.0417}, {"city": "Pardubice", "lat": 50.0386, "lng": 15.7792}, {"city": "Zlin", "lat": 49.2331, "lng": 17.6669}, {"city": "Havirov", "lat": 49.7778, "lng": 18.4228}, {"city": "Teplice", "lat": 50.6333, "lng": 13.8167}, {"city": "Jihlava", "lat": 49.4003, "lng": 15.5906}, {"city": "Karlovy Vary", "lat": 50.2306, "lng": 12.8725}, {"city": "Brevnov", "lat": 50.0833, "lng": 14.3579}, {"city": "Kladno", "lat": 50.1431, "lng": 14.1053}, {"city": "Most", "lat": 50.5031, "lng": 13.6367}, {"city": "Opava", "lat": 49.9381, "lng": 17.9044}, {"city": "Frydek-Mistek", "lat": 49.6881, "lng": 18.3536}, {"city": "Karvina", "lat": 49.8542, "lng": 18.5428}, {"city": "Chomutov", "lat": 50.4628, "lng": 13.4111}, {"city": "Decin", "lat": 50.7736, "lng": 14.1961}, {"city": "Jablonec nad Nisou", "lat": 50.7278, "lng": 15.17}, {"city": "Mlada Boleslav", "lat": 50.4125, "lng": 14.9064}, {"city": "Prostejov", "lat": 49.4722, "lng": 17.1106}, {"city": "Prerov", "lat": 49.4556, "lng": 17.4511}, {"city": "Ceska Lipa", "lat": 50.6856, "lng": 14.5377}, {"city": "Trebic", "lat": 49.215, "lng": 15.8817}, {"city": "Trinec", "lat": 49.6776, "lng": 18.6708}, {"city": "Tabor", "lat": 49.4145, "lng": 14.6578}, {"city": "Znojmo", "lat": 48.8555, "lng": 16.0488}, {"city": "Kolin", "lat": 50.0282, "lng": 15.2006}, {"city": "Pribram", "lat": 49.69, "lng": 14.0105}, {"city": "Cheb", "lat": 50.0798, "lng": 12.374}, {"city": "Pisek", "lat": 49.3089, "lng": 14.1475}, {"city": "Trutnov", "lat": 50.561, "lng": 15.9128}, {"city": "Orlova", "lat": 49.8452, "lng": 18.4302}, {"city": "Kromeriz", "lat": 49.2979, "lng": 17.3931}, {"city": "Lisen", "lat": 49.2075, "lng": 16.6861}, {"city": "Sumperk", "lat": 49.9653, "lng": 16.9707}, {"city": "Vsetin", "lat": 49.3387, "lng": 17.9962}, {"city": "Uherske Hradiste", "lat": 49.0698, "lng": 17.4597}, {"city": "Litomerice", "lat": 50.5336, "lng": 14.1319}, {"city": "Breclav", "lat": 48.759, "lng": 16.882}, {"city": "Cesky Tesin", "lat": 49.7461, "lng": 18.6262}, {"city": "Hodonin", "lat": 48.849, "lng": 17.1324}, {"city": "Litvinov", "lat": 50.6008, "lng": 13.6112}, {"city": "Sokolov", "lat": 50.1814, "lng": 12.6402}, {"city": "Chrudim", "lat": 49.9511, "lng": 15.7956}, {"city": "Novy Jicin", "lat": 49.5944, "lng": 18.0103}, {"city": "Krnov", "lat": 50.0897, "lng": 17.7039}, {"city": "Havlickuv Brod", "lat": 49.6079, "lng": 15.5807}, {"city": "Strakonice", "lat": 49.2615, "lng": 13.9024}, {"city": "Valasske Mezirici", "lat": 49.4718, "lng": 17.9712}, {"city": "Koprivnice", "lat": 49.5995, "lng": 18.1448}, {"city": "Klatovy", "lat": 49.3956, "lng": 13.2951}, {"city": "Kutna Hora", "lat": 49.9484, "lng": 15.2682}, {"city": "Jindrichuv Hradec", "lat": 49.1441, "lng": 15.003}, {"city": "Vyskov", "lat": 49.2775, "lng": 16.999}, {"city": "Zd'ar nad Sazavou", "lat": 49.5627, "lng": 15.9393}, {"city": "Bohumin", "lat": 49.9041, "lng": 18.3576}, {"city": "Blansko", "lat": 49.3632, "lng": 16.6432}, {"city": "Beroun", "lat": 49.9639, "lng": 14.0721}, {"city": "Melnik", "lat": 50.3506, "lng": 14.4742}, {"city": "Jirkov", "lat": 50.4999, "lng": 13.4478}, {"city": "Nachod", "lat": 50.4167, "lng": 16.163}, {"city": "Brandys nad Labem-Stara Boleslav", "lat": 50.1872, "lng": 14.6633}, {"city": "Kralupy nad Vltavou", "lat": 50.2411, "lng": 14.3116}, {"city": "Zatec", "lat": 50.3273, "lng": 13.5459}, {"city": "Louny", "lat": 50.3571, "lng": 13.7968}, {"city": "Otrokovice", "lat": 49.2099, "lng": 17.5308}, {"city": "Kadan", "lat": 50.3761, "lng": 13.2714}, {"city": "Hranice", "lat": 49.548, "lng": 17.7347}, {"city": "Bilina", "lat": 50.5486, "lng": 13.7754}, {"city": "Jicin", "lat": 50.4373, "lng": 15.3517}, {"city": "Benesov", "lat": 49.7817, "lng": 14.687}, {"city": "Svitavy", "lat": 49.756, "lng": 16.4683}, {"city": "Neratovice", "lat": 50.2593, "lng": 14.5177}, {"city": "Ostrov", "lat": 50.306, "lng": 12.9392}, {"city": "Ricany", "lat": 49.9917, "lng": 14.6543}, {"city": "Uhersky Brod", "lat": 49.0251, "lng": 17.6472}, {"city": "Roznov pod Radhostem", "lat": 49.4585, "lng": 18.143}, {"city": "Rakovnik", "lat": 50.1038, "lng": 13.7335}, {"city": "Slany", "lat": 50.2305, "lng": 14.087}, {"city": "Bruntal", "lat": 49.9884, "lng": 17.4648}, {"city": "Pelhrimov", "lat": 49.4314, "lng": 15.2234}, {"city": "Dvur Kralove nad Labem", "lat": 50.4318, "lng": 15.8141}, {"city": "Nymburk", "lat": 50.1861, "lng": 15.0417}, {"city": "Varnsdorf", "lat": 50.9116, "lng": 14.6184}, {"city": "Ceska Trebova", "lat": 49.9019, "lng": 16.4473}, {"city": "Turnov", "lat": 50.5873, "lng": 15.1569}, {"city": "Podebrady", "lat": 50.1425, "lng": 15.1189}, {"city": "Rokycany", "lat": 49.7428, "lng": 13.5946}, {"city": "Klasterec nad Ohri", "lat": 50.3846, "lng": 13.1714}, {"city": "Usti nad Orlici", "lat": 49.9739, "lng": 16.3937}, {"city": "Hlucin", "lat": 49.8979, "lng": 18.192}, {"city": "Chodov", "lat": 50.2415, "lng": 12.7534}, {"city": "Zabreh", "lat": 49.8826, "lng": 16.8723}, {"city": "Sternberk", "lat": 49.7305, "lng": 17.2989}, {"city": "Roudnice nad Labem", "lat": 50.4254, "lng": 14.2618}, {"city": "Tachov", "lat": 49.7954, "lng": 12.6337}, {"city": "Cesky Krumlov", "lat": 48.811, "lng": 14.3152}, {"city": "As", "lat": 50.224, "lng": 12.1951}, {"city": "Celakovice", "lat": 50.1605, "lng": 14.7501}, {"city": "Marianske Lazne", "lat": 49.9647, "lng": 12.7012}, {"city": "Jaromer", "lat": 50.3562, "lng": 15.9214}, {"city": "Krupka", "lat": 50.6846, "lng": 13.8583}, {"city": "Vrchlabi", "lat": 50.627, "lng": 15.6095}, {"city": "Milovice", "lat": 50.226, "lng": 14.8887}, {"city": "Vysoke Myto", "lat": 49.9532, "lng": 16.1618}, {"city": "Novy Bor", "lat": 50.7577, "lng": 14.5557}, {"city": "Boskovice", "lat": 49.4875, "lng": 16.66}, {"city": "Holesov", "lat": 49.3333, "lng": 17.5783}, {"city": "Vlasim", "lat": 49.7064, "lng": 14.8989}, {"city": "Velke Mezirici", "lat": 49.3553, "lng": 16.0123}, {"city": "Frenstat pod Radhostem", "lat": 49.5483, "lng": 18.2108}, {"city": "Kurim", "lat": 49.2985, "lng": 16.5315}, {"city": "Unicov", "lat": 49.7709, "lng": 17.1215}, {"city": "Domazlice", "lat": 49.4406, "lng": 12.9298}, {"city": "Kyjov", "lat": 49.0102, "lng": 17.1225}, {"city": "Rumburk", "lat": 50.9516, "lng": 14.5571}, {"city": "Jesenik", "lat": 50.2294, "lng": 17.2047}, {"city": "Rychnov nad Kneznou", "lat": 50.1629, "lng": 16.275}, {"city": "Susice", "lat": 49.2312, "lng": 13.5202}, {"city": "Humpolec", "lat": 49.5416, "lng": 15.3594}, {"city": "Veseli nad Moravou", "lat": 48.9536, "lng": 17.3765}, {"city": "Prachatice", "lat": 49.013, "lng": 13.9975}, {"city": "Caslav", "lat": 49.911, "lng": 15.3898}, {"city": "Kraluv Dvur", "lat": 49.9499, "lng": 14.0345}, {"city": "Jesenice", "lat": 49.9682, "lng": 14.5136}, {"city": "Litomysl", "lat": 49.8721, "lng": 16.3106}, {"city": "Frydlant nad Ostravici", "lat": 49.5928, "lng": 18.3597}, {"city": "Lanskroun", "lat": 49.9122, "lng": 16.612}, {"city": "Prelouc", "lat": 50.0399, "lng": 15.5604}, {"city": "Nove Mesto na Morave", "lat": 49.5615, "lng": 16.0742}, {"city": "Lysa nad Labem", "lat": 50.2015, "lng": 14.8329}, {"city": "Ivancice", "lat": 49.1015, "lng": 16.3775}, {"city": "Moravska Trebova", "lat": 49.758, "lng": 16.6643}, {"city": "Hlinsko", "lat": 49.7622, "lng": 15.9076}, {"city": "Litovel", "lat": 49.7012, "lng": 17.0762}, {"city": "Roztoky", "lat": 50.1585, "lng": 14.3977}, {"city": "Tisnov", "lat": 49.3487, "lng": 16.4244}, {"city": "Studenka", "lat": 49.7234, "lng": 18.0786}, {"city": "Nove Mesto nad Metuji", "lat": 50.3446, "lng": 16.1515}, {"city": "Hostivice", "lat": 50.0817, "lng": 14.2586}, {"city": "Mohelnice", "lat": 49.777, "lng": 16.9195}, {"city": "Lovosice", "lat": 50.5151, "lng": 14.0511}, {"city": "Nova Paka", "lat": 50.4945, "lng": 15.5151}, {"city": "Chotebor", "lat": 49.7208, "lng": 15.6702}, {"city": "Duchcov", "lat": 50.6039, "lng": 13.7463}, {"city": "Mnichovo Hradiste", "lat": 50.5273, "lng": 14.9714}, {"city": "Policka", "lat": 49.7147, "lng": 16.2655}, {"city": "Dobris", "lat": 49.7812, "lng": 14.1672}, {"city": "Chocen", "lat": 50.0016, "lng": 16.2231}, {"city": "Horice", "lat": 50.3661, "lng": 15.6319}, {"city": "Semily", "lat": 50.602, "lng": 15.3356}, {"city": "Pribor", "lat": 49.6409, "lng": 18.145}, {"city": "Steti", "lat": 50.4531, "lng": 14.3743}, {"city": "Cerveny Kostelec", "lat": 50.4763, "lng": 16.093}, {"city": "Bystrice pod Hostynem", "lat": 49.3992, "lng": 17.674}, {"city": "Milevsko", "lat": 49.451, "lng": 14.36}, {"city": "Trebon", "lat": 49.0037, "lng": 14.7707}, {"city": "Slapanice", "lat": 49.1687, "lng": 16.7273}, {"city": "Rymarov", "lat": 49.9318, "lng": 17.2718}, {"city": "Lipnik nad Becvou", "lat": 49.5275, "lng": 17.5863}, {"city": "Cernosice", "lat": 49.9602, "lng": 14.3199}, {"city": "Bystrice nad Pernstejnem", "lat": 49.523, "lng": 16.2615}, {"city": "Tyn nad Vltavou", "lat": 49.2235, "lng": 14.4206}, {"city": "Dubi", "lat": 50.6811, "lng": 13.7889}, {"city": "Sezimovo Usti", "lat": 49.3853, "lng": 14.6848}, {"city": "Rychvald", "lat": 49.8662, "lng": 18.3763}, {"city": "Nejdek", "lat": 50.3225, "lng": 12.7294}, {"city": "Hradek nad Nisou", "lat": 50.8529, "lng": 14.8447}, {"city": "Vratimov", "lat": 49.7699, "lng": 18.3102}, {"city": "Petrvald", "lat": 49.831, "lng": 18.3894}, {"city": "Stribro", "lat": 49.753, "lng": 13.0041}, {"city": "Benatky nad Jizerou", "lat": 50.2909, "lng": 14.8235}, {"city": "Frydlant", "lat": 50.9215, "lng": 15.0799}, {"city": "Horovice", "lat": 49.8361, "lng": 13.9027}, {"city": "Uvaly", "lat": 50.074, "lng": 14.7309}, {"city": "Mikulov", "lat": 48.8056, "lng": 16.6378}, {"city": "Broumov", "lat": 50.5857, "lng": 16.3319}, {"city": "Bilovec", "lat": 49.7564, "lng": 18.0159}, {"city": "Slavkov u Brna", "lat": 49.1533, "lng": 16.8765}, {"city": "Vimperk", "lat": 49.0525, "lng": 13.7743}, {"city": "Napajedla", "lat": 49.1716, "lng": 17.512}, {"city": "Moravske Budejovice", "lat": 49.0521, "lng": 15.8087}, {"city": "Cesky Brod", "lat": 50.0743, "lng": 14.8609}, {"city": "Kaplice", "lat": 48.7386, "lng": 14.4963}, {"city": "Odry", "lat": 49.6625, "lng": 17.8309}, {"city": "Prestice", "lat": 49.5731, "lng": 13.3335}, {"city": "Dacice", "lat": 49.0816, "lng": 15.4373}, {"city": "Nyrany", "lat": 49.7116, "lng": 13.2119}, {"city": "Sobeslav", "lat": 49.26, "lng": 14.7186}, {"city": "Vodnany", "lat": 49.148, "lng": 14.1751}, {"city": "Novy Bydzov", "lat": 50.2416, "lng": 15.4909}, {"city": "Sedlcany", "lat": 49.6606, "lng": 14.4267}, {"city": "Kravare", "lat": 49.932, "lng": 18.0048}, {"city": "Holice", "lat": 50.0661, "lng": 15.986}, {"city": "Hulin", "lat": 49.3169, "lng": 17.4638}, {"city": "Stare Mesto", "lat": 49.0752, "lng": 17.4334}, {"city": "Rosice", "lat": 49.1824, "lng": 16.3879}, {"city": "Letovice", "lat": 49.5471, "lng": 16.5736}, {"city": "Dobruska", "lat": 50.292, "lng": 16.1601}, {"city": "Senov", "lat": 49.7931, "lng": 18.3761}, {"city": "Kraslice", "lat": 50.3238, "lng": 12.5176}, {"city": "Mimon", "lat": 50.6588, "lng": 14.7248}, {"city": "Odolena Voda", "lat": 50.2335, "lng": 14.4109}, {"city": "Letohrad", "lat": 50.0358, "lng": 16.4988}, {"city": "Bucovice", "lat": 49.149, "lng": 17.0019}, {"city": "Blatna", "lat": 49.425, "lng": 13.8818}, {"city": "Tanvald", "lat": 50.7374, "lng": 15.306}, {"city": "Dubnany", "lat": 48.917, "lng": 17.09}, {"city": "Svetla nad Sazavou", "lat": 49.6681, "lng": 15.404}, {"city": "Veseli nad Luznici", "lat": 49.1844, "lng": 14.6974}, {"city": "Chrastava", "lat": 50.817, "lng": 14.9689}, {"city": "Slavicin", "lat": 49.088, "lng": 17.8735}, {"city": "Podborany", "lat": 50.2295, "lng": 13.412}, {"city": "Kostelec nad Orlici", "lat": 50.1227, "lng": 16.2133}, {"city": "Zamberk", "lat": 50.086, "lng": 16.4674}, {"city": "Hronov", "lat": 50.4797, "lng": 16.1824}, {"city": "Dobrany", "lat": 49.6549, "lng": 13.2931}, {"city": "Mnisek pod Brdy", "lat": 49.8666, "lng": 14.2618}, {"city": "Zelezny Brod", "lat": 50.6428, "lng": 15.2542}, {"city": "Hustopece", "lat": 48.9409, "lng": 16.7376}, {"city": "Tyniste nad Orlici", "lat": 50.1514, "lng": 16.0778}, {"city": "Kojetin", "lat": 49.3518, "lng": 17.3021}, {"city": "Nove Straseci", "lat": 50.1528, "lng": 13.9005}, {"city": "Upice", "lat": 50.5124, "lng": 16.0162}, {"city": "Trebechovice pod Orebem", "lat": 50.201, "lng": 15.9923}, {"city": "Rousinov", "lat": 49.2013, "lng": 16.8822}, {"city": "Jablunkov", "lat": 49.5767, "lng": 18.7646}, {"city": "Modrice", "lat": 49.1279, "lng": 16.6144}, {"city": "Tynec nad Sazavou", "lat": 49.8335, "lng": 14.5899}, {"city": "Chlumec nad Cidlinou", "lat": 50.1545, "lng": 15.4603}, {"city": "Sluknov", "lat": 51.0038, "lng": 14.4527}, {"city": "Jilemnice", "lat": 50.6089, "lng": 15.5066}, {"city": "Trest'", "lat": 49.291, "lng": 15.4821}, {"city": "Moravsky Krumlov", "lat": 49.049, "lng": 16.3117}, {"city": "Rudna", "lat": 50.0351, "lng": 14.2344}, {"city": "Lomnice nad Popelkou", "lat": 50.5307, "lng": 15.3735}, {"city": "Zubri", "lat": 49.466, "lng": 18.0925}, {"city": "Vitkov", "lat": 49.7744, "lng": 17.7495}, {"city": "Kunovice", "lat": 49.045, "lng": 17.4701}, {"city": "Bystrice", "lat": 49.6365, "lng": 18.7204}, {"city": "Fulnek", "lat": 49.7124, "lng": 17.9032}, {"city": "Straznice", "lat": 48.901, "lng": 17.3168}, {"city": "Kosmonosy", "lat": 50.4386, "lng": 14.9301}, {"city": "Frantiskovy Lazne", "lat": 50.1205, "lng": 12.3518}, {"city": "Hradec nad Moravici", "lat": 49.871, "lng": 17.8759}, {"city": "Stochov", "lat": 50.1464, "lng": 13.9635}, {"city": "Horni Slavkov", "lat": 50.1387, "lng": 12.8077}, {"city": "Dolni Lutyne", "lat": 49.8987, "lng": 18.4282}, {"city": "Hluboka nad Vltavou", "lat": 49.0523, "lng": 14.4343}, {"city": "Plana", "lat": 49.8683, "lng": 12.7438}, {"city": "Telc", "lat": 49.1842, "lng": 15.4528}, {"city": "Stary Plzenec", "lat": 49.6978, "lng": 13.4736}, {"city": "Tremosna", "lat": 49.8159, "lng": 13.3951}, {"city": "Trhove Sviny", "lat": 48.8424, "lng": 14.6392}, {"city": "Pohorelice", "lat": 48.9812, "lng": 16.5245}, {"city": "Polna", "lat": 49.487, "lng": 15.7188}, {"city": "Velka Bites", "lat": 49.2887, "lng": 16.2259}, {"city": "Horazd'ovice", "lat": 49.3208, "lng": 13.701}, {"city": "Bakov nad Jizerou", "lat": 50.4824, "lng": 14.9416}, {"city": "Ceska Kamenice", "lat": 50.7979, "lng": 14.4178}, {"city": "Holysov", "lat": 49.5937, "lng": 13.1013}, {"city": "Kdyne", "lat": 49.3909, "lng": 13.0397}, {"city": "Ceska Skalice", "lat": 50.3947, "lng": 16.0428}, {"city": "Jilove", "lat": 50.7609, "lng": 14.1039}, {"city": "Doksy", "lat": 50.5648, "lng": 14.6556}, {"city": "Luhacovice", "lat": 49.0998, "lng": 17.7575}, {"city": "Skutec", "lat": 49.8435, "lng": 15.9966}]