[{"city": "Santo Domingo", "lat": 18.4764, "lng": -69.8933}, {"city": "Santiago", "lat": 19.45, "lng": -70.7}, {"city": "Santo Domingo Este", "lat": 18.4855, "lng": -69.8734}, {"city": "Los Alcarrizos", "lat": 18.5167, "lng": -70.0167}, {"city": "Higuey", "lat": 18.6181, "lng": -68.7111}, {"city": "San Cristobal", "lat": 18.4167, "lng": -70.1333}, {"city": "La Vega", "lat": 19.2242, "lng": -70.5283}, {"city": "San Pedro de Macoris", "lat": 18.4572, "lng": -69.3061}, {"city": "San Francisco de Macoris", "lat": 19.3, "lng": -70.25}, {"city": "Moca", "lat": 19.3833, "lng": -70.5167}, {"city": "Puerto Plata", "lat": 19.7958, "lng": -70.6944}, {"city": "Bani", "lat": 18.29, "lng": -70.33}, {"city": "Boca Chica", "lat": 18.4539, "lng": -69.6064}, {"city": "La Romana", "lat": 18.43, "lng": -68.97}, {"city": "San Juan", "lat": 18.81, "lng": -71.23}, {"city": "Bajos de Haina", "lat": 18.42, "lng": -70.03}, {"city": "Bonao", "lat": 18.9333, "lng": -70.4}, {"city": "Barahona", "lat": 18.2079, "lng": -71.0996}, {"city": "Mao", "lat": 19.5667, "lng": -71.0833}, {"city": "Azua", "lat": 18.46, "lng": -70.74}, {"city": "Villa Altagracia", "lat": 18.67, "lng": -70.17}, {"city": "Nagua", "lat": 19.38, "lng": -69.85}, {"city": "Cotui", "lat": 19.06, "lng": -70.15}, {"city": "Pedro Brand", "lat": 18.5667, "lng": -70.0911}, {"city": "El Seibo", "lat": 18.77, "lng": -69.04}, {"city": "Hato Mayor", "lat": 18.767, "lng": -69.267}, {"city": "Constanza", "lat": 18.91, "lng": -70.75}, {"city": "Jarabacoa", "lat": 19.1197, "lng": -70.6383}, {"city": "Samana", "lat": 19.2053, "lng": -69.3364}, {"city": "Yamasa", "lat": 18.7667, "lng": -70.0167}, {"city": "Tamboril", "lat": 19.48, "lng": -70.6}, {"city": "Sosua", "lat": 19.7494, "lng": -70.5172}, {"city": "Punal", "lat": 19.4, "lng": -70.6167}, {"city": "Las Matas de Farfan", "lat": 18.87, "lng": -71.52}, {"city": "Guerra", "lat": 18.55, "lng": -69.7}, {"city": "Pantanal", "lat": 18.5103, "lng": -68.3694}, {"city": "Comendador", "lat": 18.876, "lng": -71.707}, {"city": "Yaguate", "lat": 18.33, "lng": -70.18}, {"city": "Villa Bisono", "lat": 19.56, "lng": -70.87}, {"city": "Salcedo", "lat": 19.42, "lng": -70.39}, {"city": "San Jose de Ocoa", "lat": 18.55, "lng": -70.5}, {"city": "San Jose de Las Matas", "lat": 19.33, "lng": -70.93}, {"city": "Villa Gonzalez", "lat": 19.53, "lng": -70.78}, {"city": "Gaspar Hernandez", "lat": 19.62, "lng": -70.28}, {"city": "Neiba", "lat": 18.49, "lng": -71.42}, {"city": "San Lorenzo de Guayubin", "lat": 19.7105, "lng": -71.3048}, {"city": "Sabaneta", "lat": 19.4833, "lng": -71.35}, {"city": "Villa Riva", "lat": 19.18, "lng": -69.92}, {"city": "Bayaguana", "lat": 18.76, "lng": -69.64}, {"city": "Cambita Garabitos", "lat": 18.45, "lng": -70.2}, {"city": "Sabana Grande de Boya", "lat": 18.95, "lng": -69.8}, {"city": "San Gregorio de Nigua", "lat": 18.38, "lng": -70.08}, {"city": "Jima Abajo", "lat": 19.13, "lng": -70.38}, {"city": "Dajabon", "lat": 19.5667, "lng": -71.71}, {"city": "Tenares", "lat": 19.37, "lng": -70.35}, {"city": "Nizao", "lat": 18.25, "lng": -70.2}, {"city": "Tamayo", "lat": 18.4, "lng": -71.2}, {"city": "Licey al Medio", "lat": 19.43, "lng": -70.62}, {"city": "Villa Tapia", "lat": 19.3, "lng": -70.42}, {"city": "Monte Cristi", "lat": 19.85, "lng": -71.65}, {"city": "El Factor", "lat": 19.32, "lng": -69.88}, {"city": "Laguna Salada", "lat": 19.65, "lng": -71.0833}, {"city": "Los Llanos", "lat": 18.62, "lng": -69.5}, {"city": "Fantino", "lat": 19.12, "lng": -70.3}, {"city": "Imbert", "lat": 19.75, "lng": -70.83}, {"city": "San Rafael del Yuma", "lat": 18.4333, "lng": -68.6667}, {"city": "Vicente Noble", "lat": 18.3833, "lng": -71.1833}, {"city": "San Victor Abajo", "lat": 19.45, "lng": -70.53}, {"city": "Esperalvillo", "lat": 18.82, "lng": -70.03}, {"city": "Piedra Blanca", "lat": 18.83, "lng": -70.3}, {"city": "Cercado Abajo", "lat": 18.73, "lng": -71.52}, {"city": "Miches", "lat": 18.98, "lng": -69.05}, {"city": "Padre Las Casas", "lat": 18.7333, "lng": -70.9333}, {"city": "Las Terrenas", "lat": 19.32, "lng": -69.53}, {"city": "Altamira", "lat": 19.6667, "lng": -70.8333}, {"city": "Pimentel", "lat": 19.1833, "lng": -70.1}, {"city": "Tabara Arriba", "lat": 18.5667, "lng": -70.8833}, {"city": "Yayas de Viajama", "lat": 18.6, "lng": -70.92}, {"city": "Villa Isabela", "lat": 19.82, "lng": -71.05}, {"city": "Santo Tomas de Janico", "lat": 19.4, "lng": -70.8}, {"city": "Guaymate", "lat": 18.58, "lng": -68.98}, {"city": "Sabana de La Mar", "lat": 19.07, "lng": -69.39}, {"city": "Sabana Grande de Palenque", "lat": 18.27, "lng": -70.15}, {"city": "Monte Plata", "lat": 18.807, "lng": -69.784}, {"city": "Castillo", "lat": 19.22, "lng": -70.03}, {"city": "Loma de Cabrera", "lat": 19.422, "lng": -71.615}, {"city": "Rio San Juan", "lat": 19.64, "lng": -70.08}, {"city": "Castanuelas", "lat": 19.7, "lng": -71.5}, {"city": "Cabral", "lat": 18.25, "lng": -71.2167}, {"city": "Las Guaranas", "lat": 19.2, "lng": -70.22}, {"city": "Villa Vasquez", "lat": 19.74, "lng": -71.45}, {"city": "Arenoso", "lat": 19.18, "lng": -69.85}, {"city": "Sabana Iglesia", "lat": 19.33, "lng": -70.75}, {"city": "Los Hidalgos", "lat": 19.73, "lng": -71.03}, {"city": "Vallejuelo", "lat": 18.65, "lng": -71.33}, {"city": "Baitoa", "lat": 19.32, "lng": -70.7}, {"city": "Duverge", "lat": 18.3188, "lng": -71.5945}, {"city": "Moncion", "lat": 19.4167, "lng": -71.1667}, {"city": "Pueblo Viejo", "lat": 18.4, "lng": -70.7667}, {"city": "Jimani", "lat": 18.4833, "lng": -71.85}, {"city": "Las Charcas", "lat": 18.45, "lng": -70.62}, {"city": "Los Almacigos", "lat": 19.4083, "lng": -71.4417}, {"city": "Pedernales", "lat": 18.038, "lng": -71.741}, {"city": "Villa Jaragua", "lat": 18.48, "lng": -71.5}, {"city": "Las Matas de Santa Cruz", "lat": 19.67, "lng": -71.5}, {"city": "Rancho Arriba", "lat": 18.7147, "lng": -70.4618}, {"city": "Sabana Larga", "lat": 18.585, "lng": -70.4982}, {"city": "Bohechio", "lat": 18.77, "lng": -70.98}, {"city": "El Cacao", "lat": 18.52, "lng": -70.3}, {"city": "Pepillo Salcedo", "lat": 19.7, "lng": -71.75}, {"city": "La Descubierta", "lat": 18.57, "lng": -71.73}, {"city": "Polo", "lat": 18.08, "lng": -71.28}, {"city": "Jamao al Norte", "lat": 19.65, "lng": -70.6167}, {"city": "Oviedo", "lat": 17.78, "lng": -71.37}, {"city": "Restauracion", "lat": 19.3, "lng": -71.6833}, {"city": "Cayetano Germosen", "lat": 19.33, "lng": -70.48}, {"city": "Partido", "lat": 19.48, "lng": -71.55}, {"city": "Banica", "lat": 19.0833, "lng": -71.6833}, {"city": "Guananico", "lat": 19.72, "lng": -70.92}, {"city": "El Pino", "lat": 19.4333, "lng": -71.475}, {"city": "Postrer Rio", "lat": 18.55, "lng": -71.63}, {"city": "Estebania", "lat": 18.45, "lng": -70.65}, {"city": "Hostos", "lat": 19.18, "lng": -70.02}, {"city": "El Guayabal", "lat": 18.7494, "lng": -70.8375}, {"city": "Bavaro", "lat": 18.717, "lng": -68.45}]