[{"city": "Cairo", "lat": 30.0444, "lng": 31.2358}, {"city": "Giza", "lat": 29.987, "lng": 31.2118}, {"city": "Alexandria", "lat": 31.2, "lng": 29.9167}, {"city": "Shubra al Khaymah", "lat": 30.1286, "lng": 31.2422}, {"city": "Al Mansurah", "lat": 31.05, "lng": 31.3833}, {"city": "Halwan", "lat": 29.8419, "lng": 31.3342}, {"city": "Port Said", "lat": 31.25, "lng": 32.2833}, {"city": "Suez", "lat": 29.9667, "lng": 32.5333}, {"city": "Tanta", "lat": 30.7833, "lng": 31.0}, {"city": "Asyut", "lat": 27.1869, "lng": 31.1714}, {"city": "Al Fayyum", "lat": 29.3, "lng": 30.8333}, {"city": "Az Zaqaziq", "lat": 30.5833, "lng": 31.5167}, {"city": "Ismailia", "lat": 30.5833, "lng": 32.2667}, {"city": "Kafr ad Dawwar", "lat": 31.1339, "lng": 30.1297}, {"city": "Aswan", "lat": 24.0889, "lng": 32.8997}, {"city": "Damanhur", "lat": 31.05, "lng": 30.4667}, {"city": "Al Minya", "lat": 28.0833, "lng": 30.75}, {"city": "Damietta", "lat": 31.4167, "lng": 31.8214}, {"city": "Qina", "lat": 26.1667, "lng": 32.7167}, {"city": "Bani Suwayf", "lat": 29.0667, "lng": 31.0833}, {"city": "Luxor", "lat": 25.6969, "lng": 32.6422}, {"city": "Suhaj", "lat": 26.5606, "lng": 31.6917}, {"city": "Shibin al Kawm", "lat": 30.55, "lng": 31.0}, {"city": "Al `Arish", "lat": 31.1249, "lng": 33.8006}, {"city": "Banha", "lat": 30.4628, "lng": 31.1797}, {"city": "Al Ghardaqah", "lat": 27.2578, "lng": 33.8117}, {"city": "Kafr ash Shaykh", "lat": 31.1, "lng": 30.95}, {"city": "Madinat as Sadis min Uktubar", "lat": 29.9361, "lng": 30.9269}, {"city": "Mallawi", "lat": 27.7306, "lng": 30.8425}, {"city": "Disuq", "lat": 31.1325, "lng": 30.6478}, {"city": "Bilbays", "lat": 30.4167, "lng": 31.5667}, {"city": "Idfu", "lat": 24.9781, "lng": 32.8789}, {"city": "Mit Ghamr", "lat": 30.7192, "lng": 31.2628}, {"city": "Jirja", "lat": 26.3383, "lng": 31.8917}, {"city": "Munuf", "lat": 30.4667, "lng": 30.9333}, {"city": "Matruh", "lat": 31.3333, "lng": 27.2333}, {"city": "Akhmim", "lat": 26.5642, "lng": 31.7461}, {"city": "Zifta", "lat": 30.7119, "lng": 31.2394}, {"city": "Manfalut", "lat": 27.3128, "lng": 30.9703}, {"city": "Bani Mazar", "lat": 28.5036, "lng": 30.8003}, {"city": "Maghaghah", "lat": 28.6483, "lng": 30.8422}, {"city": "Al Qusiyah", "lat": 27.4403, "lng": 30.8183}, {"city": "Abnub", "lat": 27.2667, "lng": 31.15}, {"city": "Hihya", "lat": 30.6687, "lng": 31.5904}, {"city": "Al Minshah", "lat": 26.4769, "lng": 31.8036}, {"city": "Samannud", "lat": 30.9622, "lng": 31.2425}, {"city": "Abu Qir", "lat": 31.3167, "lng": 30.0667}, {"city": "Al Karnak", "lat": 25.7184, "lng": 32.6581}, {"city": "Al Balyana", "lat": 26.2329, "lng": 31.9993}, {"city": "Al Kharjah", "lat": 25.44, "lng": 30.55}, {"city": "Naj` Hammadi", "lat": 26.05, "lng": 32.25}, {"city": "Al Badari", "lat": 26.9925, "lng": 31.4156}, {"city": "Dayr Mawas", "lat": 27.6414, "lng": 30.8494}, {"city": "Faraskur", "lat": 31.3297, "lng": 31.7147}, {"city": "Qiman al `Arus", "lat": 29.3005, "lng": 31.1683}, {"city": "Qaha", "lat": 30.2833, "lng": 31.2}, {"city": "Hirriyat Raznah", "lat": 30.6028, "lng": 31.5372}, {"city": "Mit Nama", "lat": 30.1453, "lng": 31.2343}, {"city": "Kafr Shukr", "lat": 30.547, "lng": 31.2673}, {"city": "Sharunah", "lat": 28.594, "lng": 30.8516}, {"city": "Bani Murr", "lat": 27.2272, "lng": 31.1944}, {"city": "Al Madamud", "lat": 25.7333, "lng": 32.7125}, {"city": "Sunbat", "lat": 30.8057, "lng": 31.207}, {"city": "Al Qays", "lat": 28.4833, "lng": 30.7833}, {"city": "Dayr Abu Hinnis", "lat": 27.7864, "lng": 30.905}, {"city": "Bani Hasan ash Shuruq", "lat": 27.9314, "lng": 30.8753}, {"city": "Biyahmu", "lat": 29.3696, "lng": 30.8538}, {"city": "Birqash", "lat": 30.1692, "lng": 31.0417}, {"city": "Dishashah", "lat": 28.9831, "lng": 30.8492}, {"city": "Mit Damsis", "lat": 30.8267, "lng": 31.2226}, {"city": "At Tur", "lat": 28.2333, "lng": 33.6167}, {"city": "Qufadah", "lat": 28.5812, "lng": 30.7554}, {"city": "Shanhur", "lat": 25.8604, "lng": 32.7779}, {"city": "Dayr as Sanquriyah", "lat": 28.4833, "lng": 30.65}, {"city": "Dayr al Jarnus", "lat": 28.61, "lng": 30.7067}, {"city": "Ra's Gharib", "lat": 28.3597, "lng": 33.0775}, {"city": "Samalut", "lat": 28.3122, "lng": 30.71}, {"city": "Armant", "lat": 25.6167, "lng": 32.5333}, {"city": "Kawm Umbu", "lat": 24.4667, "lng": 32.95}, {"city": "Bur Fu'ad", "lat": 31.2314, "lng": 32.3253}, {"city": "Rosetta", "lat": 31.4014, "lng": 30.4194}, {"city": "Isna", "lat": 25.2933, "lng": 32.5564}, {"city": "Abu Qurqas", "lat": 27.9308, "lng": 30.8364}, {"city": "Dandarah", "lat": 26.1422, "lng": 32.6697}, {"city": "Matay", "lat": 28.4189, "lng": 30.7792}, {"city": "San al Hajar al Qibliyah", "lat": 30.9769, "lng": 31.88}, {"city": "Ihnasya al Madinah", "lat": 29.0833, "lng": 30.9333}, {"city": "Daraw", "lat": 24.4003, "lng": 32.9306}, {"city": "Al Husayniyah", "lat": 30.8617, "lng": 31.9181}, {"city": "Safaja", "lat": 26.7517, "lng": 33.9344}, {"city": "Kafr Sa`d", "lat": 31.3557, "lng": 31.6848}, {"city": "Qift", "lat": 26.0, "lng": 32.8167}, {"city": "Siwah", "lat": 29.2, "lng": 25.5167}, {"city": "Naqadah", "lat": 25.9017, "lng": 32.7242}, {"city": "Sa al Hajar", "lat": 30.9647, "lng": 30.7683}, {"city": "Al Hibah", "lat": 28.8, "lng": 30.9167}, {"city": "Sakha", "lat": 31.0881, "lng": 30.9456}, {"city": "Qantir", "lat": 30.8032, "lng": 31.8379}, {"city": "Sidmant al Jabal", "lat": 29.0856, "lng": 30.9344}, {"city": "Dayr al Barsha", "lat": 27.7572, "lng": 30.91}, {"city": "Ad Dab`ah", "lat": 31.0338, "lng": 28.4333}, {"city": "Burj al `Arab", "lat": 30.9167, "lng": 29.5333}, {"city": "Sawadah", "lat": 28.0775, "lng": 30.7953}, {"city": "Abjij", "lat": 29.2861, "lng": 30.8152}, {"city": "Tihna al Jabal", "lat": 28.1889, "lng": 30.7694}, {"city": "As Sallum", "lat": 31.5525, "lng": 25.1575}, {"city": "Shalatin", "lat": 23.1333, "lng": 35.6}, {"city": "Al `Alamayn", "lat": 30.8333, "lng": 28.95}, {"city": "Mandishah", "lat": 28.3515, "lng": 28.9317}, {"city": "Qasr al Farafirah", "lat": 27.0671, "lng": 27.9666}, {"city": "Al Qasr", "lat": 25.6959, "lng": 28.8837}, {"city": "Barnis", "lat": 23.946, "lng": 35.4842}]