[{"city": "Paris", "lat": 48.8566, "lng": 2.3522}, {"city": "Marseille", "lat": 43.2964, "lng": 5.37}, {"city": "Lyon", "lat": 45.76, "lng": 4.84}, {"city": "Toulouse", "lat": 43.6045, "lng": 1.444}, {"city": "Nice", "lat": 43.7034, "lng": 7.2663}, {"city": "Nantes", "lat": 47.2181, "lng": -1.5528}, {"city": "Montpellier", "lat": 43.6119, "lng": 3.8772}, {"city": "Strasbourg", "lat": 48.5833, "lng": 7.7458}, {"city": "Bordeaux", "lat": 44.84, "lng": -0.58}, {"city": "Lille", "lat": 50.6278, "lng": 3.0583}, {"city": "Rennes", "lat": 48.1147, "lng": -1.6794}, {"city": "Reims", "lat": 49.2628, "lng": 4.0347}, {"city": "Toulon", "lat": 43.1258, "lng": 5.9306}, {"city": "Saint-Etienne", "lat": 45.4347, "lng": 4.3903}, {"city": "Le Havre", "lat": 49.49, "lng": 0.1}, {"city": "Grenoble", "lat": 45.1715, "lng": 5.7224}, {"city": "Villeurbanne", "lat": 45.7667, "lng": 4.8803}, {"city": "Dijon", "lat": 47.3167, "lng": 5.0167}, {"city": "Angers", "lat": 47.4736, "lng": -0.5542}, {"city": "Nimes", "lat": 43.838, "lng": 4.361}, {"city": "Clermont-Ferrand", "lat": 45.7831, "lng": 3.0824}, {"city": "Le Mans", "lat": 48.0077, "lng": 0.1984}, {"city": "Aix-en-Provence", "lat": 43.5263, "lng": 5.4454}, {"city": "Brest", "lat": 48.39, "lng": -4.49}, {"city": "Boulogne-Billancourt", "lat": 48.8352, "lng": 2.2409}, {"city": "Tours", "lat": 47.3936, "lng": 0.6892}, {"city": "Amiens", "lat": 49.892, "lng": 2.299}, {"city": "Limoges", "lat": 45.8353, "lng": 1.2625}, {"city": "Annecy", "lat": 45.916, "lng": 6.133}, {"city": "Montreuil", "lat": 48.8611, "lng": 2.4436}, {"city": "Saint-Denis", "lat": 48.9356, "lng": 2.3539}, {"city": "Perpignan", "lat": 42.6986, "lng": 2.8956}, {"city": "Orleans", "lat": 47.9025, "lng": 1.909}, {"city": "Besancon", "lat": 47.24, "lng": 6.02}, {"city": "Metz", "lat": 49.1203, "lng": 6.1778}, {"city": "Argenteuil", "lat": 48.95, "lng": 2.25}, {"city": "Rouen", "lat": 49.4428, "lng": 1.0886}, {"city": "Mulhouse", "lat": 47.75, "lng": 7.34}, {"city": "Nancy", "lat": 48.6936, "lng": 6.1846}, {"city": "Caen", "lat": 49.18, "lng": -0.37}, {"city": "Courbevoic", "lat": 48.8978, "lng": 2.2531}, {"city": "Roubaix", "lat": 50.6901, "lng": 3.1817}, {"city": "Nanterre", "lat": 48.8988, "lng": 2.1969}, {"city": "Tourcoing", "lat": 50.7239, "lng": 3.1612}, {"city": "Vitry-sur-Seine", "lat": 48.7875, "lng": 2.3928}, {"city": "Creteil", "lat": 48.7911, "lng": 2.4628}, {"city": "Aubervilliers", "lat": 48.9131, "lng": 2.3831}, {"city": "Colombes", "lat": 48.9236, "lng": 2.2522}, {"city": "Levallois-Perret", "lat": 48.895, "lng": 2.2872}, {"city": "Aulnay-sous-Bois", "lat": 48.9386, "lng": 2.4906}, {"city": "Poitiers", "lat": 46.58, "lng": 0.34}, {"city": "Versailles", "lat": 48.8053, "lng": 2.135}, {"city": "Clichy", "lat": 48.9044, "lng": 2.3064}, {"city": "Issy-les-Moulineaux", "lat": 48.8239, "lng": 2.27}, {"city": "Champigny-sur-Marne", "lat": 48.8172, "lng": 2.5156}, {"city": "Rueil-Malmaison", "lat": 48.876, "lng": 2.181}, {"city": "Saint-Maur-des-Fosses", "lat": 48.7994, "lng": 2.4997}, {"city": "Drancy", "lat": 48.93, "lng": 2.45}, {"city": "La Rochelle", "lat": 46.1591, "lng": -1.1517}, {"city": "Pau", "lat": 43.3, "lng": -0.37}, {"city": "Cannes", "lat": 43.5513, "lng": 7.0128}, {"city": "Montrouge", "lat": 48.8172, "lng": 2.3219}, {"city": "Antibes", "lat": 43.5808, "lng": 7.1239}, {"city": "Vincennes", "lat": 48.8478, "lng": 2.4392}, {"city": "Calais", "lat": 50.9481, "lng": 1.8564}, {"city": "Ivry-sur-Seine", "lat": 48.8078, "lng": 2.3747}, {"city": "Neuilly-sur-Seine", "lat": 48.8881, "lng": 2.2686}, {"city": "Noisy-le-Grand", "lat": 48.8478, "lng": 2.5528}, {"city": "Cergy", "lat": 49.0361, "lng": 2.0631}, {"city": "Ajaccio", "lat": 41.9267, "lng": 8.7369}, {"city": "Venissieux", "lat": 45.6978, "lng": 4.8867}, {"city": "Pantin", "lat": 48.8966, "lng": 2.4017}, {"city": "Antony", "lat": 48.7539, "lng": 2.2975}, {"city": "Epinay-sur-Seine", "lat": 48.9553, "lng": 2.3092}, {"city": "Troyes", "lat": 48.2997, "lng": 4.0792}, {"city": "Maisons-Alfort", "lat": 48.8058, "lng": 2.4378}, {"city": "Sarcelles", "lat": 48.9956, "lng": 2.3808}, {"city": "La Seyne-sur-Mer", "lat": 43.1, "lng": 5.883}, {"city": "Villejuif", "lat": 48.7919, "lng": 2.3636}, {"city": "Le Blanc-Mesnil", "lat": 48.9387, "lng": 2.4614}, {"city": "Bondy", "lat": 48.9022, "lng": 2.4828}, {"city": "Cherbourg", "lat": 49.6333, "lng": -1.6}, {"city": "Suresnes", "lat": 48.87, "lng": 2.22}, {"city": "Saint-Ouen", "lat": 48.9123, "lng": 2.3342}, {"city": "Bobigny", "lat": 48.9106, "lng": 2.4397}, {"city": "Chambery", "lat": 45.57, "lng": 5.9118}, {"city": "Fontenay-sous-Bois", "lat": 48.8517, "lng": 2.4772}, {"city": "Puteaux", "lat": 48.885, "lng": 2.2389}, {"city": "Lorient", "lat": 47.75, "lng": -3.36}, {"city": "Evry", "lat": 48.6239, "lng": 2.4294}, {"city": "Alfortville", "lat": 48.805, "lng": 2.4239}, {"city": "Meaux", "lat": 48.9603, "lng": 2.8883}, {"city": "Clamart", "lat": 48.8014, "lng": 2.2628}, {"city": "Chelles", "lat": 48.8833, "lng": 2.6}, {"city": "Sartrouville", "lat": 48.9372, "lng": 2.1644}, {"city": "Sevran", "lat": 48.9333, "lng": 2.5333}, {"city": "Saint-Quentin", "lat": 49.8486, "lng": 3.2864}, {"city": "Massy", "lat": 48.7309, "lng": 2.2713}, {"city": "Corbeil-Essonnes", "lat": 48.6139, "lng": 2.482}, {"city": "Choisy-le-Roi", "lat": 48.763, "lng": 2.409}, {"city": "Cagnes-sur-Mer", "lat": 43.6644, "lng": 7.1489}, {"city": "Rosny-sous-Bois", "lat": 48.8667, "lng": 2.4833}, {"city": "Bayonne", "lat": 43.49, "lng": -1.48}, {"city": "Vaulx-en-Velin", "lat": 45.7768, "lng": 4.9186}, {"city": "Noisy-le-Sec", "lat": 48.8894, "lng": 2.4503}, {"city": "La Garenne-Colombes", "lat": 48.9056, "lng": 2.2445}, {"city": "Gennevilliers", "lat": 48.9333, "lng": 2.3}, {"city": "Livry-Gargan", "lat": 48.9192, "lng": 2.5361}, {"city": "Garges-les-Gonesse", "lat": 48.9728, "lng": 2.4008}, {"city": "Bagneux", "lat": 48.7983, "lng": 2.3137}, {"city": "Bastia", "lat": 42.7008, "lng": 9.4503}, {"city": "Meudon", "lat": 48.8123, "lng": 2.2382}, {"city": "La Courneuve", "lat": 48.9322, "lng": 2.3967}, {"city": "Belfort", "lat": 47.64, "lng": 6.85}, {"city": "Bagnolet", "lat": 48.8692, "lng": 2.4181}, {"city": "Chatillon", "lat": 48.8, "lng": 2.29}, {"city": "Mantes-la-Jolie", "lat": 48.9908, "lng": 1.7172}, {"city": "Malakoff", "lat": 48.8169, "lng": 2.2944}, {"city": "Talence", "lat": 44.8, "lng": -0.584}, {"city": "Chalon-sur-Saone", "lat": 46.7806, "lng": 4.8528}, {"city": "Charenton-le-Pont", "lat": 48.8265, "lng": 2.405}, {"city": "Caluire-et-Cuire", "lat": 45.7953, "lng": 4.8472}, {"city": "Le Cannet", "lat": 43.5769, "lng": 7.0194}, {"city": "Valenciennes", "lat": 50.358, "lng": 3.5233}, {"city": "Bron", "lat": 45.7394, "lng": 4.9139}, {"city": "Bois-Colombes", "lat": 48.9175, "lng": 2.2683}, {"city": "Saint-Brieuc", "lat": 48.5136, "lng": -2.7653}, {"city": "Vanves", "lat": 48.8208, "lng": 2.2897}, {"city": "Stains", "lat": 48.95, "lng": 2.3833}, {"city": "Boulogne-sur-Mer", "lat": 50.7264, "lng": 1.6147}, {"city": "Reze", "lat": 47.1833, "lng": -1.55}, {"city": "Gagny", "lat": 48.8833, "lng": 2.5333}, {"city": "Tarbes", "lat": 43.23, "lng": 0.07}, {"city": "Arras", "lat": 50.292, "lng": 2.78}, {"city": "Melun", "lat": 48.5406, "lng": 2.66}, {"city": "Nogent-sur-Marne", "lat": 48.8375, "lng": 2.4833}, {"city": "Wattrelos", "lat": 50.7, "lng": 3.217}, {"city": "Le Kremlin-Bicetre", "lat": 48.81, "lng": 2.3581}, {"city": "Annemasse", "lat": 46.1958, "lng": 6.2364}, {"city": "Franconville", "lat": 48.9889, "lng": 2.2314}, {"city": "Saint-Martin-d'Heres", "lat": 45.1672, "lng": 5.7653}, {"city": "Le Perreux-Sur-Marne", "lat": 48.8422, "lng": 2.5036}, {"city": "Le Pre-Saint-Gervais", "lat": 48.885, "lng": 2.4039}, {"city": "Cachan", "lat": 48.7919, "lng": 2.3319}, {"city": "Savigny-sur-Orge", "lat": 48.6797, "lng": 2.3457}, {"city": "Douai", "lat": 50.3714, "lng": 3.08}, {"city": "Echirolles", "lat": 45.1436, "lng": 5.7183}, {"city": "Marcq-en-Baroeul", "lat": 50.6711, "lng": 3.0972}, {"city": "Poissy", "lat": 48.9294, "lng": 2.0456}, {"city": "Neuilly-sur-Marne", "lat": 48.8537, "lng": 2.549}, {"city": "Villepinte", "lat": 48.955, "lng": 2.541}, {"city": "Chartres", "lat": 48.456, "lng": 1.484}, {"city": "Villefranche-sur-Saone", "lat": 45.9833, "lng": 4.7167}, {"city": "Sainte-Genevieve-des-Bois", "lat": 48.6369, "lng": 2.3403}, {"city": "Pierrefitte-sur-Seine", "lat": 48.9656, "lng": 2.3614}, {"city": "Houilles", "lat": 48.9261, "lng": 2.1892}, {"city": "Les Lilas", "lat": 48.88, "lng": 2.42}, {"city": "Chatenay-Malabry", "lat": 48.7653, "lng": 2.2781}, {"city": "L'Hay-les-Roses", "lat": 48.78, "lng": 2.3374}, {"city": "Conflans-Sainte-Honorine", "lat": 48.9992, "lng": 2.0983}, {"city": "Athis-Mons", "lat": 48.7074, "lng": 2.3889}, {"city": "Creil", "lat": 49.2583, "lng": 2.4833}, {"city": "Palaiseau", "lat": 48.7145, "lng": 2.2457}, {"city": "Villeneuve-Saint-Georges", "lat": 48.7325, "lng": 2.4497}, {"city": "Le Plessis-Robinson", "lat": 48.7811, "lng": 2.2633}, {"city": "Bezons", "lat": 48.9261, "lng": 2.2178}, {"city": "Villemomble", "lat": 48.8833, "lng": 2.5}, {"city": "Thonon-les-Bains", "lat": 46.3627, "lng": 6.475}, {"city": "Schiltigheim", "lat": 48.6078, "lng": 7.75}, {"city": "Saint-Mande", "lat": 48.8422, "lng": 2.4186}, {"city": "Romainville", "lat": 48.884, "lng": 2.435}, {"city": "Clichy-sous-Bois", "lat": 48.9102, "lng": 2.5532}, {"city": "Chatou", "lat": 48.8897, "lng": 2.1573}, {"city": "Fresnes", "lat": 48.755, "lng": 2.3221}, {"city": "Roanne", "lat": 46.0367, "lng": 4.0689}, {"city": "Ermont", "lat": 48.9922, "lng": 2.2603}, {"city": "Agen", "lat": 44.2049, "lng": 0.6212}, {"city": "Pontoise", "lat": 49.0516, "lng": 2.1017}, {"city": "Viry-Chatillon", "lat": 48.6713, "lng": 2.375}, {"city": "Les Mureaux", "lat": 48.9875, "lng": 1.9172}, {"city": "Fontenay-aux-Roses", "lat": 48.7893, "lng": 2.2888}, {"city": "Montigny-le-Bretonneux", "lat": 48.7711, "lng": 2.0333}, {"city": "Villiers-sur-Marne", "lat": 48.8275, "lng": 2.5447}, {"city": "Vigneux-sur-Seine", "lat": 48.7001, "lng": 2.417}, {"city": "Gentilly", "lat": 48.8133, "lng": 2.3444}, {"city": "Trappes", "lat": 48.7775, "lng": 2.0025}, {"city": "Thiais", "lat": 48.765, "lng": 2.3923}, {"city": "Lens", "lat": 50.4322, "lng": 2.8333}, {"city": "Le Chesnay", "lat": 48.8203, "lng": 2.1303}, {"city": "Grigny", "lat": 48.6562, "lng": 2.3849}, {"city": "Saint-Cloud", "lat": 48.84, "lng": 2.22}, {"city": "Goussainville", "lat": 49.0325, "lng": 2.4747}, {"city": "Vandoeuvre-les-Nancy", "lat": 48.6567, "lng": 6.1683}, {"city": "Perigueux", "lat": 45.1929, "lng": 0.7217}, {"city": "Ris-Orangis", "lat": 48.6537, "lng": 2.4161}, {"city": "Sotteville-les-Rouen", "lat": 49.4092, "lng": 1.09}, {"city": "Lievin", "lat": 50.4228, "lng": 2.7786}, {"city": "Begles", "lat": 44.8086, "lng": -0.5478}, {"city": "Oullins", "lat": 45.715, "lng": 4.8083}, {"city": "Rillieux-la-Pape", "lat": 45.8214, "lng": 4.8983}, {"city": "Menton", "lat": 43.775, "lng": 7.5}, {"city": "Aix-les-Bains", "lat": 45.6885, "lng": 5.9153}, {"city": "Yerres", "lat": 48.7171, "lng": 2.4881}, {"city": "Savigny-le-Temple", "lat": 48.5841, "lng": 2.5832}, {"city": "Montfermeil", "lat": 48.9, "lng": 2.5667}, {"city": "Les Pavillons-sous-Bois", "lat": 48.9, "lng": 2.5}, {"city": "Sannois", "lat": 48.9722, "lng": 2.2578}, {"city": "Bourg-la-Reine", "lat": 48.7796, "lng": 2.3151}, {"city": "Villiers-le-Bel", "lat": 49.0094, "lng": 2.3911}, {"city": "Lambersart", "lat": 50.65, "lng": 3.025}, {"city": "Limeil-Brevannes", "lat": 48.7464, "lng": 2.4883}, {"city": "Guyancourt", "lat": 48.7714, "lng": 2.0739}, {"city": "Villeneuve-la-Garenne", "lat": 48.9372, "lng": 2.3278}, {"city": "Saint-Laurent-du-Var", "lat": 43.668, "lng": 7.188}, {"city": "Arcueil", "lat": 48.8075, "lng": 2.3361}, {"city": "Lomme", "lat": 50.6455, "lng": 2.9876}, {"city": "Dieppe", "lat": 49.92, "lng": 1.08}, {"city": "Soissons", "lat": 49.3817, "lng": 3.3236}, {"city": "Eaubonne", "lat": 48.9922, "lng": 2.2806}, {"city": "Cenon", "lat": 44.8578, "lng": -0.5317}, {"city": "Saint-Sebastien-sur-Loire", "lat": 47.2081, "lng": -1.5014}, {"city": "La Madeleine", "lat": 50.6558, "lng": 3.071}, {"city": "Villeparisis", "lat": 48.9503, "lng": 2.6025}, {"city": "Sucy-en-Brie", "lat": 48.7697, "lng": 2.5228}, {"city": "Saint-Gratien", "lat": 48.9719, "lng": 2.2828}, {"city": "Sevres", "lat": 48.8239, "lng": 2.2117}, {"city": "Brunoy", "lat": 48.6979, "lng": 2.5044}, {"city": "Vallauris", "lat": 43.5805, "lng": 7.0538}, {"city": "Taverny", "lat": 49.0264, "lng": 2.2275}, {"city": "Vichy", "lat": 46.1278, "lng": 3.4267}, {"city": "Champs-Sur-Marne", "lat": 48.8529, "lng": 2.6027}, {"city": "Bussy-Saint-Georges", "lat": 48.8422, "lng": 2.6983}, {"city": "Armentieres", "lat": 50.6881, "lng": 2.8811}, {"city": "Elancourt", "lat": 48.7847, "lng": 1.9589}, {"city": "Le Bouscat", "lat": 44.8651, "lng": -0.5996}, {"city": "Mons-en-Baroeul", "lat": 50.6369, "lng": 3.1103}, {"city": "Alencon", "lat": 48.4306, "lng": 0.0931}, {"city": "Le Grand-Quevilly", "lat": 49.4072, "lng": 1.0531}, {"city": "Deuil-la-Barre", "lat": 48.9767, "lng": 2.3272}, {"city": "Joinville-le-Pont", "lat": 48.8214, "lng": 2.4728}, {"city": "Bethune", "lat": 50.5303, "lng": 2.6408}, {"city": "Biarritz", "lat": 43.48, "lng": -1.56}, {"city": "Cormeilles-en-Parisis", "lat": 48.9739, "lng": 2.2014}, {"city": "Orly", "lat": 48.7439, "lng": 2.3928}, {"city": "Le Petit-Quevilly", "lat": 49.4311, "lng": 1.0539}, {"city": "Maisons-Laffitte", "lat": 48.9469, "lng": 2.1456}, {"city": "Neuilly-Plaisance", "lat": 48.8619, "lng": 2.5064}, {"city": "Montigny-les-Cormeilles", "lat": 48.9944, "lng": 2.1958}, {"city": "Chaville", "lat": 48.8086, "lng": 2.1886}, {"city": "Rodez", "lat": 44.3506, "lng": 2.575}, {"city": "Fontaine", "lat": 45.1939, "lng": 5.6856}, {"city": "Lormont", "lat": 44.8792, "lng": -0.5217}, {"city": "Eysines", "lat": 44.8853, "lng": -0.65}, {"city": "Torcy", "lat": 48.8502, "lng": 2.6508}, {"city": "Montgeron", "lat": 48.7039, "lng": 2.4605}, {"city": "Croix", "lat": 50.6781, "lng": 3.1508}, {"city": "Montmorency", "lat": 48.9906, "lng": 2.3228}, {"city": "Loos", "lat": 50.6128, "lng": 3.0144}, {"city": "Sainte-Foy-les-Lyon", "lat": 45.73, "lng": 4.8}, {"city": "Morsang-sur-Orge", "lat": 48.6618, "lng": 2.3461}, {"city": "Longjumeau", "lat": 48.6943, "lng": 2.2958}, {"city": "Tassin-la-Demi-Lune", "lat": 45.764, "lng": 4.78}, {"city": "Velizy-Villacoublay", "lat": 48.7834, "lng": 2.1834}, {"city": "Sceaux", "lat": 48.7786, "lng": 2.2906}, {"city": "Le Mee-sur-Seine", "lat": 48.5333, "lng": 2.6289}, {"city": "Montigny-les-Metz", "lat": 49.1006, "lng": 6.1539}, {"city": "Herouville-Saint-Clair", "lat": 49.2044, "lng": -0.3253}, {"city": "Le Plessis-Trevise", "lat": 48.8111, "lng": 2.5717}, {"city": "Juvisy-sur-Orge", "lat": 48.6883, "lng": 2.3775}, {"city": "Chevilly-Larue", "lat": 48.7664, "lng": 2.3533}, {"city": "Saint-Pol-sur-Mer", "lat": 51.0314, "lng": 2.3439}, {"city": "La Celle-Saint-Cloud", "lat": 48.8411, "lng": 2.1344}, {"city": "Garches", "lat": 48.8456, "lng": 2.1869}, {"city": "Dammarie-le-Lys", "lat": 48.5177, "lng": 2.6402}, {"city": "Hellemmes-Lille", "lat": 50.6283, "lng": 3.11}, {"city": "Le Bourget", "lat": 48.9344, "lng": 2.4244}, {"city": "Mantes-la-Ville", "lat": 48.975, "lng": 1.7117}, {"city": "Saint-Maurice", "lat": 48.8183, "lng": 2.4347}, {"city": "Villeneuve-le-Roi", "lat": 48.7333, "lng": 2.4167}, {"city": "Saint-Michel-sur-Orge", "lat": 48.6325, "lng": 2.3028}, {"city": "Wasquehal", "lat": 50.6694, "lng": 3.1308}, {"city": "Chilly-Mazarin", "lat": 48.7025, "lng": 2.3125}, {"city": "Acheres", "lat": 48.9602, "lng": 2.0684}, {"city": "Coudekerque-Branche", "lat": 51.0253, "lng": 2.3917}, {"city": "Fleury-les-Aubrais", "lat": 47.9312, "lng": 1.921}, {"city": "Ronchin", "lat": 50.6047, "lng": 3.0878}, {"city": "Nogent-sur-Oise", "lat": 49.2756, "lng": 2.4683}, {"city": "Montereau-faut-Yonne", "lat": 48.3853, "lng": 2.9508}, {"city": "Soisy-sous-Montmorency", "lat": 48.9878, "lng": 2.2997}, {"city": "Saint-Cyr-l'Ecole", "lat": 48.8003, "lng": 2.0625}, {"city": "Saint-Fons", "lat": 45.7086, "lng": 4.8533}, {"city": "Lingolsheim", "lat": 48.5575, "lng": 7.6831}, {"city": "Cran-Gevrier", "lat": 45.9036, "lng": 6.1039}, {"city": "Faches-Thumesnil", "lat": 50.5989, "lng": 3.0736}, {"city": "Eragny", "lat": 49.0172, "lng": 2.0914}, {"city": "Bry-sur-Marne", "lat": 48.8411, "lng": 2.5222}, {"city": "Moulins", "lat": 46.5647, "lng": 3.3325}, {"city": "Chamalieres", "lat": 45.7736, "lng": 3.0669}, {"city": "Mont-Saint-Aignan", "lat": 49.4625, "lng": 1.0872}, {"city": "Chennevieres-sur-Marne", "lat": 48.7983, "lng": 2.5339}, {"city": "Le Pecq", "lat": 48.8967, "lng": 2.1061}, {"city": "Vaureal", "lat": 49.03, "lng": 2.0214}, {"city": "Bonneuil-sur-Marne", "lat": 48.7742, "lng": 2.4875}, {"city": "Le Raincy", "lat": 48.8992, "lng": 2.5231}, {"city": "Viroflay", "lat": 48.8, "lng": 2.1722}, {"city": "Bischheim", "lat": 48.6139, "lng": 7.7519}, {"city": "Ecully", "lat": 45.7744, "lng": 4.7775}, {"city": "Les Clayes-sous-Bois", "lat": 48.8206, "lng": 1.9836}, {"city": "Maurepas", "lat": 48.7628, "lng": 1.9456}, {"city": "Floirac", "lat": 44.8364, "lng": -0.5258}, {"city": "Lons-le-Saunier", "lat": 46.6744, "lng": 5.5539}, {"city": "Arnouville-les-Gonesse", "lat": 48.9872, "lng": 2.4167}, {"city": "Noisiel", "lat": 48.8547, "lng": 2.6289}, {"city": "Saint-Jean-de-la-Ruelle", "lat": 47.9131, "lng": 1.8733}, {"city": "Le Vesinet", "lat": 48.8939, "lng": 2.1322}, {"city": "Montmagny", "lat": 48.9736, "lng": 2.3458}, {"city": "Hendaye", "lat": 43.3586, "lng": -1.7744}, {"city": "Saint-Leu-la-Foret", "lat": 49.0169, "lng": 2.2464}, {"city": "Marly-le-Roi", "lat": 48.8669, "lng": 2.0942}, {"city": "Jouy-le-Moutier", "lat": 49.0108, "lng": 2.0386}, {"city": "Carrieres-sous-Poissy", "lat": 48.9478, "lng": 2.0386}, {"city": "Lognes", "lat": 48.8361, "lng": 2.6278}, {"city": "Beausoleil", "lat": 43.7419, "lng": 7.4236}, {"city": "Montargis", "lat": 47.9969, "lng": 2.7325}, {"city": "Bois-d'Arcy", "lat": 48.8014, "lng": 2.0317}, {"city": "Carrieres-sur-Seine", "lat": 48.9108, "lng": 2.2889}, {"city": "Luce", "lat": 48.4383, "lng": 1.465}, {"city": "Enghien-les-Bains", "lat": 48.9697, "lng": 2.3081}, {"city": "Valenton", "lat": 48.745, "lng": 2.4672}, {"city": "Lys-les-Lannoy", "lat": 50.6714, "lng": 3.2144}, {"city": "Haubourdin", "lat": 50.6092, "lng": 2.9869}, {"city": "Longwy", "lat": 49.5197, "lng": 5.7606}, {"city": "Saint-Brice-sous-Foret", "lat": 48.9986, "lng": 2.3569}, {"city": "Avon", "lat": 48.4089, "lng": 2.725}, {"city": "Rive-de-Gier", "lat": 45.5294, "lng": 4.6169}, {"city": "Wattignies", "lat": 50.585, "lng": 3.0431}, {"city": "Saint-Andre", "lat": 50.6603, "lng": 3.0439}, {"city": "Montesson", "lat": 48.9086, "lng": 2.1494}, {"city": "Anzin", "lat": 50.3714, "lng": 3.5044}, {"city": "Ramonville-Saint-Agne", "lat": 43.5461, "lng": 1.4756}, {"city": "Courcouronnes", "lat": 48.6239, "lng": 2.4294}, {"city": "Mouvaux", "lat": 50.7033, "lng": 3.1406}, {"city": "Morangis", "lat": 48.7064, "lng": 2.3347}, {"city": "Fleury-Merogis", "lat": 48.6294, "lng": 2.3614}, {"city": "Persan", "lat": 49.1533, "lng": 2.2711}, {"city": "Fontenay-le-Fleury", "lat": 48.8136, "lng": 2.0486}, {"city": "Auray", "lat": 47.6678, "lng": -2.9825}, {"city": "Epinay-sous-Senart", "lat": 48.6931, "lng": 2.5158}, {"city": "Vaires-sur-Marne", "lat": 48.8742, "lng": 2.6381}, {"city": "Voisins-le-Bretonneux", "lat": 48.7583, "lng": 2.0508}, {"city": "Arpajon", "lat": 48.5903, "lng": 2.2478}, {"city": "Billere", "lat": 43.3025, "lng": -0.3972}, {"city": "Saint-Max", "lat": 48.7011, "lng": 6.2067}, {"city": "Montevrain", "lat": 48.8753, "lng": 2.7456}, {"city": "Saint-Andre-les-Vergers", "lat": 48.2797, "lng": 4.0539}, {"city": "Stiring-Wendel", "lat": 49.2, "lng": 6.9292}, {"city": "Hoenheim", "lat": 48.6242, "lng": 7.7547}, {"city": "Ville-d'Avray", "lat": 48.8261, "lng": 2.1933}, {"city": "Talant", "lat": 47.3364, "lng": 5.0056}, {"city": "Deville-les-Rouen", "lat": 49.4697, "lng": 1.0497}, {"city": "Epinay-sur-Orge", "lat": 48.6739, "lng": 2.3272}, {"city": "Craponne", "lat": 45.7453, "lng": 4.7233}, {"city": "Dugny", "lat": 48.9536, "lng": 2.4164}, {"city": "Beaumont", "lat": 45.7517, "lng": 3.0831}, {"city": "Ormesson-sur-Marne", "lat": 48.7858, "lng": 2.5383}, {"city": "Chanteloup-les-Vignes", "lat": 48.9783, "lng": 2.0308}, {"city": "Maromme", "lat": 49.4819, "lng": 1.0419}, {"city": "Montigny-en-Gohelle", "lat": 50.4278, "lng": 2.9297}, {"city": "Jarville-la-Malgrange", "lat": 48.6694, "lng": 6.2061}, {"city": "Crosne", "lat": 48.7147, "lng": 2.4611}, {"city": "Gaillard", "lat": 46.185, "lng": 6.2075}, {"city": "Caudebec-les-Elbeuf", "lat": 49.2808, "lng": 1.0211}, {"city": "Pierre-Benite", "lat": 45.7036, "lng": 4.8242}, {"city": "Tinqueux", "lat": 49.25, "lng": 3.9908}, {"city": "L'Ile-Saint-Denis", "lat": 48.9358, "lng": 2.3397}, {"city": "Avranches", "lat": 48.6844, "lng": -1.3569}, {"city": "Marquette-les-Lille", "lat": 50.6758, "lng": 3.0661}, {"city": "Fosses", "lat": 49.0981, "lng": 2.5067}, {"city": "Croissy-sur-Seine", "lat": 48.8778, "lng": 2.1422}, {"city": "Igny", "lat": 48.7422, "lng": 2.2261}, {"city": "Sallaumines", "lat": 50.4197, "lng": 2.8622}, {"city": "Eybens", "lat": 45.1486, "lng": 5.7503}, {"city": "Neuville-les-Dieppe", "lat": 49.9267, "lng": 1.1014}, {"city": "Bougival", "lat": 48.865, "lng": 2.1394}, {"city": "Ferney-Voltaire", "lat": 46.2558, "lng": 6.1081}, {"city": "Bures-sur-Yvette", "lat": 48.6967, "lng": 2.1614}, {"city": "Bihorel", "lat": 49.4547, "lng": 1.1167}, {"city": "Le Plessis-Bouchard", "lat": 49.0028, "lng": 2.2367}, {"city": "Beauchamp", "lat": 49.0139, "lng": 2.19}, {"city": "Le Portel", "lat": 50.7067, "lng": 1.5733}, {"city": "Vaucresson", "lat": 48.8425, "lng": 2.1528}, {"city": "Groslay", "lat": 48.9867, "lng": 2.3444}, {"city": "Ambilly", "lat": 46.195, "lng": 6.2242}, {"city": "Evian-les-Bains", "lat": 46.4006, "lng": 6.59}, {"city": "Perenchies", "lat": 50.6681, "lng": 2.9725}, {"city": "Billy-Montigny", "lat": 50.4181, "lng": 2.9119}, {"city": "Ablon-sur-Seine", "lat": 48.7256, "lng": 2.4211}, {"city": "Gournay-sur-Marne", "lat": 48.8597, "lng": 2.5764}, {"city": "Meythet", "lat": 45.9153, "lng": 6.0928}, {"city": "Aucamville", "lat": 43.6686, "lng": 1.4306}, {"city": "Sainte-Adresse", "lat": 49.5064, "lng": 0.0833}, {"city": "Boussy-Saint-Antoine", "lat": 48.6908, "lng": 2.5325}, {"city": "Terrenoire", "lat": 45.4343, "lng": 4.4377}, {"city": "Carbon-Blanc", "lat": 44.8947, "lng": -0.5064}, {"city": "La Verriere", "lat": 48.7586, "lng": 1.9622}, {"city": "La Ville-du-Bois", "lat": 48.6606, "lng": 2.2692}, {"city": "Fontaines-sur-Saone", "lat": 45.8358, "lng": 4.845}, {"city": "Villemoisson-sur-Orge", "lat": 48.6653, "lng": 2.3308}, {"city": "La Mulatiere", "lat": 45.7281, "lng": 4.8122}, {"city": "Montlhery", "lat": 48.6386, "lng": 2.2722}, {"city": "Talange", "lat": 49.2367, "lng": 6.1744}, {"city": "Huningue", "lat": 47.5914, "lng": 7.5831}, {"city": "Sathonay-Camp", "lat": 45.8247, "lng": 4.8744}, {"city": "Le Port-Marly", "lat": 48.8792, "lng": 2.1097}, {"city": "Beuvrages", "lat": 50.3858, "lng": 3.5056}, {"city": "Guingamp", "lat": 48.5625, "lng": -3.1511}, {"city": "Grenay", "lat": 50.4522, "lng": 2.7431}, {"city": "Joeuf", "lat": 49.2297, "lng": 6.0089}, {"city": "Palavas-les-Flots", "lat": 43.5294, "lng": 3.9306}, {"city": "Esbly", "lat": 48.9031, "lng": 2.8125}, {"city": "Pont-de-Cheruy", "lat": 45.7506, "lng": 5.1731}, {"city": "Champagne-au-Mont-d'Or", "lat": 45.7947, "lng": 4.7908}, {"city": "Avignon", "lat": 43.95, "lng": 4.8075}, {"city": "Dunkerque", "lat": 51.0383, "lng": 2.3775}, {"city": "Beziers", "lat": 43.3476, "lng": 3.219}, {"city": "Merignac", "lat": 44.8386, "lng": -0.6436}, {"city": "Saint-Nazaire", "lat": 47.2806, "lng": -2.2086}, {"city": "Colmar", "lat": 48.0817, "lng": 7.3556}, {"city": "Valence", "lat": 44.9333, "lng": 4.8917}, {"city": "Pessac", "lat": 44.8067, "lng": -0.6311}, {"city": "Bourges", "lat": 47.0844, "lng": 2.3964}, {"city": "Quimper", "lat": 47.9967, "lng": -4.0964}, {"city": "Montauban", "lat": 44.0181, "lng": 1.3558}, {"city": "Niort", "lat": 46.3258, "lng": -0.4606}, {"city": "Beauvais", "lat": 49.4303, "lng": 2.0952}, {"city": "Narbonne", "lat": 43.1836, "lng": 3.0042}, {"city": "Hyeres", "lat": 43.1199, "lng": 6.1316}, {"city": "La Roche-sur-Yon", "lat": 46.6705, "lng": -1.426}, {"city": "Vannes", "lat": 47.6559, "lng": -2.7603}, {"city": "Cholet", "lat": 47.06, "lng": -0.8783}, {"city": "Frejus", "lat": 43.433, "lng": 6.737}, {"city": "Arles", "lat": 43.6767, "lng": 4.6278}, {"city": "Laval", "lat": 48.0733, "lng": -0.7689}, {"city": "Albi", "lat": 43.9289, "lng": 2.1464}, {"city": "Grasse", "lat": 43.6667, "lng": 6.9167}, {"city": "Martigues", "lat": 43.4053, "lng": 5.0475}, {"city": "Evreux", "lat": 49.02, "lng": 1.15}, {"city": "Saint-Priest", "lat": 45.6972, "lng": 4.9447}, {"city": "Aubagne", "lat": 43.2908, "lng": 5.5708}, {"city": "Saint-Herblain", "lat": 47.2122, "lng": -1.6497}, {"city": "Charleville-Mezieres", "lat": 49.7719, "lng": 4.7161}, {"city": "Saint-Malo", "lat": 48.6481, "lng": -2.0075}, {"city": "Brive-la-Gaillarde", "lat": 45.1583, "lng": 1.5321}, {"city": "Carcassonne", "lat": 43.21, "lng": 2.35}, {"city": "Blois", "lat": 47.5939, "lng": 1.3281}, {"city": "Salon-de-Provence", "lat": 43.6406, "lng": 5.0972}, {"city": "Chalons-en-Champagne", "lat": 48.9575, "lng": 4.365}, {"city": "Sete", "lat": 43.4053, "lng": 3.6975}, {"city": "Chateauroux", "lat": 46.8103, "lng": 1.6911}, {"city": "Istres", "lat": 43.5151, "lng": 4.9895}, {"city": "Angouleme", "lat": 45.65, "lng": 0.16}, {"city": "Bourg-en-Bresse", "lat": 46.2056, "lng": 5.2289}, {"city": "Ales", "lat": 44.1281, "lng": 4.0817}, {"city": "Castres", "lat": 43.6, "lng": 2.25}, {"city": "Saint-Germain-en-Laye", "lat": 48.8989, "lng": 2.0938}, {"city": "Compiegne", "lat": 49.4149, "lng": 2.8231}, {"city": "Thionville", "lat": 49.3589, "lng": 6.1692}, {"city": "Anglet", "lat": 43.485, "lng": -1.5183}, {"city": "Colomiers", "lat": 43.6139, "lng": 1.3367}, {"city": "Gap", "lat": 44.5594, "lng": 6.0786}, {"city": "Montelimar", "lat": 44.5581, "lng": 4.7508}, {"city": "Draguignan", "lat": 43.5403, "lng": 6.4667}, {"city": "Joue-les-Tours", "lat": 47.3514, "lng": 0.6625}, {"city": "Villenave-d'Ornon", "lat": 44.7806, "lng": -0.5658}, {"city": "Montlucon", "lat": 46.3408, "lng": 2.6033}, {"city": "La Ciotat", "lat": 43.1769, "lng": 5.6086}, {"city": "Saint-Raphael", "lat": 43.4252, "lng": 6.7684}, {"city": "Meyzieu", "lat": 45.7667, "lng": 5.0036}, {"city": "Saint-Chamond", "lat": 45.4775, "lng": 4.5153}, {"city": "Auxerre", "lat": 47.7986, "lng": 3.5672}, {"city": "Nevers", "lat": 46.9933, "lng": 3.1572}, {"city": "Macon", "lat": 46.3063, "lng": 4.8313}, {"city": "Haguenau", "lat": 48.82, "lng": 7.79}, {"city": "Six-Fours-les-Plages", "lat": 43.1009, "lng": 5.82}, {"city": "Cambrai", "lat": 50.1767, "lng": 3.2356}, {"city": "Marignane", "lat": 43.416, "lng": 5.2145}, {"city": "Romans-sur-Isere", "lat": 45.0464, "lng": 5.0517}, {"city": "Vitrolles", "lat": 43.46, "lng": 5.2486}, {"city": "Epinal", "lat": 48.1744, "lng": 6.4512}, {"city": "Plaisir", "lat": 48.8183, "lng": 1.9472}, {"city": "Chatellerault", "lat": 46.8178, "lng": 0.5461}, {"city": "Dreux", "lat": 48.7372, "lng": 1.3664}, {"city": "Saint-Medard-en-Jalles", "lat": 44.8964, "lng": -0.7164}, {"city": "Maubeuge", "lat": 50.2775, "lng": 3.9734}, {"city": "Vienne", "lat": 45.5242, "lng": 4.8781}, {"city": "Draveil", "lat": 48.6852, "lng": 2.408}, {"city": "Mont-de-Marsan", "lat": 43.89, "lng": -0.5}, {"city": "Decines-Charpieu", "lat": 45.7694, "lng": 4.9594}, {"city": "Saint-Etienne-du-Rouvray", "lat": 49.3786, "lng": 1.105}, {"city": "Bourgoin-Jallieu", "lat": 45.5861, "lng": 5.2736}, {"city": "Agde", "lat": 43.3108, "lng": 3.4758}, {"city": "Carpentras", "lat": 44.0558, "lng": 5.0489}, {"city": "Orange", "lat": 44.1383, "lng": 4.8097}, {"city": "Tournefeuille", "lat": 43.5853, "lng": 1.3442}, {"city": "Bretigny-sur-Orge", "lat": 48.6114, "lng": 2.3059}, {"city": "Illkirch-Graffenstaden", "lat": 48.53, "lng": 7.72}, {"city": "Orvault", "lat": 47.2717, "lng": -1.6225}, {"city": "Sens", "lat": 48.1975, "lng": 3.2877}, {"city": "Miramas", "lat": 43.5822, "lng": 5.0019}, {"city": "Rambouillet", "lat": 48.6444, "lng": 1.8308}, {"city": "Montbeliard", "lat": 47.51, "lng": 6.8}, {"city": "Lunel", "lat": 43.6769, "lng": 4.1353}, {"city": "Gonesse", "lat": 48.9875, "lng": 2.4494}, {"city": "Bergerac", "lat": 44.85, "lng": 0.48}, {"city": "Henin-Beaumont", "lat": 50.4217, "lng": 2.9508}, {"city": "Gradignan", "lat": 44.7725, "lng": -0.6156}, {"city": "La Garde", "lat": 43.1256, "lng": 6.0108}, {"city": "Saumur", "lat": 47.26, "lng": -0.0769}, {"city": "Cavaillon", "lat": 43.8375, "lng": 5.0381}, {"city": "Blagnac", "lat": 43.6364, "lng": 1.3906}, {"city": "Aurillac", "lat": 44.9261, "lng": 2.4406}, {"city": "La Teste-de-Buch", "lat": 44.62, "lng": -1.1457}, {"city": "Saint-Ouen-l'Aumone", "lat": 49.0447, "lng": 2.1111}, {"city": "Vierzon", "lat": 47.2225, "lng": 2.0694}, {"city": "Etampes", "lat": 48.4343, "lng": 2.1615}, {"city": "Vertou", "lat": 47.1689, "lng": -1.4697}, {"city": "Saintes", "lat": 45.7464, "lng": -0.6333}, {"city": "Libourne", "lat": 44.92, "lng": -0.24}, {"city": "La Valette-du-Var", "lat": 43.1383, "lng": 5.9831}, {"city": "Laon", "lat": 49.5639, "lng": 3.6244}, {"city": "Muret", "lat": 43.4611, "lng": 1.3267}, {"city": "Rochefort", "lat": 45.9421, "lng": -0.9588}, {"city": "Roissy-en-Brie", "lat": 48.7906, "lng": 2.6519}, {"city": "Vernon", "lat": 49.09, "lng": 1.49}, {"city": "Dole", "lat": 47.0931, "lng": 5.4906}, {"city": "Lanester", "lat": 47.7647, "lng": -3.3422}, {"city": "Saint-Dizier", "lat": 48.6383, "lng": 4.9497}, {"city": "Grande-Synthe", "lat": 51.0139, "lng": 2.3028}, {"city": "Castelnau-le-Lez", "lat": 43.6369, "lng": 3.9019}, {"city": "Abbeville", "lat": 50.1058, "lng": 1.8358}, {"city": "Frontignan", "lat": 43.4483, "lng": 3.7561}, {"city": "Combs-la-Ville", "lat": 48.67, "lng": 2.56}, {"city": "Epernay", "lat": 49.0403, "lng": 3.96}, {"city": "Gif-sur-Yvette", "lat": 48.7018, "lng": 2.1339}, {"city": "Olivet", "lat": 47.8639, "lng": 1.9006}, {"city": "Forbach", "lat": 49.19, "lng": 6.9}, {"city": "Oyonnax", "lat": 46.2561, "lng": 5.6556}, {"city": "Saint-Louis", "lat": 47.59, "lng": 7.57}, {"city": "Manosque", "lat": 43.8342, "lng": 5.7839}, {"city": "Seynod", "lat": 45.8889, "lng": 6.0961}, {"city": "Le Creusot", "lat": 46.8014, "lng": 4.4411}, {"city": "Annecy-le-Vieux", "lat": 45.9192, "lng": 6.1419}, {"city": "Saint-Genis-Laval", "lat": 45.696, "lng": 4.793}, {"city": "Saint-Jean-de-Braye", "lat": 47.9128, "lng": 1.9719}, {"city": "Mandelieu-la-Napoule", "lat": 43.5464, "lng": 6.9381}, {"city": "Auch", "lat": 43.6465, "lng": 0.5855}, {"city": "Fougeres", "lat": 48.3525, "lng": -1.1986}, {"city": "Halluin", "lat": 50.7836, "lng": 3.1256}, {"city": "Chaumont", "lat": 48.1117, "lng": 5.1389}, {"city": "Coueron", "lat": 47.2156, "lng": -1.7228}, {"city": "Villeneuve-sur-Lot", "lat": 44.4081, "lng": 0.705}, {"city": "Hazebrouck", "lat": 50.725, "lng": 2.5392}, {"city": "Gardanne", "lat": 43.4553, "lng": 5.476}, {"city": "Millau", "lat": 44.0986, "lng": 3.0783}, {"city": "Les Pennes-Mirabeau", "lat": 43.4106, "lng": 5.3103}, {"city": "Gujan-Mestras", "lat": 44.6364, "lng": -1.0667}, {"city": "Dax", "lat": 43.71, "lng": -1.05}, {"city": "Lisieux", "lat": 49.15, "lng": 0.23}, {"city": "Denain", "lat": 50.3286, "lng": 3.395}, {"city": "Sarreguemines", "lat": 49.11, "lng": 7.07}, {"city": "Ozoir-la-Ferriere", "lat": 48.778, "lng": 2.68}, {"city": "Beaune", "lat": 47.025, "lng": 4.8397}, {"city": "Givors", "lat": 45.5906, "lng": 4.7689}, {"city": "Allauch", "lat": 43.3369, "lng": 5.4828}, {"city": "Cournon-d'Auvergne", "lat": 45.7422, "lng": 3.1972}, {"city": "Challans", "lat": 46.8467, "lng": -1.8781}, {"city": "Voiron", "lat": 45.3642, "lng": 5.5906}, {"city": "Mitry-Mory", "lat": 48.9839, "lng": 2.6164}, {"city": "Bourg-les-Valence", "lat": 44.9475, "lng": 4.8953}, {"city": "Pertuis", "lat": 43.695, "lng": 5.5036}, {"city": "Hem", "lat": 50.6553, "lng": 3.1878}, {"city": "Lannion", "lat": 48.7325, "lng": -3.4553}, {"city": "Carquefou", "lat": 47.2969, "lng": -1.4928}, {"city": "Villefontaine", "lat": 45.6133, "lng": 5.1486}, {"city": "Albertville", "lat": 45.6758, "lng": 6.3925}, {"city": "Bouguenais", "lat": 47.1775, "lng": -1.6214}, {"city": "Mougins", "lat": 43.6, "lng": 6.9947}, {"city": "Cahors", "lat": 44.4475, "lng": 1.4406}, {"city": "Le Puy-en-Velay", "lat": 45.0433, "lng": 3.885}, {"city": "Saint-Die-des-Vosges", "lat": 48.2842, "lng": 6.9492}, {"city": "L'Isle-sur-la-Sorgue", "lat": 43.9194, "lng": 5.0514}, {"city": "La Chapelle-sur-Erdre", "lat": 47.2989, "lng": -1.5528}, {"city": "Concarneau", "lat": 47.8753, "lng": -3.9189}, {"city": "Saint-Lo", "lat": 49.1144, "lng": -1.0917}, {"city": "Bressuire", "lat": 46.84, "lng": -0.4886}, {"city": "Cognac", "lat": 45.6958, "lng": -0.3292}, {"city": "Selestat", "lat": 48.2594, "lng": 7.4542}, {"city": "Cugnaux", "lat": 43.5378, "lng": 1.3436}, {"city": "Riom", "lat": 45.8936, "lng": 3.1125}, {"city": "Bruges", "lat": 44.8828, "lng": -0.6125}, {"city": "Plaisance-du-Touch", "lat": 43.5656, "lng": 1.2964}, {"city": "Fecamp", "lat": 49.7575, "lng": 0.3792}, {"city": "Royan", "lat": 45.6231, "lng": -1.0431}, {"city": "Sorgues", "lat": 44.0083, "lng": 4.8725}, {"city": "Brie-Comte-Robert", "lat": 48.6925, "lng": 2.6111}, {"city": "Vence", "lat": 43.7225, "lng": 7.1119}, {"city": "Bruz", "lat": 48.0247, "lng": -1.7458}, {"city": "Moissy-Cramayel", "lat": 48.6261, "lng": 2.5922}, {"city": "Luneville", "lat": 48.5894, "lng": 6.5017}, {"city": "Louviers", "lat": 49.2153, "lng": 1.1656}, {"city": "La Crau", "lat": 43.1497, "lng": 6.0742}, {"city": "Montceau-les-Mines", "lat": 46.6669, "lng": 4.3689}, {"city": "Avion", "lat": 50.4097, "lng": 2.8328}, {"city": "Le Pontet", "lat": 43.9642, "lng": 4.86}, {"city": "Meylan", "lat": 45.2086, "lng": 5.7794}, {"city": "Osny", "lat": 49.0592, "lng": 2.0625}, {"city": "Vitre", "lat": 48.1233, "lng": -1.2094}, {"city": "Bagnols-sur-Ceze", "lat": 44.1625, "lng": 4.62}, {"city": "Limay", "lat": 48.9933, "lng": 1.7358}, {"city": "Cluses", "lat": 46.0603, "lng": 6.5786}, {"city": "Firminy", "lat": 45.3881, "lng": 4.2872}, {"city": "Boissy-Saint-Leger", "lat": 48.7503, "lng": 2.5097}, {"city": "Ploemeur", "lat": 47.7358, "lng": -3.4311}, {"city": "Carvin", "lat": 50.4931, "lng": 2.9581}, {"city": "Port-de-Bouc", "lat": 43.405, "lng": 4.9886}, {"city": "Chateauneuf-les-Martigues", "lat": 43.3831, "lng": 5.1642}, {"city": "L'Isle-d'Abeau", "lat": 45.6194, "lng": 5.2331}, {"city": "Marmande", "lat": 44.5, "lng": 0.1653}, {"city": "Cesson-Sevigne", "lat": 48.1208, "lng": -1.6036}, {"city": "Orsay", "lat": 48.6981, "lng": 2.1875}, {"city": "Yutz", "lat": 49.3589, "lng": 6.1886}, {"city": "Pontarlier", "lat": 46.9061, "lng": 6.3547}, {"city": "Verdun", "lat": 49.1597, "lng": 5.3828}, {"city": "Verneuil-sur-Seine", "lat": 48.9797, "lng": 1.9739}, {"city": "Brignoles", "lat": 43.4058, "lng": 6.0617}, {"city": "Sanary-sur-Mer", "lat": 43.1192, "lng": 5.8022}, {"city": "Balma", "lat": 43.6103, "lng": 1.4986}, {"city": "Lattes", "lat": 43.5678, "lng": 3.9021}, {"city": "Domont", "lat": 49.0275, "lng": 2.3267}, {"city": "Saint-Egreve", "lat": 45.2317, "lng": 5.6831}, {"city": "Ambares-et-Lagrave", "lat": 44.9247, "lng": -0.4867}, {"city": "Elbeuf", "lat": 49.2858, "lng": 1.0083}, {"city": "Hayange", "lat": 49.3297, "lng": 6.0619}, {"city": "Sedan", "lat": 49.7019, "lng": 4.9403}, {"city": "Saran", "lat": 47.9514, "lng": 1.8803}, {"city": "Saint-Cyr-sur-Loire", "lat": 47.4028, "lng": 0.6781}, {"city": "Saint-Pierre-des-Corps", "lat": 47.3908, "lng": 0.7281}, {"city": "Landerneau", "lat": 48.4508, "lng": -4.2494}, {"city": "Cestas", "lat": 44.7444, "lng": -0.6822}, {"city": "Mauguio", "lat": 43.6164, "lng": 4.0075}, {"city": "Annonay", "lat": 45.24, "lng": 4.6708}, {"city": "Saint-Julien-en-Genevois", "lat": 46.1442, "lng": 6.0842}, {"city": "Tourlaville", "lat": 49.6408, "lng": -1.5789}, {"city": "Sin-le-Noble", "lat": 50.3631, "lng": 3.1131}, {"city": "Escoublac", "lat": 47.2858, "lng": -2.3922}, {"city": "Saint-Maximin-la-Sainte-Baume", "lat": 43.4533, "lng": 5.8619}, {"city": "Vendome", "lat": 47.7928, "lng": 1.0656}, {"city": "Sallanches", "lat": 45.9364, "lng": 6.6319}, {"city": "Hennebont", "lat": 47.8042, "lng": -3.2789}, {"city": "Illzach", "lat": 47.7822, "lng": 7.3481}, {"city": "Vesoul", "lat": 47.6222, "lng": 6.1553}, {"city": "Montbrison", "lat": 45.6075, "lng": 4.0653}, {"city": "Villeneuve-Loubet", "lat": 43.6581, "lng": 7.1214}, {"city": "Sainte-Luce-sur-Loire", "lat": 47.2494, "lng": -1.4867}, {"city": "Saint-Amand-les-Eaux", "lat": 50.4481, "lng": 3.4269}, {"city": "Digne-les-Bains", "lat": 44.0925, "lng": 6.2356}, {"city": "Chateaurenard", "lat": 43.8825, "lng": 4.855}, {"city": "Verrieres-le-Buisson", "lat": 48.7475, "lng": 2.2628}, {"city": "Francheville", "lat": 45.7364, "lng": 4.7636}, {"city": "Montivilliers", "lat": 49.5461, "lng": 0.1881}, {"city": "Les Herbiers", "lat": 46.8711, "lng": -1.0136}, {"city": "Guerande", "lat": 47.3281, "lng": -2.4292}, {"city": "Rumilly", "lat": 45.8667, "lng": 5.9444}, {"city": "Chateau-Thierry", "lat": 49.0464, "lng": 3.4031}, {"city": "Les Sables-d'Olonne", "lat": 46.4972, "lng": -1.7833}, {"city": "Chenove", "lat": 47.2911, "lng": 5.0072}, {"city": "Coulommiers", "lat": 48.8156, "lng": 3.0836}, {"city": "Saint-Avertin", "lat": 47.3667, "lng": 0.7267}, {"city": "Villers-les-Nancy", "lat": 48.6731, "lng": 6.1547}, {"city": "Mennecy", "lat": 48.5653, "lng": 2.4361}, {"city": "Issoire", "lat": 45.5442, "lng": 3.2489}, {"city": "Toul", "lat": 48.675, "lng": 5.8917}, {"city": "Blanquefort", "lat": 44.9106, "lng": -0.6375}, {"city": "Trelaze", "lat": 47.4461, "lng": -0.4664}, {"city": "Pamiers", "lat": 43.1164, "lng": 1.6108}, {"city": "Bois-Guillaume", "lat": 49.47, "lng": 1.1194}, {"city": "Dinan", "lat": 48.4556, "lng": -2.0503}, {"city": "Beaucaire", "lat": 43.8072, "lng": 4.6433}, {"city": "Saint-Avold", "lat": 49.1042, "lng": 6.7081}, {"city": "Hautmont", "lat": 50.2481, "lng": 3.9244}, {"city": "Fos-sur-Mer", "lat": 43.4544, "lng": 4.9436}, {"city": "Pornic", "lat": 47.1156, "lng": -2.1033}, {"city": "Crepy-en-Valois", "lat": 49.2344, "lng": 2.8875}, {"city": "Gaillac", "lat": 43.9006, "lng": 1.8983}, {"city": "Saint-Omer", "lat": 50.7483, "lng": 2.2608}, {"city": "Caudry", "lat": 50.125, "lng": 3.4117}, {"city": "Senlis", "lat": 49.2072, "lng": 2.5867}, {"city": "Fontainebleau", "lat": 48.4089, "lng": 2.7017}, {"city": "Castanet-Tolosan", "lat": 43.5156, "lng": 1.4981}, {"city": "Outreau", "lat": 50.7039, "lng": 1.5939}, {"city": "Pontivy", "lat": 48.0686, "lng": -2.9628}, {"city": "Flers", "lat": 48.7483, "lng": -0.5694}, {"city": "Bouc-Bel-Air", "lat": 43.4544, "lng": 5.4144}, {"city": "Saint-Rambert", "lat": 45.4994, "lng": 4.24}, {"city": "Tarascon", "lat": 43.805, "lng": 4.6594}, {"city": "Olonne-sur-Mer", "lat": 46.5361, "lng": -1.7728}, {"city": "Fameck", "lat": 49.2992, "lng": 6.1097}, {"city": "Bailleul", "lat": 50.7375, "lng": 2.7339}, {"city": "Bar-le-Duc", "lat": 48.7717, "lng": 5.1672}, {"city": "Morlaix", "lat": 48.5775, "lng": -3.8278}, {"city": "Tulle", "lat": 45.2658, "lng": 1.7722}, {"city": "Wittenheim", "lat": 47.8075, "lng": 7.3369}, {"city": "Kingersheim", "lat": 47.7914, "lng": 7.3381}, {"city": "Meru", "lat": 49.2358, "lng": 2.135}, {"city": "Laxou", "lat": 48.6856, "lng": 6.1522}, {"city": "Guipavas", "lat": 48.4336, "lng": -4.4008}, {"city": "La Fleche", "lat": 47.6997, "lng": -0.0761}, {"city": "Pont-a-Mousson", "lat": 48.9044, "lng": 6.0542}, {"city": "Thouars", "lat": 46.975, "lng": -0.2153}, {"city": "Canteleu", "lat": 49.4511, "lng": 1.0361}, {"city": "Andresy", "lat": 48.9808, "lng": 2.0583}, {"city": "Saint-Fargeau", "lat": 48.5328, "lng": 2.5447}, {"city": "Woippy", "lat": 49.1511, "lng": 6.1514}, {"city": "Avrille", "lat": 47.5069, "lng": -0.5889}, {"city": "Saint-Jean-de-Luz", "lat": 43.3903, "lng": -1.6597}, {"city": "Lons", "lat": 43.315, "lng": -0.4108}, {"city": "Romilly-sur-Seine", "lat": 48.5158, "lng": 3.7267}, {"city": "Chateau-d'Olonne", "lat": 46.5042, "lng": -1.7372}, {"city": "Audincourt", "lat": 47.4828, "lng": 6.8397}, {"city": "Bayeux", "lat": 49.2786, "lng": -0.7039}, {"city": "Saint-Brevin-les-Pins", "lat": 47.2464, "lng": -2.1669}, {"city": "Mions", "lat": 45.6631, "lng": 4.9531}, {"city": "Rixheim", "lat": 47.7486, "lng": 7.4044}, {"city": "Amberieu-en-Bugey", "lat": 45.9581, "lng": 5.3578}, {"city": "Roquebrune-sur-Argens", "lat": 43.4433, "lng": 6.6378}, {"city": "Montataire", "lat": 49.2556, "lng": 2.4383}, {"city": "Berck-sur-Mer", "lat": 50.4083, "lng": 1.5928}, {"city": "Saint-Jacques-de-la-Lande", "lat": 48.0903, "lng": -1.6956}, {"city": "Plerin", "lat": 48.5344, "lng": -2.7708}, {"city": "Roncq", "lat": 50.7536, "lng": 3.1203}, {"city": "Saint-Genis-Pouilly", "lat": 46.2433, "lng": 6.0214}, {"city": "Douarnenez", "lat": 48.0922, "lng": -4.3303}, {"city": "Lieusaint", "lat": 48.6322, "lng": 2.5486}, {"city": "Argentan", "lat": 48.7444, "lng": -0.0203}, {"city": "Riedisheim", "lat": 47.7483, "lng": 7.3669}, {"city": "Ollioules", "lat": 43.1394, "lng": 5.8469}, {"city": "Sainte-Maxime", "lat": 43.3089, "lng": 6.6378}, {"city": "Ostwald", "lat": 48.5511, "lng": 7.7136}, {"city": "Tergnier", "lat": 49.6558, "lng": 3.2872}, {"city": "Castelsarrasin", "lat": 44.04, "lng": 1.1069}, {"city": "Biscarrosse", "lat": 44.3931, "lng": -1.1639}, {"city": "Noyon", "lat": 49.5811, "lng": 2.9989}, {"city": "Valbonne", "lat": 43.6414, "lng": 7.0089}, {"city": "Gien", "lat": 47.6981, "lng": 2.625}, {"city": "Saint-Gilles", "lat": 43.6778, "lng": 4.4311}, {"city": "Granville", "lat": 48.8381, "lng": -1.5869}, {"city": "Berre-l'Etang", "lat": 43.4756, "lng": 5.1681}, {"city": "Chalette-sur-Loing", "lat": 48.0117, "lng": 2.7358}, {"city": "Bollene", "lat": 44.2803, "lng": 4.7489}, {"city": "Pierrelatte", "lat": 44.3775, "lng": 4.6961}, {"city": "Bully-les-Mines", "lat": 50.4419, "lng": 2.7244}, {"city": "Fontenay-le-Comte", "lat": 46.4669, "lng": -0.8064}, {"city": "Saint-Paul-les-Dax", "lat": 43.7256, "lng": -1.0528}, {"city": "Saint-Martin-de-Crau", "lat": 43.6397, "lng": 4.8125}, {"city": "Plougastel-Daoulas", "lat": 48.3725, "lng": -4.3706}, {"city": "Marly", "lat": 50.3489, "lng": 3.5442}, {"city": "Genas", "lat": 45.7314, "lng": 5.0022}, {"city": "Lourdes", "lat": 43.095, "lng": -0.0453}, {"city": "Vitry-le-Francois", "lat": 48.7247, "lng": 4.5844}, {"city": "Creutzwald", "lat": 49.2053, "lng": 6.6958}, {"city": "Vernouillet", "lat": 48.7208, "lng": 1.3606}, {"city": "Chateaudun", "lat": 48.0708, "lng": 1.3378}, {"city": "Mayenne", "lat": 48.3031, "lng": -0.6136}, {"city": "Gex", "lat": 46.3333, "lng": 6.0578}, {"city": "Saint-Orens-de-Gameville", "lat": 43.5514, "lng": 1.5342}, {"city": "Harnes", "lat": 50.445, "lng": 2.9058}, {"city": "Les Ponts-de-Ce", "lat": 47.4244, "lng": -0.5253}, {"city": "Pont-Sainte-Maxence", "lat": 49.3011, "lng": 2.6036}, {"city": "Le Relecq-Kerhuon", "lat": 48.4086, "lng": -4.3969}, {"city": "Amilly", "lat": 47.9731, "lng": 2.7703}, {"city": "Nemours", "lat": 48.2686, "lng": 2.6936}, {"city": "Gueret", "lat": 46.1706, "lng": 1.8683}, {"city": "Autun", "lat": 46.9511, "lng": 4.2986}, {"city": "Plouzane", "lat": 48.38, "lng": -4.6006}, {"city": "Moissac", "lat": 44.1047, "lng": 1.0853}, {"city": "Bischwiller", "lat": 48.7664, "lng": 7.8569}, {"city": "Aubergenville", "lat": 48.9583, "lng": 1.855}, {"city": "Carros", "lat": 43.7725, "lng": 7.1933}, {"city": "Comines", "lat": 50.7611, "lng": 3.0078}, {"city": "La Queue-en-Brie", "lat": 48.7894, "lng": 2.5767}, {"city": "Monteux", "lat": 44.0356, "lng": 4.9972}, {"city": "Somain", "lat": 50.3575, "lng": 3.2803}, {"city": "Yzeure", "lat": 46.5658, "lng": 3.3544}, {"city": "Yvetot", "lat": 49.6169, "lng": 0.7531}, {"city": "Barentin", "lat": 49.5444, "lng": 0.9536}, {"city": "L'Union", "lat": 43.6564, "lng": 1.4844}, {"city": "Noeux-les-Mines", "lat": 50.4797, "lng": 2.6647}, {"city": "Seclin", "lat": 50.5483, "lng": 3.0294}, {"city": "Aubenas", "lat": 44.6197, "lng": 4.3903}, {"city": "Villecresnes", "lat": 48.7214, "lng": 2.5342}, {"city": "Arcachon", "lat": 44.6586, "lng": -1.1689}, {"city": "Sarrebourg", "lat": 48.7347, "lng": 7.0539}, {"city": "Cusset", "lat": 46.1344, "lng": 3.4564}, {"city": "Claye-Souilly", "lat": 48.945, "lng": 2.6867}, {"city": "Auriol", "lat": 43.3694, "lng": 5.6314}, {"city": "La Chapelle-Saint-Luc", "lat": 48.3119, "lng": 4.0444}, {"city": "Bonneville", "lat": 46.0789, "lng": 6.4008}, {"city": "Graulhet", "lat": 43.7608, "lng": 1.9886}, {"city": "Amboise", "lat": 47.4114, "lng": 0.9825}, {"city": "Bruay-sur-l'Escaut", "lat": 50.3983, "lng": 3.5394}, {"city": "Tarnos", "lat": 43.5406, "lng": -1.4614}, {"city": "Triel-sur-Seine", "lat": 48.9808, "lng": 2.0061}, {"city": "Le Chambon-Feugerolles", "lat": 45.3961, "lng": 4.325}, {"city": "Mericourt", "lat": 50.4022, "lng": 2.8658}, {"city": "Ifs", "lat": 49.1383, "lng": -0.3531}, {"city": "Raismes", "lat": 50.3892, "lng": 3.4858}, {"city": "Plan-de-Cuques", "lat": 43.3469, "lng": 5.4631}, {"city": "Brignais", "lat": 45.6739, "lng": 4.7542}, {"city": "Provins", "lat": 48.5589, "lng": 3.2994}, {"city": "Maizieres-les-Metz", "lat": 49.2122, "lng": 6.1611}, {"city": "L'Isle-Adam", "lat": 49.1111, "lng": 2.2228}, {"city": "Rognac", "lat": 43.4878, "lng": 5.2322}, {"city": "Saint-Jean", "lat": 43.6653, "lng": 1.505}, {"city": "Florange", "lat": 49.3214, "lng": 6.1183}, {"city": "Lamballe", "lat": 48.4686, "lng": -2.5178}, {"city": "Canet-en-Roussillon", "lat": 42.7056, "lng": 3.0072}, {"city": "Andernos-les-Bains", "lat": 44.7425, "lng": -1.0903}, {"city": "Saint-Esteve", "lat": 42.7133, "lng": 2.8419}, {"city": "Fonsorbes", "lat": 43.5361, "lng": 1.2311}, {"city": "Chauny", "lat": 49.6156, "lng": 3.2192}, {"city": "Oissel", "lat": 49.3419, "lng": 1.0914}, {"city": "Saint-Germain-les-Arpajon", "lat": 48.5953, "lng": 2.2556}, {"city": "Quimperle", "lat": 47.8728, "lng": -3.5497}, {"city": "Saint-Andre-de-Cubzac", "lat": 44.9947, "lng": -0.4458}, {"city": "Le Haillan", "lat": 44.8717, "lng": -0.6769}, {"city": "Mende", "lat": 44.5183, "lng": 3.5006}, {"city": "Bolbec", "lat": 49.5722, "lng": 0.4725}, {"city": "Le Pont-de-Claix", "lat": 45.1231, "lng": 5.6981}, {"city": "Sable-sur-Sarthe", "lat": 47.84, "lng": -0.3342}, {"city": "Betton", "lat": 48.1825, "lng": -1.6439}, {"city": "Villeneuve-les-Avignon", "lat": 43.9664, "lng": 4.7958}, {"city": "Juvignac", "lat": 43.6131, "lng": 3.8097}, {"city": "Gisors", "lat": 49.2806, "lng": 1.7764}, {"city": "Chateaubriant", "lat": 47.7169, "lng": -1.3761}, {"city": "Meze", "lat": 43.4267, "lng": 3.6053}, {"city": "Pont-du-Chateau", "lat": 45.7983, "lng": 3.2483}, {"city": "Chambray-les-Tours", "lat": 47.3375, "lng": 0.7139}, {"city": "Vidauban", "lat": 43.4272, "lng": 6.4319}, {"city": "La Motte-Servolex", "lat": 45.5967, "lng": 5.8775}, {"city": "Saint-Saulve", "lat": 50.3697, "lng": 3.5547}, {"city": "Thorigny-sur-Marne", "lat": 48.8788, "lng": 2.7075}, {"city": "Saint-Ave", "lat": 47.6867, "lng": -2.7344}, {"city": "Chateau-Gontier", "lat": 47.8286, "lng": -0.7028}, {"city": "Fourmies", "lat": 50.0172, "lng": 4.0533}, {"city": "Castelnaudary", "lat": 43.3181, "lng": 1.9539}, {"city": "Bellegarde-sur-Valserine", "lat": 46.1075, "lng": 5.8258}, {"city": "Pace", "lat": 48.1478, "lng": -1.7739}, {"city": "Guebwiller", "lat": 47.9075, "lng": 7.2103}, {"city": "Cesson", "lat": 48.5658, "lng": 2.6011}, {"city": "Sollies-Pont", "lat": 43.19, "lng": 6.0411}, {"city": "Aubiere", "lat": 45.7508, "lng": 3.1108}, {"city": "Auchel", "lat": 50.5083, "lng": 2.4736}, {"city": "Saint-Cyr-sur-Mer", "lat": 43.1836, "lng": 5.7086}, {"city": "Vedene", "lat": 43.9775, "lng": 4.9031}, {"city": "Sassenage", "lat": 45.205, "lng": 5.665}, {"city": "Chevigny-Saint-Sauveur", "lat": 47.3017, "lng": 5.1356}, {"city": "Saint-Martin-Boulogne", "lat": 50.7258, "lng": 1.6322}, {"city": "Castelginest", "lat": 43.6936, "lng": 1.4328}, {"city": "Corbas", "lat": 45.6681, "lng": 4.9019}, {"city": "Thiers", "lat": 45.8564, "lng": 3.5475}, {"city": "Villefranche-de-Rouergue", "lat": 44.3525, "lng": 2.0342}, {"city": "Valentigney", "lat": 47.4625, "lng": 6.8322}, {"city": "Villepreux", "lat": 48.83, "lng": 2.0022}, {"city": "Saint-Gaudens", "lat": 43.1081, "lng": 0.7233}, {"city": "Mainvilliers", "lat": 48.4531, "lng": 1.4619}, {"city": "Longuenesse", "lat": 50.7356, "lng": 2.2372}, {"city": "Issoudun", "lat": 46.9481, "lng": 1.9933}, {"city": "Cogolin", "lat": 43.2525, "lng": 6.53}, {"city": "Villebon-sur-Yvette", "lat": 48.7, "lng": 2.2278}, {"city": "Cernay", "lat": 47.8067, "lng": 7.1758}, {"city": "Villeneuve-Tolosane", "lat": 43.5236, "lng": 1.3417}, {"city": "Onet Village", "lat": 44.3656, "lng": 2.5936}, {"city": "Clermont", "lat": 49.3789, "lng": 2.4125}, {"city": "Vaux-le-Penil", "lat": 48.5264, "lng": 2.6822}, {"city": "Ploufragan", "lat": 48.4894, "lng": -2.7958}, {"city": "Neuville-en-Ferrain", "lat": 50.7467, "lng": 3.1581}, {"city": "Guidel", "lat": 47.7906, "lng": -3.4886}, {"city": "Saint-Pierre-du-Perray", "lat": 48.6131, "lng": 2.4953}, {"city": "Porto-Vecchio", "lat": 41.5908, "lng": 9.2797}, {"city": "Pornichet", "lat": 47.2658, "lng": -2.34}, {"city": "La Roche-sur-Foron", "lat": 46.0669, "lng": 6.3119}, {"city": "Obernai", "lat": 48.4622, "lng": 7.4819}, {"city": "Cuers", "lat": 43.2375, "lng": 6.0708}, {"city": "Sainte-Savine", "lat": 48.2947, "lng": 4.0489}, {"city": "Etaples", "lat": 50.5178, "lng": 1.6406}, {"city": "Courrieres", "lat": 50.4581, "lng": 2.9472}, {"city": "Darnetal", "lat": 49.4447, "lng": 1.1511}, {"city": "Vauvert", "lat": 43.6933, "lng": 4.2761}, {"city": "Saverne", "lat": 48.7414, "lng": 7.3619}, {"city": "Aniche", "lat": 50.33, "lng": 3.2511}, {"city": "Allonnes", "lat": 47.9686, "lng": 0.1606}, {"city": "Chantilly", "lat": 49.1869, "lng": 2.4608}, {"city": "Septemes-les-Vallons", "lat": 43.3983, "lng": 5.3658}, {"city": "Annoeullin", "lat": 50.5294, "lng": 2.9328}, {"city": "Vernouillet", "lat": 48.9722, "lng": 1.9833}, {"city": "Oignies", "lat": 50.4692, "lng": 2.9936}, {"city": "Gravelines", "lat": 50.9864, "lng": 2.1275}, {"city": "La Riche", "lat": 47.3892, "lng": 0.6606}, {"city": "Ezanville", "lat": 49.0278, "lng": 2.3608}, {"city": "Wambrechies", "lat": 50.6853, "lng": 3.0486}, {"city": "Lezignan-Corbieres", "lat": 43.2006, "lng": 2.7578}, {"city": "Saint-Cyprien", "lat": 42.6181, "lng": 3.0064}, {"city": "Panazol", "lat": 45.8389, "lng": 1.31}, {"city": "Amneville", "lat": 49.2608, "lng": 6.1419}, {"city": "Pfastatt", "lat": 47.7689, "lng": 7.3017}, {"city": "Briancon", "lat": 44.8958, "lng": 6.635}, {"city": "Maxeville", "lat": 48.7114, "lng": 6.1631}, {"city": "Saint-Junien", "lat": 45.8872, "lng": 0.9011}, {"city": "Riorges", "lat": 46.0428, "lng": 4.0406}, {"city": "Dinard", "lat": 48.6325, "lng": -2.0617}, {"city": "Douchy-les-Mines", "lat": 50.3014, "lng": 3.3933}, {"city": "Saint-Hilaire-de-Riez", "lat": 46.7211, "lng": -1.9456}, {"city": "Chassieu", "lat": 45.7444, "lng": 4.9664}, {"city": "Portes-les-Valence", "lat": 44.8733, "lng": 4.8764}, {"city": "Louvres", "lat": 49.0439, "lng": 2.5053}, {"city": "Grigny", "lat": 45.6083, "lng": 4.7897}, {"city": "La Chapelle-Saint-Mesmin", "lat": 47.8897, "lng": 1.8397}, {"city": "Tarare", "lat": 45.8961, "lng": 4.4331}, {"city": "Passy", "lat": 45.9236, "lng": 6.6864}, {"city": "Dammartin-en-Goele", "lat": 49.0542, "lng": 2.6814}, {"city": "Chantepie", "lat": 48.0886, "lng": -1.6164}, {"city": "Villerupt", "lat": 49.4697, "lng": 5.9286}, {"city": "Vieux-Conde", "lat": 50.4594, "lng": 3.5683}, {"city": "Le Pradet", "lat": 43.1056, "lng": 6.0233}, {"city": "Montlouis-sur-Loire", "lat": 47.3883, "lng": 0.8272}, {"city": "Saint-Jean-de-Vedas", "lat": 43.5764, "lng": 3.8239}, {"city": "Beaumont-sur-Oise", "lat": 49.1425, "lng": 2.2864}, {"city": "Apt", "lat": 43.8761, "lng": 5.3964}, {"city": "Le Luc", "lat": 43.3947, "lng": 6.3128}, {"city": "Vire", "lat": 48.8386, "lng": -0.8892}, {"city": "Jeumont", "lat": 50.2944, "lng": 4.1014}, {"city": "Cabestany", "lat": 42.6806, "lng": 2.9428}, {"city": "Bondoufle", "lat": 48.6133, "lng": 2.3806}, {"city": "Hericourt", "lat": 47.5775, "lng": 6.7617}, {"city": "Buxerolles", "lat": 46.5975, "lng": 0.3492}, {"city": "Leers", "lat": 50.6817, "lng": 3.2439}, {"city": "Parthenay", "lat": 46.6486, "lng": -0.2469}, {"city": "Biganos", "lat": 44.6442, "lng": -0.9783}, {"city": "Tournon-sur-Rhone", "lat": 45.0672, "lng": 4.8328}, {"city": "Marly", "lat": 49.0611, "lng": 6.1497}, {"city": "Guilherand", "lat": 44.9344, "lng": 4.8747}, {"city": "Thouare-sur-Loire", "lat": 47.2689, "lng": -1.4383}, {"city": "Marck", "lat": 50.9481, "lng": 1.9503}, {"city": "Mondeville", "lat": 49.1739, "lng": -0.3211}, {"city": "Saint-Laurent-de-la-Salanque", "lat": 42.7736, "lng": 2.9908}, {"city": "Chambly", "lat": 49.1667, "lng": 2.2481}, {"city": "Pontchateau", "lat": 47.4369, "lng": -2.0878}, {"city": "Pont-Saint-Esprit", "lat": 44.2564, "lng": 4.6483}, {"city": "Gerzat", "lat": 45.8258, "lng": 3.1447}, {"city": "Pelissanne", "lat": 43.6314, "lng": 5.1506}, {"city": "Villers-Cotterets", "lat": 49.2531, "lng": 3.0903}, {"city": "Hagondange", "lat": 49.2542, "lng": 6.1681}, {"city": "Erstein", "lat": 48.4219, "lng": 7.6611}, {"city": "Ville-la-Grand", "lat": 46.2022, "lng": 6.2469}, {"city": "Le Cres", "lat": 43.6472, "lng": 3.9392}, {"city": "Feyzin", "lat": 45.6728, "lng": 4.8589}, {"city": "Dourdan", "lat": 48.5289, "lng": 2.0108}, {"city": "Serris", "lat": 48.8564, "lng": 2.7861}, {"city": "Lavaur", "lat": 43.6989, "lng": 1.8189}, {"city": "Fontaine-les-Dijon", "lat": 47.3433, "lng": 5.0192}, {"city": "Mery-sur-Oise", "lat": 49.0636, "lng": 2.1864}, {"city": "Le Taillan-Medoc", "lat": 44.9044, "lng": -0.6697}, {"city": "Oloron-Sainte-Marie", "lat": 43.1942, "lng": -0.6067}, {"city": "Magny-le-Hongre", "lat": 48.8631, "lng": 2.8136}, {"city": "Wittelsheim", "lat": 47.8053, "lng": 7.2375}, {"city": "Octeville", "lat": 49.6269, "lng": -1.6431}, {"city": "Quincy-sous-Senart", "lat": 48.6711, "lng": 2.5339}, {"city": "Orthez", "lat": 43.4881, "lng": -0.7708}, {"city": "Bourg-de-Peage", "lat": 45.0378, "lng": 5.05}, {"city": "Bondues", "lat": 50.7017, "lng": 3.0933}, {"city": "Leognan", "lat": 44.7286, "lng": -0.6008}, {"city": "Gignac-la-Nerthe", "lat": 43.3932, "lng": 5.2356}, {"city": "Fondettes", "lat": 47.4042, "lng": 0.5989}, {"city": "Rombas", "lat": 49.2494, "lng": 6.0947}, {"city": "La Trinite", "lat": 43.7408, "lng": 7.3142}, {"city": "Trets", "lat": 43.4469, "lng": 5.6858}, {"city": "Mouans-Sartoux", "lat": 43.62, "lng": 6.9719}, {"city": "Urrugne", "lat": 43.3622, "lng": -1.7}, {"city": "Villeneuve-les-Maguelone", "lat": 43.5322, "lng": 3.8608}, {"city": "Escaudain", "lat": 50.3344, "lng": 3.3428}, {"city": "Saint-Gely-du-Fesc", "lat": 43.6922, "lng": 3.8061}, {"city": "Dombasle-sur-Meurthe", "lat": 48.625, "lng": 6.3497}, {"city": "Argeles-sur-Mer", "lat": 42.5461, "lng": 3.0239}, {"city": "La Ferte-sous-Jouarre", "lat": 48.9492, "lng": 3.1294}, {"city": "Albert", "lat": 50.0019, "lng": 2.6522}, {"city": "La Londe-les-Maures", "lat": 43.1381, "lng": 6.2344}, {"city": "Perols", "lat": 43.565, "lng": 3.9506}, {"city": "Fuveau", "lat": 43.4522, "lng": 5.5617}, {"city": "Mios", "lat": 44.605, "lng": -0.9369}, {"city": "La Farlede", "lat": 43.1678, "lng": 6.0431}, {"city": "Tomblaine", "lat": 48.6856, "lng": 6.2117}, {"city": "Miribel", "lat": 45.8244, "lng": 4.9531}, {"city": "Limoux", "lat": 43.0569, "lng": 2.2186}, {"city": "Portet-sur-Garonne", "lat": 43.5219, "lng": 1.4061}, {"city": "Quetigny", "lat": 47.3144, "lng": 5.1061}, {"city": "Harfleur", "lat": 49.5067, "lng": 0.1981}, {"city": "Roche-la-Moliere", "lat": 45.4339, "lng": 4.3236}, {"city": "Biot", "lat": 43.6286, "lng": 7.0956}, {"city": "Bernay", "lat": 49.0886, "lng": 0.5983}, {"city": "Essey-les-Nancy", "lat": 48.7058, "lng": 6.2222}, {"city": "Saint-Gregoire", "lat": 48.1511, "lng": -1.6861}, {"city": "Carmaux", "lat": 44.0492, "lng": 2.1581}, {"city": "Frouzins", "lat": 43.5161, "lng": 1.3247}, {"city": "Brumath", "lat": 48.7319, "lng": 7.7083}, {"city": "Soyaux", "lat": 45.6403, "lng": 0.1978}, {"city": "Rouvroy", "lat": 50.3936, "lng": 2.9039}, {"city": "Grand-Couronne", "lat": 49.3575, "lng": 1.0072}, {"city": "Lillers", "lat": 50.5636, "lng": 2.4819}, {"city": "Vetraz-Monthoux", "lat": 46.1742, "lng": 6.255}, {"city": "Wingles", "lat": 50.4942, "lng": 2.8553}, {"city": "Pithiviers", "lat": 48.1719, "lng": 2.2519}, {"city": "Launaguet", "lat": 43.6739, "lng": 1.4569}, {"city": "Carqueiranne", "lat": 43.095, "lng": 6.0736}, {"city": "Molsheim", "lat": 48.5428, "lng": 7.4922}, {"city": "Le Passage", "lat": 44.2014, "lng": 0.6033}, {"city": "Ouistreham", "lat": 49.2792, "lng": -0.2583}, {"city": "Mazamet", "lat": 43.4917, "lng": 2.3733}, {"city": "Pernes-les-Fontaines", "lat": 43.9978, "lng": 5.0592}, {"city": "Saint-Loubes", "lat": 44.9172, "lng": -0.4281}, {"city": "Auterive", "lat": 43.3503, "lng": 1.4747}, {"city": "Conde-sur-l'Escaut", "lat": 50.4492, "lng": 3.5906}, {"city": "Cabries", "lat": 43.4411, "lng": 5.3797}, {"city": "Lescar", "lat": 43.325, "lng": -0.4161}, {"city": "Arques", "lat": 50.7356, "lng": 2.3025}, {"city": "Divonne-les-Bains", "lat": 46.3567, "lng": 6.1428}, {"city": "Aire-sur-la-Lys", "lat": 50.6386, "lng": 2.3967}, {"city": "Le Beausset", "lat": 43.1983, "lng": 5.8028}, {"city": "Figeac", "lat": 44.6086, "lng": 2.0317}, {"city": "Nogent-le-Rotrou", "lat": 48.3217, "lng": 0.8217}, {"city": "Saint-Amand-Montrond", "lat": 46.7228, "lng": 2.505}, {"city": "Saint-Pierre-du-Mont", "lat": 43.8825, "lng": -0.5194}, {"city": "Mont-Saint-Martin", "lat": 49.5406, "lng": 5.7794}, {"city": "Blain", "lat": 47.4761, "lng": -1.7636}, {"city": "Fouesnant", "lat": 47.8933, "lng": -4.0122}, {"city": "Saint-Jean-le-Blanc", "lat": 47.8919, "lng": 1.9172}, {"city": "Aytre", "lat": 46.1342, "lng": -1.1144}, {"city": "Ploermel", "lat": 47.9317, "lng": -2.3975}, {"city": "Merville", "lat": 50.6439, "lng": 2.6403}, {"city": "Lambesc", "lat": 43.6539, "lng": 5.2619}, {"city": "Boucau", "lat": 43.5236, "lng": -1.4867}, {"city": "Saint-Doulchard", "lat": 47.0997, "lng": 2.3728}, {"city": "Foix", "lat": 42.9653, "lng": 1.6069}, {"city": "Saint-Remy-de-Provence", "lat": 43.7894, "lng": 4.8317}, {"city": "Saint-Lys", "lat": 43.5142, "lng": 1.1775}, {"city": "Pia", "lat": 42.7447, "lng": 2.9208}, {"city": "Cosne sur Loire", "lat": 47.4103, "lng": 2.925}, {"city": "Magny-les-Hameaux", "lat": 48.7239, "lng": 2.0842}, {"city": "Beuvry", "lat": 50.5197, "lng": 2.6794}, {"city": "Revel", "lat": 43.4586, "lng": 2.0042}, {"city": "Lucon", "lat": 46.4547, "lng": -1.1658}, {"city": "Pierrelaye", "lat": 49.0225, "lng": 2.1503}, {"city": "La Salvetat-Saint-Gilles", "lat": 43.5761, "lng": 1.2714}, {"city": "La Tour-du-Pin", "lat": 45.5658, "lng": 5.445}, {"city": "Veauche", "lat": 45.5619, "lng": 4.2781}, {"city": "Artigues-pres-Bordeaux", "lat": 44.8606, "lng": -0.4936}, {"city": "Saint-Barthelemy-d'Anjou", "lat": 47.4675, "lng": -0.495}, {"city": "Aizenay", "lat": 46.74, "lng": -1.6083}, {"city": "Margny-les-Compiegne", "lat": 49.4261, "lng": 2.8208}, {"city": "Treillieres", "lat": 47.3308, "lng": -1.6267}, {"city": "Souffelweyersheim", "lat": 48.635, "lng": 7.7408}, {"city": "Aulnoye-Aymeries", "lat": 50.2047, "lng": 3.8356}, {"city": "Marspich", "lat": 49.3371, "lng": 6.0792}, {"city": "Redon", "lat": 47.6514, "lng": -2.0847}, {"city": "Basse-Goulaine", "lat": 47.2153, "lng": -1.4656}, {"city": "Ussel", "lat": 45.5481, "lng": 2.3092}, {"city": "La Ravoire", "lat": 45.5569, "lng": 5.9664}, {"city": "Ingre", "lat": 47.9206, "lng": 1.8242}, {"city": "Loudeac", "lat": 48.1778, "lng": -2.7533}, {"city": "Leguevin", "lat": 43.5989, "lng": 1.2331}, {"city": "Saint-Aubin-les-Elbeuf", "lat": 49.3003, "lng": 1.0111}, {"city": "Seysses", "lat": 43.4981, "lng": 1.3125}, {"city": "Joigny", "lat": 47.9822, "lng": 3.3972}, {"city": "Irigny", "lat": 45.6731, "lng": 4.8225}, {"city": "Lesquin", "lat": 50.5897, "lng": 3.1111}, {"city": "Couzeix", "lat": 45.8761, "lng": 1.2386}, {"city": "Scionzier", "lat": 46.0572, "lng": 6.55}, {"city": "Golbey", "lat": 48.1958, "lng": 6.4372}, {"city": "Landivisiau", "lat": 48.5092, "lng": -4.0683}, {"city": "Saint-Sulpice-la-Pointe", "lat": 43.7742, "lng": 1.6864}, {"city": "Saint-Pierre-les-Elbeuf", "lat": 49.2775, "lng": 1.0406}, {"city": "Libercourt", "lat": 50.4839, "lng": 3.0139}, {"city": "Cebazat", "lat": 45.8314, "lng": 3.1}, {"city": "Breuillet", "lat": 48.5661, "lng": 2.1714}, {"city": "Valreas", "lat": 44.3842, "lng": 4.9903}, {"city": "La Grande-Motte", "lat": 43.5606, "lng": 4.085}, {"city": "Paray-le-Monial", "lat": 46.4511, "lng": 4.1194}, {"city": "Voreppe", "lat": 45.2978, "lng": 5.6369}, {"city": "Orchies", "lat": 50.4747, "lng": 3.2442}, {"city": "Coulaines", "lat": 48.0267, "lng": 0.2042}, {"city": "Elne", "lat": 42.6003, "lng": 2.9711}, {"city": "Belley", "lat": 45.7592, "lng": 5.6881}, {"city": "Gonfreville-l'Orcher", "lat": 49.5053, "lng": 0.2331}, {"city": "Onnaing", "lat": 50.3878, "lng": 3.5981}, {"city": "Le Mesnil-Esnard", "lat": 49.4108, "lng": 1.1419}, {"city": "Larmor-Plage", "lat": 47.7064, "lng": -3.3842}, {"city": "La Chapelle d'Armentieres", "lat": 50.6728, "lng": 2.895}, {"city": "Lillebonne", "lat": 49.5208, "lng": 0.5375}, {"city": "La Ferte-Bernard", "lat": 48.1867, "lng": 0.6544}, {"city": "Le Muy", "lat": 43.4725, "lng": 6.5664}, {"city": "Gouvieux", "lat": 49.1878, "lng": 2.4161}, {"city": "Lamorlaye", "lat": 49.155, "lng": 2.4408}, {"city": "Sene", "lat": 47.6197, "lng": -2.7372}, {"city": "Morieres-les-Avignon", "lat": 43.9417, "lng": 4.9047}, {"city": "Unieux", "lat": 45.4017, "lng": 4.2614}, {"city": "Le Rheu", "lat": 48.1019, "lng": -1.7956}, {"city": "Bandol", "lat": 43.1364, "lng": 5.7533}, {"city": "Livron-sur-Drome", "lat": 44.7728, "lng": 4.8431}, {"city": "Parempuyre", "lat": 44.9492, "lng": -0.605}, {"city": "Perigny", "lat": 46.1528, "lng": -1.0964}, {"city": "Tonneins", "lat": 44.3897, "lng": 0.3083}, {"city": "Les Sorinieres", "lat": 47.1483, "lng": -1.5294}, {"city": "Cappelle-la-Grande", "lat": 50.9983, "lng": 2.3642}, {"city": "Isbergues", "lat": 50.6233, "lng": 2.4567}, {"city": "Pont-Audemer", "lat": 49.3542, "lng": 0.5139}, {"city": "Vendin-le-Vieil", "lat": 50.4739, "lng": 2.8661}, {"city": "Villars", "lat": 45.4689, "lng": 4.3544}, {"city": "Courcelles-les-Lens", "lat": 50.4181, "lng": 3.0181}, {"city": "Vallet", "lat": 47.1617, "lng": -1.2669}, {"city": "Le Petit-Couronne", "lat": 49.3856, "lng": 1.0275}, {"city": "Chaponost", "lat": 45.7103, "lng": 4.7422}, {"city": "Capbreton", "lat": 43.6419, "lng": -1.4322}, {"city": "Dardilly", "lat": 45.8056, "lng": 4.7531}, {"city": "La Fare-les-Oliviers", "lat": 43.5517, "lng": 5.1947}, {"city": "Le Thor", "lat": 43.9292, "lng": 4.9944}, {"city": "Clermont-l'Herault", "lat": 43.6272, "lng": 3.4322}, {"city": "Lempdes", "lat": 45.7711, "lng": 3.1936}, {"city": "Saint-Paul-Trois-Chateaux", "lat": 44.3489, "lng": 4.7686}, {"city": "Saint-Claude", "lat": 46.3872, "lng": 5.8633}, {"city": "Roquevaire", "lat": 43.3494, "lng": 5.6047}, {"city": "Savenay", "lat": 47.3611, "lng": -1.9419}, {"city": "Longvic", "lat": 47.2878, "lng": 5.0636}, {"city": "Notre-Dame-de-Gravenchon", "lat": 49.4892, "lng": 0.5711}, {"city": "Achicourt", "lat": 50.2733, "lng": 2.7594}, {"city": "Malzeville", "lat": 48.7103, "lng": 6.1864}, {"city": "Gretz-Armainvilliers", "lat": 48.7411, "lng": 2.7342}, {"city": "Checy", "lat": 47.8936, "lng": 2.0269}, {"city": "Roussillon", "lat": 45.3719, "lng": 4.8117}, {"city": "Tournan-en-Brie", "lat": 48.7406, "lng": 2.7681}, {"city": "Thorigne-Fouillard", "lat": 48.1597, "lng": -1.5797}, {"city": "Saint-Philbert-de-Grand-Lieu", "lat": 47.035, "lng": -1.64}, {"city": "Lorgues", "lat": 43.4933, "lng": 6.3611}, {"city": "Waziers", "lat": 50.3872, "lng": 3.1131}, {"city": "Nangis", "lat": 48.555, "lng": 3.0147}, {"city": "Grabels", "lat": 43.6481, "lng": 3.8017}, {"city": "Coutances", "lat": 49.0453, "lng": -1.4453}, {"city": "Le Teil", "lat": 44.5453, "lng": 4.6822}, {"city": "Emerainville", "lat": 48.81, "lng": 2.6228}, {"city": "Bellerive-sur-Allier", "lat": 46.1164, "lng": 3.4042}, {"city": "Merlebach", "lat": 49.1466, "lng": 6.8157}, {"city": "Queven", "lat": 47.7886, "lng": -3.4153}, {"city": "L'Isle-Jourdain", "lat": 43.6136, "lng": 1.0808}, {"city": "Grenade", "lat": 43.7714, "lng": 1.2931}, {"city": "Lancon-Provence", "lat": 43.5925, "lng": 5.1281}, {"city": "Hirson", "lat": 49.9217, "lng": 4.0839}, {"city": "Rivesaltes", "lat": 42.7689, "lng": 2.8739}, {"city": "Nort-sur-Erdre", "lat": 47.4394, "lng": -1.4983}, {"city": "Thaon-les-Vosges", "lat": 48.2505, "lng": 6.4195}, {"city": "Privas", "lat": 44.735, "lng": 4.5992}, {"city": "Entraigues-sur-la-Sorgue", "lat": 44.0031, "lng": 4.9267}, {"city": "Linselles", "lat": 50.7372, "lng": 3.0794}, {"city": "Monistrol-sur-Loire", "lat": 45.2925, "lng": 4.1722}, {"city": "Tregueux", "lat": 48.4906, "lng": -2.7381}, {"city": "La Ricamarie", "lat": 45.4031, "lng": 4.3644}, {"city": "Peymeinade", "lat": 43.6422, "lng": 6.8758}, {"city": "Saint-Germain-les-Corbeil", "lat": 48.6206, "lng": 2.4892}, {"city": "Crest", "lat": 44.7283, "lng": 5.0222}, {"city": "Domerat", "lat": 46.3603, "lng": 2.5344}, {"city": "Belleville", "lat": 46.1086, "lng": 4.7492}, {"city": "Sarlat-la-Caneda", "lat": 44.89, "lng": 1.2167}, {"city": "Terville", "lat": 49.3444, "lng": 6.1342}, {"city": "Marguerittes", "lat": 43.86, "lng": 4.4439}, {"city": "Noisy-le-Roi", "lat": 48.8464, "lng": 2.06}, {"city": "Saint-Vallier", "lat": 46.6419, "lng": 4.3711}, {"city": "Borgo", "lat": 42.5539, "lng": 9.4275}, {"city": "Velaux", "lat": 43.5225, "lng": 5.2539}, {"city": "Chateaugiron", "lat": 48.0481, "lng": -1.5031}, {"city": "Neuville-sur-Saone", "lat": 45.8761, "lng": 4.8411}, {"city": "Sautron", "lat": 47.2636, "lng": -1.6683}, {"city": "Jouy-en-Josas", "lat": 48.7681, "lng": 2.1669}, {"city": "Saint-Chamas", "lat": 43.5503, "lng": 5.0347}, {"city": "Vif", "lat": 45.0553, "lng": 5.67}, {"city": "Vaujours", "lat": 48.9339, "lng": 2.5719}, {"city": "Guichen", "lat": 47.9675, "lng": -1.795}, {"city": "Pibrac", "lat": 43.6169, "lng": 1.2847}, {"city": "Crolles", "lat": 45.285, "lng": 5.8828}, {"city": "Coutras", "lat": 45.0408, "lng": -0.1289}, {"city": "Barlin", "lat": 50.4553, "lng": 2.6186}, {"city": "Chartres-de-Bretagne", "lat": 48.0394, "lng": -1.7039}, {"city": "Poisy", "lat": 45.9222, "lng": 6.0631}, {"city": "Mazingarbe", "lat": 50.4731, "lng": 2.7181}, {"city": "Venelles", "lat": 43.5983, "lng": 5.4825}, {"city": "Saint-Jean-de-Monts", "lat": 46.7928, "lng": -2.0603}, {"city": "Saint-Marcellin", "lat": 45.1517, "lng": 5.3197}, {"city": "Jacou", "lat": 43.6608, "lng": 3.9103}, {"city": "Les Angles", "lat": 43.9544, "lng": 4.7667}, {"city": "Jarny", "lat": 49.1589, "lng": 5.8772}, {"city": "Falaise", "lat": 48.8972, "lng": -0.1975}, {"city": "Pont-l'Abbe", "lat": 47.8672, "lng": -4.2231}, {"city": "Seyssins", "lat": 45.1561, "lng": 5.6797}, {"city": "Uzes", "lat": 44.0125, "lng": 4.4197}, {"city": "Saint-Jean-d'Illac", "lat": 44.8097, "lng": -0.7836}, {"city": "Saint-Renan", "lat": 48.4339, "lng": -4.6214}, {"city": "Paray-Vieille-Poste", "lat": 48.7081, "lng": 2.3628}, {"city": "Chamonix-Mont-Blanc", "lat": 45.9222, "lng": 6.8689}, {"city": "Baillargues", "lat": 43.6611, "lng": 4.0128}, {"city": "Bessancourt", "lat": 49.0378, "lng": 2.2133}, {"city": "Pegomas", "lat": 43.5967, "lng": 6.9333}, {"city": "La Colle-sur-Loup", "lat": 43.6864, "lng": 7.1039}, {"city": "Aureilhan", "lat": 43.2439, "lng": 0.0967}, {"city": "Marcoussis", "lat": 48.6417, "lng": 2.2297}, {"city": "Le Poire-sur-Vie", "lat": 46.7686, "lng": -1.5083}, {"city": "Plabennec", "lat": 48.5019, "lng": -4.4261}, {"city": "Langueux", "lat": 48.495, "lng": -2.7175}, {"city": "Sarzeau", "lat": 47.5272, "lng": -2.7697}, {"city": "Saint-Remy-les-Chevreuse", "lat": 48.7058, "lng": 2.0719}, {"city": "Le Grau-du-Roi", "lat": 43.5372, "lng": 4.1367}, {"city": "Mauleon", "lat": 46.9228, "lng": -0.7497}, {"city": "Aigues-Mortes", "lat": 43.5667, "lng": 4.1925}, {"city": "Bompas", "lat": 42.7311, "lng": 2.9333}, {"city": "Feurs", "lat": 45.7408, "lng": 4.2258}, {"city": "Saint-Maixent-l'Ecole", "lat": 46.4128, "lng": -0.2081}, {"city": "Port-Saint-Louis-du-Rhone", "lat": 43.3875, "lng": 4.8044}, {"city": "Janze", "lat": 47.9606, "lng": -1.4992}, {"city": "Ergue-Gaberic", "lat": 47.9961, "lng": -4.0225}, {"city": "Saint-Gilles-Croix-de-Vie", "lat": 46.6975, "lng": -1.9444}, {"city": "Le Loroux-Bottereau", "lat": 47.2381, "lng": -1.3492}, {"city": "Le Soler", "lat": 42.6819, "lng": 2.7933}, {"city": "Sorbiers", "lat": 45.4878, "lng": 4.4503}, {"city": "Bouaye", "lat": 47.1436, "lng": -1.6889}, {"city": "Trignac", "lat": 47.3181, "lng": -2.1892}, {"city": "Carnoux-en-Provence", "lat": 43.2564, "lng": 5.5644}, {"city": "Lure", "lat": 47.6831, "lng": 6.4967}, {"city": "L'Aigle", "lat": 48.765, "lng": 0.6275}, {"city": "Lege-Cap-Ferret", "lat": 44.7931, "lng": -1.1464}, {"city": "Moyeuvre-Grande", "lat": 49.2528, "lng": 6.0458}, {"city": "Vern-sur-Seiche", "lat": 48.0447, "lng": -1.6003}, {"city": "Houplines", "lat": 50.6908, "lng": 2.9092}, {"city": "Chantonnay", "lat": 46.6869, "lng": -1.0506}, {"city": "Audenge", "lat": 44.6836, "lng": -1.0133}, {"city": "Noyelles-sous-Lens", "lat": 50.4306, "lng": 2.8728}, {"city": "Pezenas", "lat": 43.4594, "lng": 3.4228}, {"city": "Meximieux", "lat": 45.9044, "lng": 5.1944}, {"city": "Liancourt", "lat": 49.3308, "lng": 2.4653}, {"city": "Guilers", "lat": 48.4256, "lng": -4.5581}, {"city": "La Verpilliere", "lat": 45.6369, "lng": 5.1428}, {"city": "Villard-Bonnot", "lat": 45.2381, "lng": 5.8883}, {"city": "Leforest", "lat": 50.4372, "lng": 3.0642}, {"city": "La Bassee", "lat": 50.5336, "lng": 2.8072}, {"city": "Champagnole", "lat": 46.7472, "lng": 5.9072}, {"city": "Chateauneuf-sur-Loire", "lat": 47.8653, "lng": 2.2222}, {"city": "Saint-Nicolas-de-Port", "lat": 48.6308, "lng": 6.3022}, {"city": "Louveciennes", "lat": 48.8603, "lng": 2.1164}, {"city": "Puget-sur-Argens", "lat": 43.4558, "lng": 6.6842}, {"city": "Vert-Saint-Denis", "lat": 48.5669, "lng": 2.6219}, {"city": "Ballan-Mire", "lat": 47.3417, "lng": 0.6131}, {"city": "Gargenville", "lat": 48.9919, "lng": 1.8103}, {"city": "Chinon", "lat": 47.1669, "lng": 0.2428}, {"city": "Reignier", "lat": 46.1344, "lng": 6.2683}, {"city": "Saint-Jean-de-Maurienne", "lat": 45.2767, "lng": 6.345}, {"city": "Thann", "lat": 47.8067, "lng": 7.1044}, {"city": "Bailly-Romainvilliers", "lat": 48.8469, "lng": 2.8231}, {"city": "L'Arbresle", "lat": 45.8356, "lng": 4.6169}, {"city": "Saint-Apollinaire", "lat": 47.3317, "lng": 5.0842}, {"city": "Houdain", "lat": 50.4522, "lng": 2.5372}, {"city": "Bormes-les-Mimosas", "lat": 43.1517, "lng": 6.3431}, {"city": "Le Teich", "lat": 44.6339, "lng": -1.0236}, {"city": "Eckbolsheim", "lat": 48.5789, "lng": 7.6897}, {"city": "Wavrin", "lat": 50.5739, "lng": 2.9389}, {"city": "Les Andelys", "lat": 49.2456, "lng": 1.4117}, {"city": "Le Coteau", "lat": 46.0272, "lng": 4.0867}, {"city": "Tonnay-Charente", "lat": 45.9436, "lng": -0.8914}, {"city": "Auby", "lat": 50.4153, "lng": 3.0544}, {"city": "Sausset-les-Pins", "lat": 43.3322, "lng": 5.1139}, {"city": "Ballancourt", "lat": 48.5256, "lng": 2.3856}, {"city": "Courtry", "lat": 48.9175, "lng": 2.6031}, {"city": "Biguglia", "lat": 42.6183, "lng": 9.4361}, {"city": "La Penne-sur-Huveaune", "lat": 43.2806, "lng": 5.5158}, {"city": "Romagnat", "lat": 45.7294, "lng": 3.1006}, {"city": "Claix", "lat": 45.1197, "lng": 5.6717}, {"city": "Le Mesnil-le-Roi", "lat": 48.9281, "lng": 2.1225}, {"city": "Guenange", "lat": 49.2978, "lng": 6.1978}, {"city": "Donges", "lat": 47.3231, "lng": -2.0761}, {"city": "Vineuil", "lat": 47.5806, "lng": 1.3725}, {"city": "Eguilles", "lat": 43.5686, "lng": 5.3542}, {"city": "Beauzelle", "lat": 43.6653, "lng": 1.3775}, {"city": "Gleize", "lat": 45.9892, "lng": 4.6969}, {"city": "Thuir", "lat": 42.6319, "lng": 2.7564}, {"city": "Luisant", "lat": 48.4317, "lng": 1.4764}, {"city": "Fresnes-sur-Escaut", "lat": 50.4336, "lng": 3.5769}, {"city": "Isle", "lat": 45.8042, "lng": 1.2264}, {"city": "Hettange-Grande", "lat": 49.4058, "lng": 6.1531}, {"city": "Charnay-les-Macon", "lat": 46.3092, "lng": 4.7844}, {"city": "Neuves-Maisons", "lat": 48.6161, "lng": 6.1036}, {"city": "Bonsecours", "lat": 49.4278, "lng": 1.1278}, {"city": "Soustons", "lat": 43.7514, "lng": -1.3294}, {"city": "Peronne", "lat": 49.9322, "lng": 2.9364}, {"city": "Bassens", "lat": 44.9033, "lng": -0.5169}, {"city": "Monts", "lat": 47.2747, "lng": 0.6428}, {"city": "Remiremont", "lat": 48.0169, "lng": 6.59}, {"city": "Saint-Affrique", "lat": 43.9583, "lng": 2.8864}, {"city": "Notre-Dame-de-Bondeville", "lat": 49.4883, "lng": 1.0483}, {"city": "Wissous", "lat": 48.7308, "lng": 2.3272}, {"city": "Saint-Julien-les-Villas", "lat": 48.2714, "lng": 4.0975}, {"city": "Trevoux", "lat": 45.9408, "lng": 4.775}, {"city": "Ecouen", "lat": 49.0186, "lng": 2.3811}, {"city": "Languidic", "lat": 47.8333, "lng": -3.1578}, {"city": "Soisy-sur-Seine", "lat": 48.6469, "lng": 2.4522}, {"city": "Publier", "lat": 46.3878, "lng": 6.5442}, {"city": "Saint-Priest-en-Jarez", "lat": 45.4742, "lng": 4.3781}, {"city": "Montreuil-Juigne", "lat": 47.5283, "lng": -0.6119}, {"city": "Beynes", "lat": 48.8564, "lng": 1.8728}, {"city": "Moirans", "lat": 45.325, "lng": 5.5644}, {"city": "Uckange", "lat": 49.3025, "lng": 6.1553}, {"city": "Lisses", "lat": 48.5978, "lng": 2.4264}, {"city": "Clisson", "lat": 47.0869, "lng": -1.2836}, {"city": "Wintzenheim", "lat": 48.0731, "lng": 7.29}, {"city": "Langres", "lat": 47.8625, "lng": 5.3331}, {"city": "Saint-Victoret", "lat": 43.4208, "lng": 5.2333}, {"city": "Saint-Vincent-de-Tyrosse", "lat": 43.6611, "lng": -1.3042}, {"city": "La Couronne", "lat": 45.6075, "lng": 0.1}, {"city": "Ceret", "lat": 42.4881, "lng": 2.7514}, {"city": "Saint-Prix", "lat": 49.0067, "lng": 2.2625}, {"city": "Lesneven", "lat": 48.5719, "lng": -4.3222}, {"city": "Lagord", "lat": 46.1894, "lng": -1.1542}, {"city": "Digoin", "lat": 46.4819, "lng": 3.9806}, {"city": "Vizille", "lat": 45.0783, "lng": 5.7719}, {"city": "Tullins", "lat": 45.2975, "lng": 5.4833}, {"city": "Saint-Denis-en-Val", "lat": 47.8772, "lng": 1.96}, {"city": "La Montagne", "lat": 47.19, "lng": -1.6839}, {"city": "Domene", "lat": 45.2025, "lng": 5.8389}, {"city": "Gieres", "lat": 45.1819, "lng": 5.7919}, {"city": "Geispolsheim", "lat": 48.515, "lng": 7.6464}, {"city": "Cavalaire-sur-Mer", "lat": 43.1711, "lng": 6.5292}, {"city": "Fouquieres-les-Lens", "lat": 50.4286, "lng": 2.9128}, {"city": "Gerardmer", "lat": 48.0722, "lng": 6.8786}, {"city": "Tignieu", "lat": 45.7339, "lng": 5.1872}, {"city": "Saint-Peray", "lat": 44.9486, "lng": 4.845}, {"city": "Marseillan", "lat": 43.3564, "lng": 3.5278}, {"city": "Anse", "lat": 45.9356, "lng": 4.7194}, {"city": "Malemort-sur-Correze", "lat": 45.1708, "lng": 1.5639}, {"city": "Rethel", "lat": 49.5097, "lng": 4.3675}, {"city": "Ruelle-sur-Touvre", "lat": 45.6778, "lng": 0.2203}, {"city": "Colombelles", "lat": 49.2042, "lng": -0.2972}, {"city": "Nieppe", "lat": 50.7031, "lng": 2.8389}, {"city": "Langon", "lat": 44.5531, "lng": -0.2494}, {"city": "Toulouges", "lat": 42.6706, "lng": 2.8319}, {"city": "Doue-la-Fontaine", "lat": 47.1931, "lng": -0.2756}, {"city": "Cormontreuil", "lat": 49.2228, "lng": 4.0519}, {"city": "Ancenis", "lat": 47.3728, "lng": -1.1783}, {"city": "Liffre", "lat": 48.2136, "lng": -1.5081}, {"city": "Bouffemont", "lat": 49.0433, "lng": 2.2992}, {"city": "Mably", "lat": 46.0858, "lng": 4.0647}, {"city": "Lesigny", "lat": 48.7442, "lng": 2.6158}, {"city": "Pontcharra", "lat": 45.4331, "lng": 6.0153}, {"city": "Courdimanche", "lat": 49.0344, "lng": 2.0014}, {"city": "La Talaudiere", "lat": 45.4814, "lng": 4.4319}, {"city": "Questembert", "lat": 47.6614, "lng": -2.4531}, {"city": "Talmont-Saint-Hilaire", "lat": 46.4672, "lng": -1.6183}, {"city": "Saint-Yrieix-sur-Charente", "lat": 45.6753, "lng": 0.1275}, {"city": "Contes", "lat": 43.8119, "lng": 7.3139}, {"city": "Coulounieix", "lat": 45.1864, "lng": 0.6914}, {"city": "Saint-Benoit", "lat": 46.5497, "lng": 0.3417}, {"city": "Deols", "lat": 46.83, "lng": 1.7058}, {"city": "Rochefort-du-Gard", "lat": 43.9744, "lng": 4.6903}, {"city": "Auxonne", "lat": 47.1939, "lng": 5.3878}, {"city": "Behren-les-Forbach", "lat": 49.1739, "lng": 6.9347}, {"city": "Saint-Didier-au-Mont-d'Or", "lat": 45.8106, "lng": 4.7986}, {"city": "Martignas-sur-Jalle", "lat": 44.8406, "lng": -0.7756}, {"city": "Escalquens", "lat": 43.5178, "lng": 1.5608}, {"city": "Lodeve", "lat": 43.7317, "lng": 3.3194}, {"city": "Beaugency", "lat": 47.7783, "lng": 1.6317}, {"city": "Rosporden", "lat": 47.9606, "lng": -3.8347}, {"city": "Saint-Thibault-des-Vignes", "lat": 48.8692, "lng": 2.6886}, {"city": "Villers-Saint-Paul", "lat": 49.2889, "lng": 2.4872}, {"city": "Sisteron", "lat": 44.19, "lng": 5.9464}, {"city": "Ensisheim", "lat": 47.8656, "lng": 7.3525}, {"city": "Pluvigner", "lat": 47.7758, "lng": -3.0103}, {"city": "Linas", "lat": 48.6333, "lng": 2.2672}, {"city": "Aussonne", "lat": 43.6839, "lng": 1.3197}, {"city": "Quievrechain", "lat": 50.3953, "lng": 3.6669}, {"city": "Pignan", "lat": 43.5842, "lng": 3.7619}, {"city": "Migennes", "lat": 47.9647, "lng": 3.5167}, {"city": "Jassans-Riottier", "lat": 45.9856, "lng": 4.7567}, {"city": "Wissembourg", "lat": 49.0375, "lng": 7.9461}, {"city": "Cognin", "lat": 45.5619, "lng": 5.8972}, {"city": "Boulazac", "lat": 45.1819, "lng": 0.7631}, {"city": "Honfleur", "lat": 49.4189, "lng": 0.2331}, {"city": "Balaruc-les-Bains", "lat": 43.4408, "lng": 3.6772}, {"city": "Beaupreau", "lat": 47.2019, "lng": -0.9944}, {"city": "Homecourt", "lat": 49.2231, "lng": 5.9928}, {"city": "Egly", "lat": 48.5806, "lng": 2.2239}, {"city": "Saint-Alban", "lat": 43.6919, "lng": 1.4147}, {"city": "Saint-Aubin-de-Medoc", "lat": 44.9119, "lng": -0.7253}, {"city": "La Tronche", "lat": 45.2064, "lng": 5.7403}, {"city": "Divion", "lat": 50.4722, "lng": 2.5014}, {"city": "Mordelles", "lat": 48.0747, "lng": -1.8458}, {"city": "Saint-Berthevin", "lat": 48.0683, "lng": -0.8258}, {"city": "Le Mesnil-Saint-Denis", "lat": 48.7436, "lng": 1.9631}, {"city": "Petite-Rosselle", "lat": 49.2117, "lng": 6.8575}, {"city": "Barr", "lat": 48.4081, "lng": 7.4497}, {"city": "Gaillon", "lat": 49.1603, "lng": 1.3358}, {"city": "Perros-Guirec", "lat": 48.8133, "lng": -3.4433}, {"city": "Saujon", "lat": 45.6714, "lng": -0.9278}, {"city": "Magnanville", "lat": 48.9672, "lng": 1.6819}, {"city": "Chauray", "lat": 46.3606, "lng": -0.3772}, {"city": "Saint-Andre-de-la-Roche", "lat": 43.74, "lng": 7.2878}, {"city": "La Ferte-Saint-Aubin", "lat": 47.7172, "lng": 1.9414}, {"city": "Longpont-sur-Orge", "lat": 48.6428, "lng": 2.2917}, {"city": "Corte", "lat": 42.3056, "lng": 9.1506}, {"city": "Saintry-sur-Seine", "lat": 48.5908, "lng": 2.4969}, {"city": "Crozon", "lat": 48.2453, "lng": -4.4889}, {"city": "Saint-Ismier", "lat": 45.2486, "lng": 5.8269}, {"city": "Saint-Juery", "lat": 43.9486, "lng": 2.2094}, {"city": "Chateaubourg", "lat": 48.1111, "lng": -1.4033}, {"city": "Louvroil", "lat": 50.265, "lng": 3.96}, {"city": "Paimpol", "lat": 48.7778, "lng": -3.0464}, {"city": "Le Peage-de-Roussillon", "lat": 45.3731, "lng": 4.7975}, {"city": "Jurancon", "lat": 43.2872, "lng": -0.3881}, {"city": "Bidart", "lat": 43.4369, "lng": -1.5931}, {"city": "Bain-de-Bretagne", "lat": 47.8422, "lng": -1.6819}, {"city": "Pordic", "lat": 48.5703, "lng": -2.8171}, {"city": "Carhaix-Plouguer", "lat": 48.2758, "lng": -3.5744}, {"city": "Lagnieu", "lat": 45.9036, "lng": 5.3492}, {"city": "Bellegarde", "lat": 43.7536, "lng": 4.5144}, {"city": "Audun-le-Tiche", "lat": 49.4733, "lng": 5.9578}, {"city": "Saint-Etienne-de-Montluc", "lat": 47.2764, "lng": -1.7803}, {"city": "Cranves-Sales", "lat": 46.1867, "lng": 6.2914}, {"city": "Auvers-sur-Oise", "lat": 49.0717, "lng": 2.1742}, {"city": "Tain-l'Hermitage", "lat": 45.0706, "lng": 4.8425}, {"city": "Loos-en-Gohelle", "lat": 50.4578, "lng": 2.7933}, {"city": "Betheny", "lat": 49.2847, "lng": 4.0569}, {"city": "Saint-Christol-lez-Ales", "lat": 44.0844, "lng": 4.0769}, {"city": "Morteau", "lat": 47.0581, "lng": 6.6061}, {"city": "Segre", "lat": 47.6864, "lng": -0.8725}, {"city": "Fabregues", "lat": 43.5503, "lng": 3.7761}, {"city": "Longueau", "lat": 49.8703, "lng": 2.3561}, {"city": "Villemandeur", "lat": 47.9903, "lng": 2.7094}, {"city": "Bourbourg", "lat": 50.9464, "lng": 2.1978}, {"city": "Saint-Pierre", "lat": 46.0597, "lng": 6.3725}, {"city": "Lallaing", "lat": 50.39, "lng": 3.1681}, {"city": "Saint-Julien-de-Concelles", "lat": 47.2533, "lng": -1.3856}, {"city": "Chemille", "lat": 47.2131, "lng": -0.7258}, {"city": "Montoir-de-Bretagne", "lat": 47.3283, "lng": -2.1492}, {"city": "Mourenx", "lat": 43.3706, "lng": -0.6294}, {"city": "Cuincy", "lat": 50.3822, "lng": 3.0467}, {"city": "La Gaude", "lat": 43.7219, "lng": 7.1531}, {"city": "Yssingeaux", "lat": 45.1428, "lng": 4.1236}, {"city": "Bourg-Saint-Andeol", "lat": 44.3733, "lng": 4.6442}, {"city": "Menucourt", "lat": 49.0272, "lng": 1.9814}, {"city": "Serignan", "lat": 43.28, "lng": 3.2775}, {"city": "Teteghem", "lat": 51.0186, "lng": 2.4439}, {"city": "Soultz-Haut-Rhin", "lat": 47.8858, "lng": 7.2292}, {"city": "Saint-Bonnet-de-Mure", "lat": 45.6906, "lng": 5.0292}, {"city": "Bourg-Saint-Maurice", "lat": 45.6167, "lng": 6.7686}, {"city": "Cassis", "lat": 43.2156, "lng": 5.5372}, {"city": "Quesnoy-sur-Deule", "lat": 50.7125, "lng": 2.9994}, {"city": "Saint-Macaire-en-Mauges", "lat": 47.1239, "lng": -0.9917}, {"city": "Salles", "lat": 44.5519, "lng": -0.8694}, {"city": "Hasparren", "lat": 43.3844, "lng": -1.3047}, {"city": "Valognes", "lat": 49.5092, "lng": -1.4692}, {"city": "Suce-sur-Erdre", "lat": 47.3447, "lng": -1.5294}, {"city": "Othis", "lat": 49.0764, "lng": 2.6764}, {"city": "Saint-Remy", "lat": 46.7633, "lng": 4.8375}, {"city": "Saint-Jean-d'Angely", "lat": 45.9442, "lng": -0.5211}, {"city": "Saint-Laurent-Blangy", "lat": 50.3025, "lng": 2.8028}, {"city": "Saint-Just-sur-Loire", "lat": 45.5003, "lng": 4.2406}, {"city": "Saint-Pathus", "lat": 49.0706, "lng": 2.7997}, {"city": "Cornebarrieu", "lat": 43.6494, "lng": 1.3264}, {"city": "Feignies", "lat": 50.3022, "lng": 3.9181}, {"city": "Faverges", "lat": 45.7467, "lng": 6.2939}, {"city": "Rives", "lat": 45.3508, "lng": 5.5022}, {"city": "Ugine", "lat": 45.7528, "lng": 6.4197}, {"city": "Mimizan", "lat": 44.2008, "lng": -1.2286}, {"city": "Saint-Jean-Bonnefonds", "lat": 45.4511, "lng": 4.4464}, {"city": "Gueugnon", "lat": 46.6011, "lng": 4.0608}, {"city": "Wimereux", "lat": 50.7697, "lng": 1.61}, {"city": "Tregunc", "lat": 47.8558, "lng": -3.8519}, {"city": "Puilboreau", "lat": 46.1858, "lng": -1.1172}, {"city": "Brioude", "lat": 45.2942, "lng": 3.3842}, {"city": "Montfort-sur-Meu", "lat": 48.1381, "lng": -1.9558}, {"city": "Les Arcs", "lat": 43.4633, "lng": 6.4789}, {"city": "Bagneres-de-Bigorre", "lat": 43.0642, "lng": 0.1497}, {"city": "Senas", "lat": 43.7444, "lng": 5.0786}, {"city": "Champagne-sur-Seine", "lat": 48.3972, "lng": 2.8011}, {"city": "Lanton", "lat": 44.7039, "lng": -1.0353}, {"city": "Le Perray-en-Yvelines", "lat": 48.6942, "lng": 1.8542}, {"city": "Eu", "lat": 50.0472, "lng": 1.4197}, {"city": "Saint-Mandrier-sur-Mer", "lat": 43.0761, "lng": 5.9278}, {"city": "Pleurtuit", "lat": 48.5797, "lng": -2.0583}, {"city": "Sains-en-Gohelle", "lat": 50.4447, "lng": 2.6836}, {"city": "Bouchemaine", "lat": 47.4225, "lng": -0.6097}, {"city": "Saint-Rambert-d'Albon", "lat": 45.2939, "lng": 4.8169}, {"city": "Manduel", "lat": 43.8183, "lng": 4.4733}, {"city": "Trelissac", "lat": 45.1958, "lng": 0.7825}, {"city": "Chauvigny", "lat": 46.5686, "lng": 0.6467}, {"city": "Etrechy", "lat": 48.4931, "lng": 2.1911}, {"city": "Montluel", "lat": 45.8517, "lng": 5.0564}, {"city": "Theix", "lat": 47.6292, "lng": -2.6558}, {"city": "Trith-Saint-Leger", "lat": 50.3256, "lng": 3.4858}, {"city": "Ceyrat", "lat": 45.7328, "lng": 3.0633}, {"city": "Itteville", "lat": 48.5142, "lng": 2.3419}, {"city": "Frouard", "lat": 48.7606, "lng": 6.1289}, {"city": "Nyons", "lat": 44.3608, "lng": 5.1406}, {"city": "Brunstatt", "lat": 47.7233, "lng": 7.3228}, {"city": "Rungis", "lat": 48.7483, "lng": 2.3497}, {"city": "Laneuveville-devant-Nancy", "lat": 48.6553, "lng": 6.2314}, {"city": "Ciboure", "lat": 43.3853, "lng": -1.6678}, {"city": "Saulx-les-Chartreux", "lat": 48.6922, "lng": 2.2664}, {"city": "Sainte-Pazanne", "lat": 47.1031, "lng": -1.8108}, {"city": "Caudan", "lat": 47.8089, "lng": -3.3425}, {"city": "Acigne", "lat": 48.1342, "lng": -1.5367}, {"city": "Chabeuil", "lat": 44.8997, "lng": 5.02}, {"city": "Mondelange", "lat": 49.2625, "lng": 6.1686}, {"city": "Les Essarts-le-Roi", "lat": 48.7167, "lng": 1.8944}, {"city": "Nanteuil-les-Meaux", "lat": 48.9297, "lng": 2.8969}, {"city": "Surgeres", "lat": 46.1081, "lng": -0.7517}, {"city": "Algrange", "lat": 49.3594, "lng": 6.0483}, {"city": "Herbignac", "lat": 47.4489, "lng": -2.3175}, {"city": "Eyguieres", "lat": 43.6953, "lng": 5.0311}, {"city": "Ustaritz", "lat": 43.3994, "lng": -1.4564}, {"city": "Limours", "lat": 48.6456, "lng": 2.0761}, {"city": "Grand-Charmont", "lat": 47.5272, "lng": 6.8236}, {"city": "Melesse", "lat": 48.2172, "lng": -1.6961}, {"city": "Lutterbach", "lat": 47.7597, "lng": 7.2806}, {"city": "Epone", "lat": 48.9558, "lng": 1.8153}, {"city": "Chessy", "lat": 48.8803, "lng": 2.7633}, {"city": "Rosny-sur-Seine", "lat": 48.9997, "lng": 1.6317}, {"city": "Luxeuil-les-Bains", "lat": 47.8161, "lng": 6.3808}, {"city": "Saint-Pee-sur-Nivelle", "lat": 43.3567, "lng": -1.5506}, {"city": "Labenne", "lat": 43.5928, "lng": -1.4267}, {"city": "Champigneulles", "lat": 48.7336, "lng": 6.1644}, {"city": "Vendargues", "lat": 43.6578, "lng": 3.9694}, {"city": "Caussade", "lat": 44.1617, "lng": 1.5369}, {"city": "Heillecourt", "lat": 48.6525, "lng": 6.1942}, {"city": "Givet", "lat": 50.1381, "lng": 4.8242}, {"city": "Le Pian-Medoc", "lat": 44.955, "lng": -0.6697}, {"city": "Nerac", "lat": 44.1361, "lng": 0.3394}, {"city": "Pledran", "lat": 48.4458, "lng": -2.7461}, {"city": "Roost-Warendin", "lat": 50.4203, "lng": 3.1056}, {"city": "Thyez", "lat": 46.0836, "lng": 6.5411}, {"city": "Ploeren", "lat": 47.6561, "lng": -2.8667}, {"city": "Canohes", "lat": 42.6519, "lng": 2.8344}, {"city": "Neufchateau", "lat": 48.3556, "lng": 5.6961}, {"city": "Estaires", "lat": 50.6439, "lng": 2.7231}, {"city": "Moelan-sur-Mer", "lat": 47.8142, "lng": -3.6281}, {"city": "Cambo-les-Bains", "lat": 43.3578, "lng": -1.4017}, {"city": "Chasse-sur-Rhone", "lat": 45.5806, "lng": 4.8}, {"city": "Orgeval", "lat": 48.9206, "lng": 1.9758}, {"city": "Nandy", "lat": 48.5842, "lng": 2.5661}, {"city": "Noyelles-Godault", "lat": 50.42, "lng": 2.9939}, {"city": "Loison-sous-Lens", "lat": 50.4383, "lng": 2.8683}, {"city": "Loudun", "lat": 47.01, "lng": 0.0836}, {"city": "Sury-le-Comtal", "lat": 45.5375, "lng": 4.1831}, {"city": "Saint-Pol-de-Leon", "lat": 48.6853, "lng": -3.9864}, {"city": "Ludres", "lat": 48.6217, "lng": 6.1617}, {"city": "Peronnas", "lat": 46.1786, "lng": 5.2028}, {"city": "Saint-Alban-Leysse", "lat": 45.58, "lng": 5.9581}, {"city": "Labarthe-sur-Leze", "lat": 43.4517, "lng": 1.4}, {"city": "Brindas", "lat": 45.7211, "lng": 4.6936}, {"city": "Beaufort-en-Vallee", "lat": 47.4394, "lng": -0.2156}, {"city": "Montaigu", "lat": 46.9728, "lng": -1.31}, {"city": "Saint-Pierre-d'Oleron", "lat": 45.9436, "lng": -1.3058}, {"city": "Meung-sur-Loire", "lat": 47.8286, "lng": 1.6983}, {"city": "Mehun-sur-Yevre", "lat": 47.1453, "lng": 2.2158}, {"city": "Gigean", "lat": 43.4997, "lng": 3.7111}, {"city": "Loriol-sur-Drome", "lat": 44.7517, "lng": 4.8225}, {"city": "Annezin", "lat": 50.5336, "lng": 2.6183}, {"city": "Saint-Andre-des-Eaux", "lat": 47.3139, "lng": -2.3108}, {"city": "Oberhausbergen", "lat": 48.6067, "lng": 7.6853}, {"city": "Verneuil-sur-Avre", "lat": 48.7389, "lng": 0.9278}, {"city": "Mutzig", "lat": 48.5386, "lng": 7.4542}, {"city": "Saint-Yrieix-la-Perche", "lat": 45.5144, "lng": 1.2033}, {"city": "Brech", "lat": 47.7206, "lng": -2.9956}, {"city": "Kervignac", "lat": 47.7633, "lng": -3.2389}, {"city": "Malaunay", "lat": 49.5261, "lng": 1.0403}, {"city": "Le Cendre", "lat": 45.7225, "lng": 3.1872}, {"city": "Hersin-Coupigny", "lat": 50.4461, "lng": 2.6478}, {"city": "Hombourg-Haut", "lat": 49.1258, "lng": 6.7781}, {"city": "Marles-les-Mines", "lat": 50.5022, "lng": 2.5022}, {"city": "Blainville-sur-Orne", "lat": 49.2289, "lng": -0.3}, {"city": "Plouguerneau", "lat": 48.6058, "lng": -4.5042}, {"city": "Chatelaillon-Plage", "lat": 46.0731, "lng": -1.0881}, {"city": "Grand-Fort-Philippe", "lat": 50.9978, "lng": 2.1092}, {"city": "Avallon", "lat": 47.49, "lng": 3.9083}, {"city": "Gemenos", "lat": 43.2961, "lng": 5.6269}, {"city": "La Bouilladisse", "lat": 43.3953, "lng": 5.5953}, {"city": "Vezin-le-Coquet", "lat": 48.1186, "lng": -1.7561}, {"city": "Horbourg", "lat": 48.0794, "lng": 7.3944}, {"city": "Saint-Florent-sur-Cher", "lat": 46.9956, "lng": 2.2517}, {"city": "Ambert", "lat": 45.5494, "lng": 3.7417}, {"city": "Saint-Girons", "lat": 42.9847, "lng": 1.1458}, {"city": "Change", "lat": 47.9878, "lng": 0.2819}, {"city": "Marange-Silvange", "lat": 49.2108, "lng": 6.1039}, {"city": "Bois-le-Roi", "lat": 48.4736, "lng": 2.6972}, {"city": "Marignier", "lat": 46.0903, "lng": 6.4997}, {"city": "Thones", "lat": 45.8822, "lng": 6.3256}, {"city": "Saint-Marcel-les-Valence", "lat": 44.9708, "lng": 4.9567}, {"city": "Calonne-Ricouart", "lat": 50.4869, "lng": 2.4836}, {"city": "Saint-Marcel", "lat": 46.7756, "lng": 4.8894}, {"city": "Bouillargues", "lat": 43.8003, "lng": 4.4269}, {"city": "Pavilly", "lat": 49.5683, "lng": 0.9536}, {"city": "Viriat", "lat": 46.2536, "lng": 5.2167}, {"city": "Castelnau-d'Estretefonds", "lat": 43.7822, "lng": 1.3583}, {"city": "Chalonnes-sur-Loire", "lat": 47.3506, "lng": -0.7639}, {"city": "Villabe", "lat": 48.5883, "lng": 2.4561}, {"city": "Corbie", "lat": 49.9089, "lng": 2.5072}, {"city": "Louhans", "lat": 46.6264, "lng": 5.2247}, {"city": "Pecquencourt", "lat": 50.3772, "lng": 3.2158}, {"city": "Gouesnou", "lat": 48.4536, "lng": -4.4644}, {"city": "Saint-Maurice-l'Exil", "lat": 45.3969, "lng": 4.7747}, {"city": "Montauroux", "lat": 43.6183, "lng": 6.7653}, {"city": "Sainte-Livrade-sur-Lot", "lat": 44.3981, "lng": 0.5894}, {"city": "Montdidier", "lat": 49.6481, "lng": 2.57}, {"city": "Fegersheim", "lat": 48.4906, "lng": 7.6803}, {"city": "Douvaine", "lat": 46.305, "lng": 6.3036}, {"city": "Eaunes", "lat": 43.4217, "lng": 1.3544}, {"city": "Saint-Genest-Lerpt", "lat": 45.4461, "lng": 4.3367}, {"city": "Chatenoy-le-Royal", "lat": 46.7942, "lng": 4.8164}, {"city": "Chatel-Guyon", "lat": 45.9225, "lng": 3.0642}, {"city": "Flers-en-Escrebieux", "lat": 50.3978, "lng": 3.0625}, {"city": "Gournay-en-Bray", "lat": 49.4806, "lng": 1.7239}, {"city": "Le Palais-sur-Vienne", "lat": 45.8642, "lng": 1.3231}, {"city": "Cadaujac", "lat": 44.7556, "lng": -0.53}, {"city": "Grezieu-la-Varenne", "lat": 45.7472, "lng": 4.6903}, {"city": "Prades", "lat": 42.6172, "lng": 2.4219}, {"city": "L'Hopital", "lat": 49.1581, "lng": 6.7322}, {"city": "Veigne", "lat": 47.2875, "lng": 0.7375}, {"city": "Labruguiere", "lat": 43.5392, "lng": 2.2633}, {"city": "Saint-Pryve-Saint-Mesmin", "lat": 47.8808, "lng": 1.8678}, {"city": "Saint-Flour", "lat": 45.0336, "lng": 3.0928}, {"city": "Templeuve", "lat": 50.5267, "lng": 3.175}, {"city": "Lavelanet", "lat": 42.9328, "lng": 1.8486}, {"city": "Buc", "lat": 48.7733, "lng": 2.1253}, {"city": "Condom", "lat": 43.9575, "lng": 0.3725}, {"city": "Challes-les-Eaux", "lat": 45.5475, "lng": 5.9839}, {"city": "Ploudalmezeau", "lat": 48.5403, "lng": -4.6575}, {"city": "Raon-l'Etape", "lat": 48.4058, "lng": 6.8411}, {"city": "Cregy-les-Meaux", "lat": 48.9786, "lng": 2.8783}, {"city": "Gignac", "lat": 43.6519, "lng": 3.5511}, {"city": "Bruguieres", "lat": 43.7242, "lng": 1.4114}, {"city": "Montech", "lat": 43.9569, "lng": 1.2297}, {"city": "L'Isle-d'Espagnac", "lat": 45.6614, "lng": 0.1997}, {"city": "Beaurains", "lat": 50.2631, "lng": 2.7886}, {"city": "Parentis-en-Born", "lat": 44.3494, "lng": -1.0744}, {"city": "Castries", "lat": 43.6789, "lng": 3.9814}, {"city": "Leves", "lat": 48.4689, "lng": 1.4814}, {"city": "Jaunay-Clan", "lat": 46.6856, "lng": 0.37}, {"city": "Saint-Cyr-au-Mont-d'Or", "lat": 45.8144, "lng": 4.8181}, {"city": "Dourges", "lat": 50.4361, "lng": 2.9867}, {"city": "Laudun-l'Ardoise", "lat": 44.105, "lng": 4.6575}, {"city": "Benfeld", "lat": 48.3706, "lng": 7.5922}, {"city": "Sciez", "lat": 46.3319, "lng": 6.3739}, {"city": "Cournonterral", "lat": 43.5578, "lng": 3.7189}, {"city": "Saint-Jean-de-Boiseau", "lat": 47.1942, "lng": -1.7247}, {"city": "Jonage", "lat": 45.7964, "lng": 5.0467}, {"city": "Bon-Encontre", "lat": 44.1864, "lng": 0.6719}, {"city": "Ares", "lat": 44.765, "lng": -1.1367}, {"city": "Pont-Saint-Martin", "lat": 47.1236, "lng": -1.5844}, {"city": "Lentilly", "lat": 45.8186, "lng": 4.6631}, {"city": "Marsillargues", "lat": 43.6644, "lng": 4.1769}, {"city": "Seloncourt", "lat": 47.4606, "lng": 6.8583}, {"city": "Bauvin", "lat": 50.5142, "lng": 2.8981}, {"city": "Loches", "lat": 47.1286, "lng": 0.9953}, {"city": "Epernon", "lat": 48.6108, "lng": 1.6742}, {"city": "Pont-Sainte-Marie", "lat": 48.3206, "lng": 4.1014}, {"city": "Commentry", "lat": 46.2889, "lng": 2.7417}, {"city": "Marolles-en-Hurepoix", "lat": 48.5625, "lng": 2.2983}, {"city": "Breal-sous-Montfort", "lat": 48.0478, "lng": -1.8667}, {"city": "Saint-Just-en-Chaussee", "lat": 49.5061, "lng": 2.4308}, {"city": "La Grand-Croix", "lat": 45.5031, "lng": 4.5689}, {"city": "Wervicq-Sud", "lat": 50.7722, "lng": 3.0478}, {"city": "Mer", "lat": 47.6986, "lng": 1.5078}, {"city": "Malesherbes", "lat": 48.2964, "lng": 2.4053}, {"city": "Mornant", "lat": 45.6189, "lng": 4.6722}, {"city": "Machecoul", "lat": 46.9931, "lng": -1.8228}, {"city": "Le Blanc", "lat": 46.6336, "lng": 1.0628}, {"city": "Aussillon", "lat": 43.4983, "lng": 2.365}, {"city": "Santes", "lat": 50.5933, "lng": 2.9622}, {"city": "Embrun", "lat": 44.565, "lng": 6.4953}, {"city": "Lezoux", "lat": 45.8275, "lng": 3.38}, {"city": "Aurec-sur-Loire", "lat": 45.3692, "lng": 4.2017}, {"city": "La Glacerie", "lat": 49.6142, "lng": -1.6042}, {"city": "Bethoncourt", "lat": 47.5344, "lng": 6.8039}, {"city": "Terrasson-Lavilledieu", "lat": 45.13, "lng": 1.3014}, {"city": "Fenain", "lat": 50.3658, "lng": 3.3006}, {"city": "Le Barcares", "lat": 42.7883, "lng": 3.0356}, {"city": "Valdoie", "lat": 47.6672, "lng": 6.8419}, {"city": "Saint-Genis-les-Ollieres", "lat": 45.7572, "lng": 4.7264}, {"city": "Saint-Arnoult-en-Yvelines", "lat": 48.5717, "lng": 1.9406}, {"city": "Villennes-sur-Seine", "lat": 48.9392, "lng": 1.9978}, {"city": "Baud", "lat": 47.8756, "lng": -3.0189}, {"city": "Arpajon-sur-Cere", "lat": 44.9039, "lng": 2.4567}, {"city": "Saint-Martin-le-Vinoux", "lat": 45.2031, "lng": 5.7164}, {"city": "Saint-Andre-de-Sangonis", "lat": 43.6497, "lng": 3.5036}, {"city": "Grandchamps-des-Fontaines", "lat": 47.365, "lng": -1.6053}, {"city": "Feytiat", "lat": 45.8094, "lng": 1.3317}, {"city": "Pulnoy", "lat": 48.7011, "lng": 6.2583}, {"city": "Charbonnieres-les-Bains", "lat": 45.7806, "lng": 4.7464}, {"city": "Saint-Quentin-Fallavier", "lat": 45.6322, "lng": 5.1106}, {"city": "Canejan", "lat": 44.7631, "lng": -0.6547}, {"city": "Migne", "lat": 46.6267, "lng": 0.3136}, {"city": "Carry-le-Rouet", "lat": 43.3319, "lng": 5.1519}, {"city": "Chambourcy", "lat": 48.9061, "lng": 2.0403}, {"city": "Marly-la-Ville", "lat": 49.0808, "lng": 2.4994}, {"city": "Loon-Plage", "lat": 50.9942, "lng": 2.2197}, {"city": "Farebersviller", "lat": 49.1147, "lng": 6.8636}, {"city": "Saint-Denis-les-Bourg", "lat": 46.1997, "lng": 5.1922}, {"city": "Bonchamp-les-Laval", "lat": 48.0742, "lng": -0.7014}, {"city": "Jouars-Pontchartrain", "lat": 48.8031, "lng": 1.9014}, {"city": "Change", "lat": 48.1, "lng": -0.7908}, {"city": "Fronton", "lat": 43.8403, "lng": 1.3894}, {"city": "Mallemort", "lat": 43.7308, "lng": 5.1794}, {"city": "Altkirch", "lat": 47.6231, "lng": 7.2394}, {"city": "Delle", "lat": 47.5069, "lng": 6.9981}, {"city": "Mazan", "lat": 44.0567, "lng": 5.1281}, {"city": "Nouzonville", "lat": 49.815, "lng": 4.745}, {"city": "Nogent-sur-Seine", "lat": 48.4936, "lng": 3.5025}, {"city": "Octeville-sur-Mer", "lat": 49.5558, "lng": 0.1169}, {"city": "Mortagne-sur-Sevre", "lat": 46.9917, "lng": -0.9539}, {"city": "Ploneour-Lanvern", "lat": 47.9031, "lng": -4.2839}, {"city": "Saleilles", "lat": 42.6542, "lng": 2.9517}, {"city": "Elven", "lat": 47.7314, "lng": -2.5906}, {"city": "Noyal-sur-Vilaine", "lat": 48.1117, "lng": -1.5244}, {"city": "Mamers", "lat": 48.3494, "lng": 0.3694}, {"city": "Guer", "lat": 47.9039, "lng": -2.1206}, {"city": "Plescop", "lat": 47.6989, "lng": -2.8061}, {"city": "Izon", "lat": 44.9203, "lng": -0.3619}, {"city": "Heric", "lat": 47.4125, "lng": -1.6517}, {"city": "Sainghin-en-Weppes", "lat": 50.5625, "lng": 2.9006}, {"city": "Sarrians", "lat": 44.0833, "lng": 4.9711}, {"city": "Blanzy", "lat": 46.7039, "lng": 4.3903}, {"city": "Dives-sur-Mer", "lat": 49.2856, "lng": -0.1011}, {"city": "Nieul-sur-Mer", "lat": 46.2067, "lng": -1.1636}, {"city": "Vernaison", "lat": 45.6478, "lng": 4.8114}, {"city": "La Roquette-sur-Siagne", "lat": 43.58, "lng": 6.9556}, {"city": "La Ville-aux-Dames", "lat": 47.3958, "lng": 0.7644}, {"city": "Marnaz", "lat": 46.0592, "lng": 6.5258}, {"city": "Carentan", "lat": 49.3033, "lng": -1.2483}, {"city": "Lardy", "lat": 48.5222, "lng": 2.2653}, {"city": "Esvres", "lat": 47.2844, "lng": 0.7861}, {"city": "Aire-sur-l'Adour", "lat": 43.7031, "lng": -0.2628}, {"city": "Trans-en-Provence", "lat": 43.5033, "lng": 6.4861}, {"city": "Maule", "lat": 48.9089, "lng": 1.8483}, {"city": "Saint-Zacharie", "lat": 43.3842, "lng": 5.7067}, {"city": "Liverdun", "lat": 48.7503, "lng": 6.0619}, {"city": "Saint-Symphorien-d'Ozon", "lat": 45.6328, "lng": 4.8564}, {"city": "Saint-Jory", "lat": 43.7422, "lng": 1.3697}, {"city": "La Primaube", "lat": 44.3139, "lng": 2.535}, {"city": "Saint-Sebastien-de-Morsent", "lat": 49.0086, "lng": 1.0894}, {"city": "Prades-le-Lez", "lat": 43.6989, "lng": 3.8647}, {"city": "Vigneux-de-Bretagne", "lat": 47.3261, "lng": -1.7383}, {"city": "Vouneuil-sous-Biard", "lat": 46.5731, "lng": 0.2714}, {"city": "Fontenilles", "lat": 43.5531, "lng": 1.1911}, {"city": "Seichamps", "lat": 48.7158, "lng": 6.2661}, {"city": "Ternay", "lat": 45.6022, "lng": 4.8106}, {"city": "Revin", "lat": 49.9425, "lng": 4.6386}, {"city": "Thoiry", "lat": 46.2364, "lng": 5.9797}, {"city": "Vendenheim", "lat": 48.6675, "lng": 7.7131}, {"city": "Le Lavandou", "lat": 43.1378, "lng": 6.3678}, {"city": "Poussan", "lat": 43.4886, "lng": 3.67}, {"city": "Parmain", "lat": 49.1147, "lng": 2.2086}, {"city": "Doullens", "lat": 50.1567, "lng": 2.3403}, {"city": "Vaison-la-Romaine", "lat": 44.2408, "lng": 5.075}, {"city": "Dainville", "lat": 50.2819, "lng": 2.7272}, {"city": "Pierrefeu-du-Var", "lat": 43.2244, "lng": 6.1453}, {"city": "Magny-en-Vexin", "lat": 49.1544, "lng": 1.7867}, {"city": "Sainte-Sigolene", "lat": 45.2431, "lng": 4.2347}, {"city": "Naintre", "lat": 46.7636, "lng": 0.4864}, {"city": "Saint-Jorioz", "lat": 45.8336, "lng": 6.1639}, {"city": "Montbonnot-Saint-Martin", "lat": 45.2269, "lng": 5.8025}, {"city": "Clapiers", "lat": 43.6575, "lng": 3.8883}, {"city": "Riantec", "lat": 47.7108, "lng": -3.3106}, {"city": "Douvrin", "lat": 50.51, "lng": 2.8317}, {"city": "Fleurance", "lat": 43.8494, "lng": 0.6636}, {"city": "Lannemezan", "lat": 43.1239, "lng": 0.3847}, {"city": "Haute-Goulaine", "lat": 47.1989, "lng": -1.4286},