[{"city": "Torshavn", "lat": 62.0, "lng": -6.7833}, {"city": "Klaksvik", "lat": 62.2375, "lng": -6.539}, {"city": "Hvalba", "lat": 61.6, "lng": -6.9556}, {"city": "Skopun", "lat": 61.9125, "lng": -6.8719}, {"city": "Hvannasund", "lat": 62.2833, "lng": -6.5167}, {"city": "Toftir", "lat": 62.0978, "lng": -6.7369}, {"city": "Porkeri", "lat": 61.4814, "lng": -6.7458}, {"city": "Saltangara", "lat": 62.1156, "lng": -6.7206}, {"city": "Strendur", "lat": 62.1096, "lng": -6.7617}, {"city": "Tvoroyri", "lat": 61.5544, "lng": -6.8063}, {"city": "Fuglafjordhur", "lat": 62.2448, "lng": -6.815}, {"city": "Famjin", "lat": 61.5264, "lng": -6.8769}, {"city": "Vagur", "lat": 61.4733, "lng": -6.8175}, {"city": "Nordhragota", "lat": 62.199, "lng": -6.7432}, {"city": "Sorvagur", "lat": 62.0717, "lng": -7.3066}, {"city": "Oyrarbakki", "lat": 62.2079, "lng": -6.9997}, {"city": "Eidhi", "lat": 62.2995, "lng": -7.0924}, {"city": "Vestmanna", "lat": 62.1548, "lng": -7.169}, {"city": "Kvivik", "lat": 62.1186, "lng": -7.0737}, {"city": "Sumba", "lat": 61.4055, "lng": -6.709}, {"city": "Sandavagur", "lat": 62.0537, "lng": -7.1498}, {"city": "Hov", "lat": 61.5068, "lng": -6.7599}, {"city": "Vidhareidhi", "lat": 62.36, "lng": -6.5313}, {"city": "Sandur", "lat": 61.8344, "lng": -6.8171}, {"city": "Husavik", "lat": 61.8099, "lng": -6.6813}, {"city": "Kunoy", "lat": 62.2917, "lng": -6.6702}, {"city": "Skalavik", "lat": 61.8314, "lng": -6.6623}, {"city": "Kirkja", "lat": 62.3263, "lng": -6.3238}, {"city": "Skuvoy", "lat": 61.771, "lng": -6.805}]