[{"city": "Palikir", "lat": 6.9178, "lng": 158.185}, {"city": "Kolonia", "lat": 6.9639, "lng": 158.2081}, {"city": "Tofol", "lat": 5.3258, "lng": 163.0086}, {"city": "Weno", "lat": 7.45, "lng": 151.85}, {"city": "Colonia", "lat": 9.5144, "lng": 138.1292}]