[{"city": "Libreville", "lat": 0.3901, "lng": 9.4544}, {"city": "Port-Gentil", "lat": -0.7167, "lng": 8.7833}, {"city": "Oyem", "lat": 1.6, "lng": 11.5667}, {"city": "Franceville", "lat": -1.6333, "lng": 13.5833}, {"city": "Lambarene", "lat": -0.6883, "lng": 10.2319}, {"city": "Mouila", "lat": -1.8667, "lng": 11.055}, {"city": "Tchibanga", "lat": -2.9331, "lng": 10.9831}, {"city": "Makokou", "lat": 0.5667, "lng": 12.8667}, {"city": "Koulamoutou", "lat": -1.1333, "lng": 12.4833}, {"city": "Moanda", "lat": -1.5655, "lng": 13.2}, {"city": "Bitam", "lat": 2.0833, "lng": 11.4833}, {"city": "Mitzic", "lat": 0.7833, "lng": 11.5667}, {"city": "Mayumba", "lat": -3.4167, "lng": 10.65}, {"city": "Gamba", "lat": -2.65, "lng": 10.0}, {"city": "Okondja", "lat": -0.6829, "lng": 13.7833}, {"city": "Ndende", "lat": -2.3829, "lng": 11.3833}, {"city": "Mekambo", "lat": 1.0171, "lng": 13.9333}, {"city": "Omboue", "lat": -1.5662, "lng": 9.25}, {"city": "Bifoun", "lat": -0.3329, "lng": 10.3832}]