[{"city": "Bissau", "lat": 11.8592, "lng": -15.5956}, {"city": "Farim", "lat": 12.4833, "lng": -15.2167}, {"city": "Quinhamel", "lat": 11.8869, "lng": -15.8556}, {"city": "Catio", "lat": 11.2833, "lng": -15.25}, {"city": "Bafata", "lat": 12.1719, "lng": -14.6575}, {"city": "Gabu", "lat": 12.2833, "lng": -14.2167}, {"city": "Cacheu", "lat": 12.278, "lng": -16.165}, {"city": "Bolama", "lat": 11.5776, "lng": -15.4742}, {"city": "Buba", "lat": 11.59, "lng": -14.99}, {"city": "Mansoa", "lat": 12.0667, "lng": -15.3167}, {"city": "Fulacunda", "lat": 11.773, "lng": -15.195}]