[{"city": "Guatemala City", "lat": 14.6099, "lng": -90.5252}, {"city": "Villa Nueva", "lat": 14.5314, "lng": -90.5964}, {"city": "Coatepeque", "lat": 14.7, "lng": -91.8667}, {"city": "San Pedro Carcha", "lat": 15.4768, "lng": -90.312}, {"city": "Coban", "lat": 15.4833, "lng": -90.3667}, {"city": "Quetzaltenango", "lat": 14.8333, "lng": -91.5167}, {"city": "San Juan Sacatepequez", "lat": 14.7189, "lng": -90.6442}, {"city": "Jutiapa", "lat": 14.2917, "lng": -89.8958}, {"city": "Flores", "lat": 16.9333, "lng": -89.8833}, {"city": "Momostenango", "lat": 15.0444, "lng": -91.4083}, {"city": "San Luis", "lat": 16.2, "lng": -89.44}, {"city": "Nueva Concepcion", "lat": 14.1997, "lng": -91.2997}, {"city": "Santa Lucia Cotzumalguapa", "lat": 14.3333, "lng": -91.0167}, {"city": "Amatitlan", "lat": 14.4741, "lng": -90.6247}, {"city": "Jalapa", "lat": 14.6379, "lng": -89.9904}, {"city": "Totonicapan", "lat": 14.9108, "lng": -91.3606}, {"city": "Puerto Barrios", "lat": 15.73, "lng": -88.6}, {"city": "Escuintla", "lat": 14.3004, "lng": -90.78}, {"city": "Morales", "lat": 15.4725, "lng": -88.8414}, {"city": "Chichicastenango", "lat": 14.9442, "lng": -91.1105}, {"city": "Malacatan", "lat": 14.9106, "lng": -92.0581}, {"city": "Mazatenango", "lat": 14.5333, "lng": -91.5}, {"city": "Petapa", "lat": 14.4962, "lng": -90.5525}, {"city": "Chiquimula", "lat": 14.7833, "lng": -89.5333}, {"city": "Salama", "lat": 15.1052, "lng": -90.316}, {"city": "Zacapa", "lat": 14.9667, "lng": -89.5333}, {"city": "San Marcos", "lat": 14.9653, "lng": -91.7958}, {"city": "Solola", "lat": 14.7667, "lng": -91.1833}, {"city": "Antigua Guatemala", "lat": 14.5567, "lng": -90.7337}, {"city": "Huehuetenango", "lat": 15.3147, "lng": -91.4761}, {"city": "Chimaltenango", "lat": 14.6622, "lng": -90.8208}, {"city": "Retalhuleu", "lat": 14.5333, "lng": -91.6833}, {"city": "Santa Cruz del Quiche", "lat": 15.05, "lng": -91.25}, {"city": "Santiago Sacatepequez", "lat": 14.653, "lng": -90.6524}, {"city": "Cuilapa", "lat": 14.2783, "lng": -90.2992}, {"city": "Guastatoya", "lat": 14.8539, "lng": -90.0686}, {"city": "Senahu", "lat": 15.4164, "lng": -89.8203}, {"city": "Tacana", "lat": 15.2415, "lng": -92.0684}, {"city": "El Estor", "lat": 15.5333, "lng": -89.35}, {"city": "Panzos", "lat": 15.3986, "lng": -89.6408}, {"city": "San Cristobal Verapaz", "lat": 15.365, "lng": -90.4792}, {"city": "Livingston", "lat": 15.83, "lng": -88.75}, {"city": "Chinautla", "lat": 14.7029, "lng": -90.5}, {"city": "Fray Bartolome de Las Casas", "lat": 15.8456, "lng": -89.8658}, {"city": "Villa Canales", "lat": 14.4816, "lng": -90.534}, {"city": "Santa Maria La Pila", "lat": 15.6056, "lng": -89.8125}, {"city": "Chisec", "lat": 15.8125, "lng": -90.3217}, {"city": "San Pedro Sacatepequez", "lat": 14.9664, "lng": -91.7775}, {"city": "San Francisco El Alto", "lat": 14.95, "lng": -91.45}, {"city": "Purulha", "lat": 15.2353, "lng": -90.235}, {"city": "Los Amates", "lat": 15.2667, "lng": -89.1}, {"city": "Esquipulas", "lat": 14.6167, "lng": -89.2}, {"city": "Santa Catarina Pinula", "lat": 14.5644, "lng": -90.488}, {"city": "Palin", "lat": 14.4039, "lng": -90.6986}, {"city": "San Juan Chamelco", "lat": 15.4257, "lng": -90.3263}, {"city": "Nahuala", "lat": 14.8429, "lng": -91.317}, {"city": "Iztapa", "lat": 13.9331, "lng": -90.7075}, {"city": "Cubulco", "lat": 15.1083, "lng": -90.6306}, {"city": "Tecpan Guatemala", "lat": 14.7667, "lng": -91.0}, {"city": "Comitancillo", "lat": 15.0906, "lng": -91.7486}, {"city": "Sayaxche", "lat": 16.5167, "lng": -90.1833}, {"city": "Concepcion Tutuapa", "lat": 15.2833, "lng": -91.7833}, {"city": "Santa Maria Chiquimula", "lat": 15.0292, "lng": -91.3294}, {"city": "La Gomera", "lat": 14.0833, "lng": -91.05}, {"city": "Tiquisate", "lat": 14.2833, "lng": -91.3667}, {"city": "Tajumulco", "lat": 15.0839, "lng": -91.9233}, {"city": "Tucuru", "lat": 15.3, "lng": -90.0667}, {"city": "Cuyotenango", "lat": 14.5421, "lng": -91.5723}, {"city": "Gualan", "lat": 15.1333, "lng": -89.3667}, {"city": "Palencia", "lat": 14.6676, "lng": -90.3575}, {"city": "Santa Catarina Ixtahuacan", "lat": 14.8, "lng": -91.3667}, {"city": "San Francisco", "lat": 16.8017, "lng": -89.9342}, {"city": "San Jose Pinula", "lat": 14.5446, "lng": -90.4083}, {"city": "Santiago Atitlan", "lat": 14.6386, "lng": -91.2299}, {"city": "San Pedro Ayampuc", "lat": 14.7785, "lng": -90.4525}, {"city": "Rabinal", "lat": 15.0833, "lng": -90.4917}, {"city": "San Cristobal Totonicapan", "lat": 14.9197, "lng": -91.44}, {"city": "Poptun", "lat": 16.3222, "lng": -89.4222}, {"city": "Tactic", "lat": 15.3167, "lng": -90.3511}, {"city": "Uspantan", "lat": 15.3458, "lng": -90.8694}, {"city": "El Tumbador", "lat": 14.8667, "lng": -91.9333}, {"city": "Asuncion Mita", "lat": 14.3333, "lng": -89.7167}, {"city": "San Agustin Acasaguastlan", "lat": 14.95, "lng": -89.9667}, {"city": "Raxruha", "lat": 15.8666, "lng": -90.0424}, {"city": "Dolores", "lat": 16.5142, "lng": -89.4158}, {"city": "La Union", "lat": 14.9667, "lng": -89.2833}, {"city": "San Miguel Chicaj", "lat": 15.1, "lng": -90.4}, {"city": "Santa Cruz Verapaz", "lat": 15.3736, "lng": -90.4306}, {"city": "San Miguel Ixtahuacan", "lat": 15.25, "lng": -91.75}, {"city": "Champerico", "lat": 14.293, "lng": -91.914}, {"city": "Todos Santos Cuchumatan", "lat": 15.5116, "lng": -91.6051}, {"city": "Cantel", "lat": 14.8112, "lng": -91.4555}, {"city": "Ciudad Tecun Uman", "lat": 14.6833, "lng": -92.1333}, {"city": "Fraijanes", "lat": 14.4622, "lng": -90.4386}, {"city": "Sanarate", "lat": 14.795, "lng": -90.1922}, {"city": "Mataquescuintla", "lat": 14.5336, "lng": -90.1838}, {"city": "Olintepeque", "lat": 14.8833, "lng": -91.5167}, {"city": "San Andres Itzapa", "lat": 14.6167, "lng": -90.85}, {"city": "Santo Domingo Suchitepequez", "lat": 14.4667, "lng": -91.4833}, {"city": "Chajul", "lat": 15.4872, "lng": -91.0347}, {"city": "San Pedro Sacatepequez", "lat": 14.6862, "lng": -90.6423}, {"city": "San Andres Xecul", "lat": 14.9, "lng": -91.4833}, {"city": "Ciudad Vieja", "lat": 14.5233, "lng": -90.7667}, {"city": "San Agustin Chahal", "lat": 15.75, "lng": -89.5667}, {"city": "Nenton", "lat": 15.8012, "lng": -91.7552}, {"city": "Sibinal", "lat": 15.1333, "lng": -92.05}, {"city": "Ixchiguan", "lat": 15.1642, "lng": -91.9333}, {"city": "Lanquin", "lat": 15.5758, "lng": -89.9811}, {"city": "Colotenango", "lat": 15.4054, "lng": -91.7156}, {"city": "San Lucas Sacatepequez", "lat": 14.6095, "lng": -90.6568}, {"city": "San Juan Ixcoy", "lat": 15.6, "lng": -91.45}, {"city": "San Lucas Toliman", "lat": 14.6333, "lng": -91.1333}, {"city": "Santa Lucia La Reforma", "lat": 15.1333, "lng": -91.2333}, {"city": "La Blanca", "lat": 14.5791, "lng": -92.1414}, {"city": "San Martin Sacatepequez", "lat": 14.8246, "lng": -91.6425}, {"city": "Cabrican", "lat": 15.0768, "lng": -91.65}, {"city": "Tamahu", "lat": 15.3069, "lng": -90.2342}, {"city": "Puerto San Jose", "lat": 13.9333, "lng": -90.8167}, {"city": "Comapa", "lat": 14.1114, "lng": -89.7497}, {"city": "Olopa", "lat": 14.6833, "lng": -89.35}, {"city": "Santa Lucia Utatlan", "lat": 14.7667, "lng": -91.2667}, {"city": "El Tejar", "lat": 14.65, "lng": -90.8}, {"city": "Taxisco", "lat": 14.0716, "lng": -90.4645}, {"city": "La Democracia", "lat": 14.2308, "lng": -90.9472}, {"city": "San Raimundo", "lat": 14.7647, "lng": -90.5956}, {"city": "Zacualpa", "lat": 15.0272, "lng": -90.8778}, {"city": "El Progreso", "lat": 14.35, "lng": -89.85}, {"city": "San Andres Villa Seca", "lat": 14.5667, "lng": -91.5833}, {"city": "Siquinala", "lat": 14.3082, "lng": -90.9659}, {"city": "Ocos", "lat": 14.5138, "lng": -92.1909}, {"city": "Teculutan", "lat": 14.9877, "lng": -89.717}, {"city": "Ciudad Melchor de Mencos", "lat": 17.0667, "lng": -89.15}, {"city": "San Jose Ojetenam", "lat": 15.2167, "lng": -91.9667}, {"city": "San Antonio Sacatepequez", "lat": 14.9667, "lng": -91.7333}, {"city": "El Quetzal", "lat": 14.7667, "lng": -91.8167}, {"city": "Salcaja", "lat": 14.8833, "lng": -91.45}, {"city": "Huitan", "lat": 15.0486, "lng": -91.64}, {"city": "Yupiltepeque", "lat": 14.1941, "lng": -89.7913}, {"city": "Almolonga", "lat": 14.8122, "lng": -91.4944}, {"city": "San Felipe", "lat": 14.6206, "lng": -91.5961}, {"city": "Sipacapa", "lat": 15.2128, "lng": -91.6342}, {"city": "Alotenango", "lat": 14.4878, "lng": -90.8058}, {"city": "Cajola", "lat": 14.9252, "lng": -91.616}, {"city": "Palestina de los Altos", "lat": 14.9333, "lng": -91.7}, {"city": "Pajapita", "lat": 14.7243, "lng": -92.0334}, {"city": "Santa Cruz Naranjo", "lat": 14.3833, "lng": -90.3667}, {"city": "San Cristobal Cucho", "lat": 14.9, "lng": -91.7833}, {"city": "Guanagazapa", "lat": 14.2333, "lng": -90.65}, {"city": "Atescatempa", "lat": 14.175, "lng": -89.7417}, {"city": "Santa Maria de Jesus", "lat": 14.4933, "lng": -90.7094}, {"city": "San Rafael Pie de la Cuesta", "lat": 14.9333, "lng": -91.9167}, {"city": "Conguaco", "lat": 14.047, "lng": -90.0336}, {"city": "San Antonio La Paz", "lat": 14.75, "lng": -90.2833}, {"city": "Cabanas", "lat": 14.9333, "lng": -89.8}, {"city": "Pastores", "lat": 14.5967, "lng": -90.7547}, {"city": "Guazacapan", "lat": 14.0751, "lng": -90.4161}, {"city": "San Bartolo", "lat": 15.0844, "lng": -91.4558}, {"city": "San Jorge", "lat": 14.9253, "lng": -89.5897}, {"city": "Agua Blanca", "lat": 14.4833, "lng": -89.6494}, {"city": "Usumatlan", "lat": 14.9489, "lng": -89.7767}, {"city": "Chiquimulilla", "lat": 14.0858, "lng": -90.3822}, {"city": "Zunil", "lat": 14.7836, "lng": -91.4844}, {"city": "San Antonio Palopo", "lat": 14.7, "lng": -91.1167}, {"city": "Huite", "lat": 14.9175, "lng": -89.7172}, {"city": "El Palmar", "lat": 14.65, "lng": -91.5833}, {"city": "Esquipulas Palo Gordo", "lat": 14.9333, "lng": -91.8167}, {"city": "Panajachel", "lat": 14.7361, "lng": -91.1558}, {"city": "Morazan", "lat": 14.9322, "lng": -90.1433}, {"city": "Sansare", "lat": 14.7478, "lng": -90.1158}, {"city": "Santa Ana Huista", "lat": 15.6833, "lng": -91.8167}, {"city": "Estanzuela", "lat": 14.9979, "lng": -89.5705}, {"city": "San Pedro La Laguna", "lat": 14.6918, "lng": -91.273}, {"city": "El Chol", "lat": 14.9611, "lng": -90.4878}, {"city": "San Juan La Laguna", "lat": 14.7, "lng": -91.2833}, {"city": "Santa Clara La Laguna", "lat": 14.7167, "lng": -91.3}, {"city": "Sipacate", "lat": 13.9333, "lng": -91.15}, {"city": "Jerez", "lat": 14.1, "lng": -89.75}, {"city": "Canilla", "lat": 15.1671, "lng": -90.8481}, {"city": "La Libertad", "lat": 16.7804, "lng": -90.12}, {"city": "Sibilia", "lat": 15.0, "lng": -91.6167}, {"city": "Chinique", "lat": 15.0411, "lng": -91.0269}, {"city": "Santa Ana", "lat": 16.8069, "lng": -89.8272}, {"city": "San Diego", "lat": 14.7833, "lng": -89.7833}, {"city": "San Miguel Siguila", "lat": 14.9, "lng": -91.6167}, {"city": "San Vicente Pacaya", "lat": 14.4161, "lng": -90.6392}, {"city": "Chuarrancho", "lat": 14.8167, "lng": -90.5167}, {"city": "San Cristobal Acasaguastlan", "lat": 14.9189, "lng": -89.8722}, {"city": "San Miguel Panan", "lat": 14.5333, "lng": -91.3667}, {"city": "San Jose del Golfo", "lat": 14.7629, "lng": -90.3726}]