[{"city": "Comayaguela", "lat": 14.0833, "lng": -87.2167}, {"city": "Tegucigalpa", "lat": 14.0942, "lng": -87.2067}, {"city": "San Pedro Sula", "lat": 15.5, "lng": -88.0333}, {"city": "Choloma", "lat": 15.6333, "lng": -88.0}, {"city": "La Ceiba", "lat": 15.78, "lng": -86.7878}, {"city": "Puerto Cortes", "lat": 15.8833, "lng": -87.95}, {"city": "Villanueva", "lat": 15.3167, "lng": -88.0167}, {"city": "Comayagua", "lat": 14.46, "lng": -87.65}, {"city": "El Progreso", "lat": 15.4, "lng": -87.8}, {"city": "Ciudad Choluteca", "lat": 13.3167, "lng": -87.2167}, {"city": "Yoro", "lat": 15.1333, "lng": -87.1333}, {"city": "Santa Rosa de Copan", "lat": 14.7667, "lng": -88.7833}, {"city": "Gracias", "lat": 14.5833, "lng": -88.5833}, {"city": "La Paz", "lat": 14.3169, "lng": -87.6831}, {"city": "Juticalpa", "lat": 14.6664, "lng": -86.2186}, {"city": "Trujillo", "lat": 15.9167, "lng": -86.0}, {"city": "Santa Barbara", "lat": 14.9167, "lng": -88.2333}, {"city": "La Esperanza", "lat": 14.3, "lng": -88.1833}, {"city": "Nacaome", "lat": 13.5333, "lng": -87.4833}, {"city": "Yuscaran", "lat": 13.9433, "lng": -86.8667}, {"city": "Roatan", "lat": 16.33, "lng": -86.519}, {"city": "Nueva Ocotepeque", "lat": 14.4333, "lng": -89.1833}, {"city": "Puerto Lempira", "lat": 15.2653, "lng": -83.7744}, {"city": "Tela", "lat": 15.7833, "lng": -87.4667}, {"city": "La Lima", "lat": 15.433, "lng": -87.917}, {"city": "Tocoa", "lat": 15.6833, "lng": -86.0}, {"city": "Catacamas", "lat": 14.8, "lng": -85.9}, {"city": "San Lorenzo", "lat": 13.3667, "lng": -87.2667}, {"city": "Copan", "lat": 14.8333, "lng": -89.15}, {"city": "Siguatepeque", "lat": 14.6, "lng": -87.8333}, {"city": "Olanchito", "lat": 15.4833, "lng": -86.5833}, {"city": "Cofradia", "lat": 15.4168, "lng": -88.1603}, {"city": "Yorito", "lat": 15.06, "lng": -87.29}, {"city": "San Marcos", "lat": 14.4, "lng": -88.95}, {"city": "La Entrada", "lat": 15.05, "lng": -88.7333}, {"city": "Talanga", "lat": 14.4, "lng": -87.0833}, {"city": "San Francisco", "lat": 15.6667, "lng": -87.0333}, {"city": "La Alianza", "lat": 13.5167, "lng": -87.7167}, {"city": "Brus Laguna", "lat": 15.75, "lng": -84.4833}]