[{"city": "Seoul", "lat": 37.56, "lng": 126.99}, {"city": "Busan", "lat": 35.1, "lng": 129.0403}, {"city": "Incheon", "lat": 37.4639, "lng": 126.6486}, {"city": "Daegu", "lat": 35.8667, "lng": 128.6}, {"city": "Gwangju", "lat": 35.1667, "lng": 126.9167}, {"city": "Daejeon", "lat": 36.351, "lng": 127.385}, {"city": "Suwon", "lat": 37.2858, "lng": 127.01}, {"city": "Ulsan", "lat": 35.55, "lng": 129.3167}, {"city": "Goyang", "lat": 37.6564, "lng": 126.835}, {"city": "Changwon", "lat": 35.2281, "lng": 128.6811}, {"city": "Songnam", "lat": 37.4386, "lng": 127.1378}, {"city": "Bucheon", "lat": 37.4989, "lng": 126.7831}, {"city": "Cheongju", "lat": 36.6372, "lng": 127.4897}, {"city": "Yanggok", "lat": 37.6367, "lng": 127.2142}, {"city": "Ansan", "lat": 37.3236, "lng": 126.8219}, {"city": "Hwasu-dong", "lat": 37.2, "lng": 126.7667}, {"city": "Ch'onan", "lat": 36.8064, "lng": 127.1522}, {"city": "Jeonju", "lat": 35.8219, "lng": 127.1489}, {"city": "Anyang", "lat": 37.3925, "lng": 126.9269}, {"city": "Pohang", "lat": 36.0322, "lng": 129.365}, {"city": "Pyeongtaek", "lat": 36.9947, "lng": 127.0889}, {"city": "Jeju", "lat": 33.5097, "lng": 126.5219}, {"city": "Masan", "lat": 35.1833, "lng": 128.55}, {"city": "Sihung", "lat": 37.3803, "lng": 126.803}, {"city": "Uijeongbu", "lat": 37.7486, "lng": 127.0389}, {"city": "Paju", "lat": 37.8328, "lng": 126.8169}, {"city": "Gimpo", "lat": 37.6236, "lng": 126.7142}, {"city": "Yeosu", "lat": 34.7368, "lng": 127.7458}, {"city": "Chinju", "lat": 35.1928, "lng": 128.0847}, {"city": "Wonju", "lat": 37.3417, "lng": 127.9208}, {"city": "Gwangmyeongni", "lat": 37.4772, "lng": 126.8664}, {"city": "Asan", "lat": 36.35, "lng": 126.9167}, {"city": "Iksan", "lat": 35.9439, "lng": 126.9544}, {"city": "Yangsan", "lat": 35.3386, "lng": 129.0386}, {"city": "Kunp'o", "lat": 37.3675, "lng": 126.9469}, {"city": "Chuncheon", "lat": 37.8747, "lng": 127.7342}, {"city": "Gyeongsan", "lat": 35.8167, "lng": 128.7333}, {"city": "Kunsan", "lat": 35.9786, "lng": 126.7114}, {"city": "Yeosu", "lat": 34.7607, "lng": 127.6622}, {"city": "Suncheon", "lat": 34.9506, "lng": 127.4875}, {"city": "Kyongju", "lat": 35.85, "lng": 129.2167}, {"city": "Mokpo", "lat": 34.7936, "lng": 126.3886}, {"city": "Osan", "lat": 37.145, "lng": 127.0694}, {"city": "Gangneung", "lat": 37.7556, "lng": 128.8961}, {"city": "Chungju", "lat": 36.9706, "lng": 127.9322}, {"city": "Ich'on", "lat": 37.2792, "lng": 127.4425}, {"city": "Anseong", "lat": 37.0078, "lng": 127.2797}, {"city": "Guri", "lat": 37.5947, "lng": 127.1428}, {"city": "Sosan", "lat": 36.7817, "lng": 126.4522}, {"city": "Pocheon", "lat": 37.8944, "lng": 127.1992}, {"city": "Andong", "lat": 36.5656, "lng": 128.725}, {"city": "Uiwang", "lat": 37.3447, "lng": 126.9683}, {"city": "Hanam", "lat": 37.5392, "lng": 127.2147}, {"city": "Seogwipo", "lat": 33.2497, "lng": 126.56}, {"city": "Gwangyang", "lat": 34.9403, "lng": 127.7017}, {"city": "Ch'ungmu", "lat": 34.8458, "lng": 128.4236}, {"city": "Chech'on", "lat": 37.1361, "lng": 128.2119}, {"city": "Noksan", "lat": 36.2039, "lng": 127.0847}, {"city": "Sa-ch'on", "lat": 35.2347, "lng": 128.3575}, {"city": "Jeonghae", "lat": 35.5653, "lng": 126.8561}, {"city": "Yoju", "lat": 37.2939, "lng": 127.6383}, {"city": "Yongju", "lat": 36.8747, "lng": 128.5864}, {"city": "Miryang", "lat": 35.4933, "lng": 128.7489}, {"city": "Sangju", "lat": 36.4153, "lng": 128.1606}, {"city": "Boryeong", "lat": 36.3333, "lng": 126.6167}, {"city": "Sejong", "lat": 36.6092, "lng": 127.2919}, {"city": "Hongseong", "lat": 36.6009, "lng": 126.665}, {"city": "Muan", "lat": 34.9897, "lng": 126.4714}, {"city": "Dongducheon", "lat": 37.9133, "lng": 127.0633}, {"city": "Naju", "lat": 35.0283, "lng": 126.7175}, {"city": "Sokcho", "lat": 38.2083, "lng": 128.5911}, {"city": "Mun'gyong", "lat": 36.5939, "lng": 128.2014}, {"city": "Samch'ok", "lat": 37.4406, "lng": 129.1708}, {"city": "Gwacheon", "lat": 37.4289, "lng": 126.9892}, {"city": "Taebaek", "lat": 37.1731, "lng": 128.9861}, {"city": "Ulchin", "lat": 37.0013, "lng": 129.3449}, {"city": "Eumseong", "lat": 36.9353, "lng": 127.6897}]