[{"city": "Vientiane", "lat": 17.9667, "lng": 102.6}, {"city": "Pakxe", "lat": 15.1167, "lng": 105.7833}, {"city": "Savannakhet", "lat": 16.55, "lng": 104.75}, {"city": "Thakhek", "lat": 17.4, "lng": 104.8}, {"city": "Louangphabang", "lat": 19.8931, "lng": 102.1381}, {"city": "Xam Nua", "lat": 20.4133, "lng": 104.048}, {"city": "Phonsavan", "lat": 19.45, "lng": 103.2}, {"city": "Attapu", "lat": 14.8, "lng": 106.8333}, {"city": "Ban Houayxay", "lat": 20.2833, "lng": 100.4167}, {"city": "Xaignabouli", "lat": 19.2575, "lng": 101.7103}, {"city": "Phongsali", "lat": 21.6833, "lng": 102.1}, {"city": "Salavan", "lat": 15.7167, "lng": 106.4167}, {"city": "Louang Namtha", "lat": 20.95, "lng": 101.4167}, {"city": "Xai", "lat": 20.7, "lng": 101.8167}, {"city": "Xekong", "lat": 15.3503, "lng": 106.7286}, {"city": "Pakxan", "lat": 18.3831, "lng": 103.6669}, {"city": "Anouvong", "lat": 18.8989, "lng": 103.0919}, {"city": "Phon-Hong", "lat": 18.4953, "lng": 102.4153}, {"city": "Champasak", "lat": 14.8833, "lng": 105.8667}]