[{"city": "Riga", "lat": 56.9475, "lng": 24.1069}, {"city": "Daugavpils", "lat": 55.8714, "lng": 26.5161}, {"city": "Liepaja", "lat": 56.5083, "lng": 21.0111}, {"city": "Jelgava", "lat": 56.6522, "lng": 23.7244}, {"city": "Jurmala", "lat": 56.9722, "lng": 23.7969}, {"city": "Ventspils", "lat": 57.3897, "lng": 21.5644}, {"city": "Rezekne", "lat": 56.5067, "lng": 27.3308}, {"city": "Valmiera", "lat": 57.5381, "lng": 25.4231}, {"city": "Ogre", "lat": 56.8169, "lng": 24.6047}, {"city": "Jekabpils", "lat": 56.4975, "lng": 25.8664}, {"city": "Salaspils", "lat": 56.8614, "lng": 24.35}, {"city": "Marupe", "lat": 56.9069, "lng": 24.0575}, {"city": "Tukums", "lat": 56.9669, "lng": 23.1531}, {"city": "Cesis", "lat": 57.3131, "lng": 25.2747}, {"city": "Sigulda", "lat": 57.1539, "lng": 24.8544}, {"city": "Olaine", "lat": 56.7844, "lng": 23.9369}, {"city": "Kuldiga", "lat": 56.9672, "lng": 21.97}, {"city": "Bauska", "lat": 56.4067, "lng": 24.1875}, {"city": "Saldus", "lat": 56.6667, "lng": 22.4936}, {"city": "Talsi", "lat": 57.2447, "lng": 22.5889}, {"city": "Dobele", "lat": 56.6258, "lng": 23.2811}, {"city": "Ludza", "lat": 56.5439, "lng": 27.7211}, {"city": "Kraslava", "lat": 55.8956, "lng": 27.1644}, {"city": "Adazi", "lat": 57.0769, "lng": 24.3236}, {"city": "Aizkraukle", "lat": 56.6008, "lng": 25.255}, {"city": "Livani", "lat": 56.3539, "lng": 26.1761}, {"city": "Gulbene", "lat": 57.175, "lng": 26.7564}, {"city": "Limbazi", "lat": 57.5147, "lng": 24.7131}, {"city": "Madona", "lat": 56.8542, "lng": 26.22}, {"city": "Aluksne", "lat": 57.4239, "lng": 27.0503}, {"city": "Preili", "lat": 56.2942, "lng": 26.7247}, {"city": "Balvi", "lat": 57.1292, "lng": 27.2667}, {"city": "Kekava", "lat": 56.8266, "lng": 24.23}, {"city": "Smiltene", "lat": 57.4242, "lng": 25.9064}, {"city": "Valka", "lat": 57.7753, "lng": 26.0214}, {"city": "Ulbroka", "lat": 56.9408, "lng": 24.2861}, {"city": "Saulkrasti", "lat": 57.2636, "lng": 24.4164}, {"city": "Varaklani", "lat": 56.6078, "lng": 26.755}, {"city": "Ropazi", "lat": 56.9718, "lng": 24.6318}, {"city": "Ikskile", "lat": 56.8367, "lng": 24.4964}, {"city": "Balozi", "lat": 56.875, "lng": 24.1194}, {"city": "Lielvarde", "lat": 56.7175, "lng": 24.8106}, {"city": "Iecava", "lat": 56.6, "lng": 24.2}]