[{"city": "Antananarivo", "lat": -18.9386, "lng": 47.5214}, {"city": "Antsirabe", "lat": -19.8667, "lng": 47.0333}, {"city": "Toamasina", "lat": -18.1492, "lng": 49.4023}, {"city": "Fianarantsoa", "lat": -21.4333, "lng": 47.0833}, {"city": "Mahajanga", "lat": -15.67, "lng": 46.345}, {"city": "Toliara", "lat": -23.35, "lng": 43.6667}, {"city": "Antsiranana", "lat": -12.2765, "lng": 49.3115}, {"city": "Farafangana", "lat": -22.8166, "lng": 47.8332}, {"city": "Tolanaro", "lat": -25.0325, "lng": 46.9833}, {"city": "Antalaha", "lat": -14.8833, "lng": 50.2833}, {"city": "Sambava", "lat": -14.2662, "lng": 50.1666}, {"city": "Ambatondrazaka", "lat": -17.8329, "lng": 48.4167}, {"city": "Maroantsetra", "lat": -15.4333, "lng": 49.7333}, {"city": "Morondava", "lat": -20.2833, "lng": 44.2833}, {"city": "Marovoay", "lat": -16.0995, "lng": 46.6333}, {"city": "Ambanja", "lat": -13.6786, "lng": 48.4522}, {"city": "Mananjary", "lat": -21.2167, "lng": 48.3333}, {"city": "Andoany", "lat": -13.4, "lng": 48.2666}, {"city": "Antsohihy", "lat": -14.8661, "lng": 47.9834}, {"city": "Miandrivazo", "lat": -19.5162, "lng": 45.4666}, {"city": "Ihosy", "lat": -22.3996, "lng": 46.1167}, {"city": "Morombe", "lat": -21.7391, "lng": 43.3657}, {"city": "Iharana", "lat": -13.375, "lng": 50.01}, {"city": "Maintirano", "lat": -18.0666, "lng": 44.0167}, {"city": "Mandritsara", "lat": -15.8328, "lng": 48.8166}, {"city": "Bekily", "lat": -24.2162, "lng": 45.3166}, {"city": "Manja", "lat": -21.4329, "lng": 44.3333}, {"city": "Besalampy", "lat": -16.7495, "lng": 44.4833}, {"city": "Androka", "lat": -25.0219, "lng": 44.0749}]