[{"city": "Valletta", "lat": 35.8978, "lng": 14.5125}, {"city": "Birkirkara", "lat": 35.9, "lng": 14.4667}, {"city": "Sliema", "lat": 35.9122, "lng": 14.5042}, {"city": "Mosta", "lat": 35.9, "lng": 14.4333}, {"city": "Saint Paul's Bay", "lat": 35.9483, "lng": 14.4017}, {"city": "Fgura", "lat": 35.8725, "lng": 14.5228}, {"city": "Qormi", "lat": 35.8794, "lng": 14.4722}, {"city": "Zabbar", "lat": 35.8772, "lng": 14.5381}, {"city": "San Gwann", "lat": 35.9094, "lng": 14.4786}, {"city": "Tarxien", "lat": 35.865, "lng": 14.5111}, {"city": "Naxxar", "lat": 35.915, "lng": 14.4447}, {"city": "Marsaskala", "lat": 35.8625, "lng": 14.5675}, {"city": "Imsida", "lat": 35.8978, "lng": 14.4894}, {"city": "Gzira", "lat": 35.905, "lng": 14.4939}, {"city": "Swieqi", "lat": 35.9208, "lng": 14.48}, {"city": "Zebbug", "lat": 35.8733, "lng": 14.4417}, {"city": "Zejtun", "lat": 35.8556, "lng": 14.5333}, {"city": "Santa Venera", "lat": 35.8903, "lng": 14.4778}, {"city": "San Giljan", "lat": 35.9186, "lng": 14.49}, {"city": "Attard", "lat": 35.9, "lng": 14.45}, {"city": "Rabat", "lat": 35.8817, "lng": 14.3989}, {"city": "Zurrieq", "lat": 35.8292, "lng": 14.4744}, {"city": "Paola", "lat": 35.8728, "lng": 14.5075}, {"city": "Birzebbuga", "lat": 35.8267, "lng": 14.5278}, {"city": "Mellieha", "lat": 35.95, "lng": 14.3667}, {"city": "Hamrun", "lat": 35.8861, "lng": 14.4894}, {"city": "Pieta", "lat": 35.8833, "lng": 14.4833}, {"city": "Victoria", "lat": 36.05, "lng": 14.25}, {"city": "Senglea", "lat": 35.8878, "lng": 14.5169}, {"city": "Siggiewi", "lat": 35.8542, "lng": 14.4383}, {"city": "Cospicua", "lat": 35.8822, "lng": 14.5222}, {"city": "Balzan", "lat": 35.8975, "lng": 14.4533}, {"city": "Ta' Xbiex", "lat": 35.8992, "lng": 14.4981}, {"city": "Luqa", "lat": 35.8597, "lng": 14.4892}, {"city": "Vittoriosa", "lat": 35.8881, "lng": 14.5225}, {"city": "Marsa", "lat": 35.8833, "lng": 14.4947}, {"city": "Ghaxaq", "lat": 35.8483, "lng": 14.5172}, {"city": "Lija", "lat": 35.9014, "lng": 14.4472}, {"city": "Xaghra", "lat": 36.0503, "lng": 14.2675}, {"city": "Pembroke", "lat": 35.9264, "lng": 14.4808}, {"city": "Nadur", "lat": 36.0381, "lng": 14.295}, {"city": "Iklin", "lat": 35.9042, "lng": 14.4544}, {"city": "Floriana", "lat": 35.8933, "lng": 14.5058}, {"city": "Kalkara", "lat": 35.8892, "lng": 14.5294}, {"city": "Imqabba", "lat": 35.8442, "lng": 14.4669}, {"city": "Gudja", "lat": 35.8483, "lng": 14.5025}, {"city": "Marsaxlokk", "lat": 35.8417, "lng": 14.5447}, {"city": "Dingli", "lat": 35.8603, "lng": 14.3814}, {"city": "Kirkop", "lat": 35.8419, "lng": 14.485}, {"city": "Gharghur", "lat": 35.9241, "lng": 14.4534}, {"city": "Xewkija", "lat": 36.0331, "lng": 14.2583}, {"city": "Imgarr", "lat": 35.9197, "lng": 14.3664}, {"city": "Imtarfa", "lat": 35.8908, "lng": 14.3969}, {"city": "Xghajra", "lat": 35.8864, "lng": 14.5472}, {"city": "Qrendi", "lat": 35.8342, "lng": 14.4589}, {"city": "Ghajnsielem", "lat": 36.0269, "lng": 14.2903}, {"city": "Safi", "lat": 35.8333, "lng": 14.485}, {"city": "Fontana", "lat": 36.0364, "lng": 14.2422}, {"city": "Sannat", "lat": 36.0244, "lng": 14.2458}, {"city": "Qala", "lat": 36.0353, "lng": 14.3103}, {"city": "Kercem", "lat": 36.0406, "lng": 14.2297}, {"city": "Munxar", "lat": 36.0303, "lng": 14.2353}, {"city": "Gharb", "lat": 36.0611, "lng": 14.2092}, {"city": "San Lawrenz", "lat": 36.055, "lng": 14.2042}, {"city": "Imdina", "lat": 35.8858, "lng": 14.4031}, {"city": "Ghasri", "lat": 36.0583, "lng": 14.2278}, {"city": "Santa Lucija", "lat": 36.0431, "lng": 14.2172}, {"city": "Zebbug", "lat": 36.0722, "lng": 14.2358}]