[{"city": "Niamey", "lat": 13.5086, "lng": 2.1111}, {"city": "Maradi", "lat": 13.5, "lng": 7.1}, {"city": "Zinder", "lat": 13.8, "lng": 8.9833}, {"city": "Agadez", "lat": 16.9959, "lng": 7.9828}, {"city": "Tahoua", "lat": 14.9, "lng": 5.2599}, {"city": "Dosso", "lat": 13.05, "lng": 3.2}, {"city": "Diffa", "lat": 13.3171, "lng": 12.6089}, {"city": "Tillaberi", "lat": 14.212, "lng": 1.4531}, {"city": "Arlit", "lat": 18.7333, "lng": 7.3833}, {"city": "Birnin Konni", "lat": 13.7904, "lng": 5.2599}, {"city": "Gaya", "lat": 11.8878, "lng": 3.4467}, {"city": "Ayorou", "lat": 14.7318, "lng": 0.9195}, {"city": "Madaoua", "lat": 14.0762, "lng": 5.9586}, {"city": "Nguigmi", "lat": 14.2532, "lng": 13.1108}, {"city": "Guidan Roumdji", "lat": 13.6575, "lng": 6.6958}, {"city": "Baleyara", "lat": 13.7841, "lng": 2.9515}, {"city": "Goure", "lat": 13.9874, "lng": 10.27}, {"city": "Galmi", "lat": 13.9667, "lng": 5.6744}, {"city": "Kawara", "lat": 14.0706, "lng": 5.6715}, {"city": "Takieta", "lat": 13.6806, "lng": 8.5292}, {"city": "Dabnou", "lat": 14.1571, "lng": 5.3626}, {"city": "Bani Bangou", "lat": 15.0408, "lng": 2.705}, {"city": "Tyourout", "lat": 14.1542, "lng": 5.4391}, {"city": "Kouli Kouara", "lat": 13.8718, "lng": 1.4867}, {"city": "Tounfafi", "lat": 14.0464, "lng": 5.9812}, {"city": "Bandio", "lat": 13.8888, "lng": 1.0896}, {"city": "Toulou", "lat": 14.1688, "lng": 5.199}, {"city": "Gidan Ider", "lat": 14.0131, "lng": 5.3185}, {"city": "Baguey", "lat": 14.8503, "lng": 5.5636}, {"city": "Birnin Kazoe", "lat": 14.2171, "lng": 9.9702}, {"city": "Yaama", "lat": 14.3601, "lng": 5.4975}, {"city": "Dafawa", "lat": 14.1371, "lng": 5.0637}, {"city": "Taza", "lat": 15.3608, "lng": 5.2072}, {"city": "Angoul Denya", "lat": 14.3433, "lng": 5.7002}, {"city": "Dosey", "lat": 13.8825, "lng": 5.1928}, {"city": "Toubout", "lat": 14.3387, "lng": 5.5951}, {"city": "Laba", "lat": 14.6187, "lng": 5.9375}, {"city": "Moussadeye", "lat": 13.3918, "lng": 3.1952}, {"city": "Bakin Birji I", "lat": 14.2565, "lng": 8.7943}, {"city": "Sokole", "lat": 14.8347, "lng": 5.7036}, {"city": "Nasarawa", "lat": 14.0821, "lng": 5.8153}, {"city": "Madeta II", "lat": 14.2713, "lng": 6.014}, {"city": "Aouloumal", "lat": 14.2283, "lng": 6.0301}, {"city": "Belbeji", "lat": 14.6811, "lng": 7.9949}, {"city": "Hamdallay", "lat": 13.5572, "lng": 2.4064}, {"city": "Asoudie", "lat": 14.3841, "lng": 5.7345}, {"city": "Sabon Birni", "lat": 11.8847, "lng": 3.5931}, {"city": "Dindi", "lat": 14.4179, "lng": 5.6135}, {"city": "Dan Kori", "lat": 13.9109, "lng": 7.9719}, {"city": "Masalata", "lat": 13.7795, "lng": 5.2077}, {"city": "Garadoume", "lat": 14.3671, "lng": 5.8841}, {"city": "Kelente", "lat": 14.3234, "lng": 5.8087}, {"city": "Toudouni", "lat": 14.7398, "lng": 5.4578}, {"city": "Djibale", "lat": 14.5007, "lng": 5.9857}, {"city": "Kaora Abdou", "lat": 14.4525, "lng": 5.6604}, {"city": "Bouti", "lat": 13.9872, "lng": 11.3333}, {"city": "Koundoumawa", "lat": 13.6702, "lng": 8.3627}, {"city": "Soubdou", "lat": 13.8146, "lng": 10.5399}, {"city": "Riadi Dan Bizo", "lat": 13.4334, "lng": 7.1399}, {"city": "Souloulou", "lat": 13.6127, "lng": 6.4177}, {"city": "Moulela", "lat": 14.6338, "lng": 4.9575}, {"city": "Nakoni", "lat": 14.1094, "lng": 5.9159}, {"city": "Gandasamou", "lat": 14.1938, "lng": 6.0669}, {"city": "Sabonkafi", "lat": 14.6416, "lng": 8.7449}, {"city": "Jambriji", "lat": 13.407, "lng": 9.4426}, {"city": "Malgorou", "lat": 12.1733, "lng": 3.4633}, {"city": "Dan Gona", "lat": 14.2697, "lng": 5.0383}, {"city": "Diambala", "lat": 14.3145, "lng": 1.2988}, {"city": "Djado", "lat": 21.015, "lng": 12.3075}]