[{"city": "Lagos", "lat": 6.45, "lng": 3.4}, {"city": "Kano", "lat": 12.0, "lng": 8.5167}, {"city": "Ibadan", "lat": 7.3964, "lng": 3.9167}, {"city": "Aba", "lat": 5.1167, "lng": 7.3667}, {"city": "Onitsha", "lat": 6.1667, "lng": 6.7833}, {"city": "Abuja", "lat": 9.0556, "lng": 7.4914}, {"city": "Maiduguri", "lat": 11.8333, "lng": 13.15}, {"city": "Benin City", "lat": 6.3176, "lng": 5.6145}, {"city": "Ikare", "lat": 7.5304, "lng": 5.76}, {"city": "Ogbomoso", "lat": 8.1333, "lng": 4.25}, {"city": "Port Harcourt", "lat": 4.75, "lng": 7.0}, {"city": "Owerri", "lat": 5.4833, "lng": 7.0333}, {"city": "Abeokuta", "lat": 7.15, "lng": 3.35}, {"city": "Ikeja", "lat": 6.6186, "lng": 3.3426}, {"city": "Akure", "lat": 7.25, "lng": 5.195}, {"city": "Ilorin", "lat": 8.5, "lng": 4.55}, {"city": "Warri", "lat": 5.5167, "lng": 5.75}, {"city": "Kaduna", "lat": 10.5105, "lng": 7.4165}, {"city": "Osogbo", "lat": 7.7597, "lng": 4.5761}, {"city": "Enugu", "lat": 6.4403, "lng": 7.4942}, {"city": "Bauchi", "lat": 10.3158, "lng": 9.8442}, {"city": "Jalingo", "lat": 8.9195, "lng": 11.3264}, {"city": "Jos", "lat": 9.9333, "lng": 8.8833}, {"city": "Ile-Ife", "lat": 7.4667, "lng": 4.5667}, {"city": "Calabar", "lat": 4.95, "lng": 8.325}, {"city": "Ado-Ekiti", "lat": 7.6167, "lng": 5.2167}, {"city": "Uyo", "lat": 5.05, "lng": 7.9333}, {"city": "Sokoto", "lat": 13.0622, "lng": 5.2339}, {"city": "Zaria", "lat": 11.0667, "lng": 7.7}, {"city": "Yola", "lat": 9.2, "lng": 12.4833}, {"city": "Oyo", "lat": 7.8333, "lng": 3.9333}, {"city": "Gusau", "lat": 12.1667, "lng": 6.6667}, {"city": "Umuahia", "lat": 5.5333, "lng": 7.4833}, {"city": "Lafia", "lat": 8.5, "lng": 8.5167}, {"city": "Minna", "lat": 9.6139, "lng": 6.5569}, {"city": "Katsina", "lat": 12.9889, "lng": 7.6008}, {"city": "Awka", "lat": 6.2, "lng": 7.0667}, {"city": "Owo", "lat": 7.1664, "lng": 5.58}, {"city": "Gombe", "lat": 10.2904, "lng": 11.17}, {"city": "Ondo", "lat": 7.0904, "lng": 4.84}, {"city": "Damaturu", "lat": 11.7803, "lng": 11.9786}, {"city": "Iwo", "lat": 7.63, "lng": 4.18}, {"city": "Sapele", "lat": 5.8261, "lng": 5.6536}, {"city": "Apapa", "lat": 6.4489, "lng": 3.3589}, {"city": "Mubi", "lat": 10.2604, "lng": 13.2606}, {"city": "Ijebu-Ode", "lat": 6.8204, "lng": 3.92}, {"city": "Burutu", "lat": 5.35, "lng": 5.5167}, {"city": "Mai'Adua", "lat": 13.1906, "lng": 8.2117}, {"city": "Epe", "lat": 6.5573, "lng": 3.9912}, {"city": "Funtua", "lat": 11.5204, "lng": 7.32}, {"city": "Bida", "lat": 9.0804, "lng": 6.01}, {"city": "Makurdi", "lat": 7.7306, "lng": 8.5361}, {"city": "Zango", "lat": 12.9333, "lng": 8.5333}, {"city": "Dutse", "lat": 11.8283, "lng": 9.3158}, {"city": "Gashua", "lat": 12.8705, "lng": 11.04}, {"city": "Bama", "lat": 11.5204, "lng": 13.69}, {"city": "Nsukka", "lat": 6.8567, "lng": 7.3958}, {"city": "Nguru", "lat": 12.8804, "lng": 10.45}, {"city": "Birnin Kebbi", "lat": 12.4504, "lng": 4.1999}, {"city": "Azare", "lat": 11.6804, "lng": 10.19}, {"city": "Lokoja", "lat": 7.8019, "lng": 6.7442}, {"city": "Asaba", "lat": 6.1833, "lng": 6.75}, {"city": "Yenagoa", "lat": 4.9267, "lng": 6.2676}, {"city": "Abakaliki", "lat": 6.3249, "lng": 8.1137}, {"city": "Kontagora", "lat": 10.4522, "lng": 5.4794}, {"city": "Iseyin", "lat": 7.9667, "lng": 3.6}, {"city": "Biu", "lat": 10.6204, "lng": 12.19}, {"city": "Wukari", "lat": 7.8704, "lng": 9.78}, {"city": "Keffi", "lat": 8.8464, "lng": 7.8733}, {"city": "Potiskum", "lat": 11.7104, "lng": 11.08}, {"city": "Idah", "lat": 7.0833, "lng": 6.75}, {"city": "Numan", "lat": 9.4536, "lng": 11.8367}, {"city": "Otukpo", "lat": 7.1904, "lng": 8.13}, {"city": "Kumo", "lat": 10.0431, "lng": 11.2183}, {"city": "Ikot Abasi", "lat": 4.5704, "lng": 7.56}, {"city": "Koko", "lat": 11.4232, "lng": 4.517}, {"city": "Orlu", "lat": 5.7837, "lng": 7.0333}]