[{"city": "Kathmandu", "lat": 27.7167, "lng": 85.3667}, {"city": "Pokhara", "lat": 28.2097, "lng": 83.9853}, {"city": "Jitpur", "lat": 27.6666, "lng": 85.3333}, {"city": "Biratnagar", "lat": 26.4833, "lng": 87.2833}, {"city": "Ghorahi", "lat": 28.0408, "lng": 82.4861}, {"city": "Bharatpur", "lat": 27.6833, "lng": 84.4333}, {"city": "Birganj", "lat": 27.0, "lng": 84.8667}, {"city": "Butwal", "lat": 27.7, "lng": 83.45}, {"city": "Dharan", "lat": 26.8167, "lng": 87.2667}, {"city": "Dhangadhi", "lat": 28.7056, "lng": 80.575}, {"city": "Janakpur", "lat": 26.7122, "lng": 85.9217}, {"city": "Hetauda", "lat": 27.4167, "lng": 85.0333}, {"city": "Kirtipur", "lat": 27.6667, "lng": 85.2833}, {"city": "Godawari", "lat": 28.91, "lng": 80.59}, {"city": "Birendranagar", "lat": 28.6, "lng": 81.6333}, {"city": "Siraha", "lat": 26.6528, "lng": 86.2069}, {"city": "Bhaktapur", "lat": 27.6722, "lng": 85.4278}, {"city": "Itahari", "lat": 26.6667, "lng": 87.2833}, {"city": "Nepalganj", "lat": 28.05, "lng": 81.6167}, {"city": "Bhairahawa", "lat": 27.5, "lng": 83.45}, {"city": "Tilakpur", "lat": 28.5278, "lng": 81.1189}, {"city": "Gulariya", "lat": 28.2056, "lng": 81.3472}, {"city": "Tulsipur", "lat": 28.1278, "lng": 82.2956}, {"city": "Kalaiya", "lat": 27.0333, "lng": 85.0}, {"city": "Hanumannagar", "lat": 26.5394, "lng": 86.7483}, {"city": "Baglung", "lat": 28.2667, "lng": 83.6}, {"city": "Palpa", "lat": 27.8667, "lng": 83.55}, {"city": "Bidur", "lat": 27.8961, "lng": 85.1456}, {"city": "Panauti", "lat": 27.5844, "lng": 85.5147}, {"city": "Khadbari", "lat": 27.3667, "lng": 87.2167}, {"city": "Malangawa", "lat": 26.8667, "lng": 85.5667}, {"city": "Jaleshwar", "lat": 26.65, "lng": 85.8}, {"city": "Daksinkali", "lat": 27.6089, "lng": 85.2672}, {"city": "Dadeldhura", "lat": 29.3, "lng": 80.6}, {"city": "Ilam", "lat": 26.908, "lng": 87.926}, {"city": "Salyan", "lat": 28.35, "lng": 82.1833}, {"city": "Bhimphedi", "lat": 27.551, "lng": 85.13}, {"city": "Ramechhap", "lat": 27.326, "lng": 86.087}, {"city": "Bandipur", "lat": 27.9381, "lng": 84.4069}, {"city": "Kisanpur", "lat": 26.9333, "lng": 85.5833}, {"city": "Chainpur", "lat": 29.55, "lng": 81.2}, {"city": "Manakamana", "lat": 27.9039, "lng": 84.5842}, {"city": "Jumla", "lat": 29.25, "lng": 82.2167}]