[{"city": "Muscat", "lat": 23.6139, "lng": 58.5922}, {"city": "As Sib", "lat": 23.6802, "lng": 58.1825}, {"city": "Matrah", "lat": 23.6167, "lng": 58.5667}, {"city": "Salalah", "lat": 17.0197, "lng": 54.0897}, {"city": "As Suwayhirah as Sahil", "lat": 24.362, "lng": 56.7344}, {"city": "`Ibri", "lat": 23.2254, "lng": 56.517}, {"city": "Nizwa", "lat": 22.9264, "lng": 57.5314}, {"city": "Khasab", "lat": 26.1833, "lng": 56.25}, {"city": "Al Buraymi", "lat": 24.2558, "lng": 55.8025}, {"city": "Suhar", "lat": 24.342, "lng": 56.7299}, {"city": "Ar Rustaq", "lat": 23.3908, "lng": 57.4244}, {"city": "Sur", "lat": 22.5667, "lng": 59.5289}, {"city": "Ibra'", "lat": 22.6906, "lng": 58.5334}, {"city": "Hayma'", "lat": 19.9333, "lng": 56.3167}, {"city": "Al Madrah Sama'il", "lat": 23.3032, "lng": 57.9782}, {"city": "Mirbat", "lat": 16.9924, "lng": 54.6918}]