[{"city": "Manila", "lat": 14.6, "lng": 120.9833}, {"city": "Quezon City", "lat": 14.6333, "lng": 121.0333}, {"city": "Davao", "lat": 7.0667, "lng": 125.6}, {"city": "Caloocan City", "lat": 14.65, "lng": 120.9667}, {"city": "Zamboanga City", "lat": 6.9167, "lng": 122.0833}, {"city": "Cebu City", "lat": 10.293, "lng": 123.902}, {"city": "Taguig City", "lat": 14.5167, "lng": 121.05}, {"city": "Antipolo", "lat": 14.5842, "lng": 121.1763}, {"city": "Pasig City", "lat": 14.575, "lng": 121.0833}, {"city": "Valenzuela", "lat": 14.7, "lng": 120.9833}, {"city": "Cagayan de Oro", "lat": 8.4833, "lng": 124.65}, {"city": "City of Paranaque", "lat": 14.4667, "lng": 121.0167}, {"city": "Dasmarinas", "lat": 14.3294, "lng": 120.9367}, {"city": "General Santos", "lat": 6.1167, "lng": 125.1667}, {"city": "Bacoor", "lat": 14.4624, "lng": 120.9645}, {"city": "San Jose del Monte", "lat": 14.8139, "lng": 121.0453}, {"city": "Makati City", "lat": 14.55, "lng": 121.0333}, {"city": "Las Pinas City", "lat": 14.45, "lng": 120.9833}, {"city": "Bacolod", "lat": 10.6765, "lng": 122.9509}, {"city": "Muntinlupa City", "lat": 14.3833, "lng": 121.05}, {"city": "City of Calamba", "lat": 14.2167, "lng": 121.1667}, {"city": "Lapu-Lapu City", "lat": 10.3127, "lng": 123.9488}, {"city": "Imus", "lat": 14.4297, "lng": 120.9367}, {"city": "Mandaluyong City", "lat": 14.5833, "lng": 121.0333}, {"city": "Angeles City", "lat": 15.1472, "lng": 120.5847}, {"city": "Pasay City", "lat": 14.55, "lng": 121.0}, {"city": "Marikina City", "lat": 14.65, "lng": 121.1}, {"city": "Iloilo", "lat": 10.7167, "lng": 122.5667}, {"city": "General Trias", "lat": 14.3833, "lng": 120.8833}, {"city": "Rodriguez", "lat": 14.7167, "lng": 121.1167}, {"city": "Santa Rosa", "lat": 14.3167, "lng": 121.1167}, {"city": "Binan", "lat": 14.3333, "lng": 121.0833}, {"city": "Taytay", "lat": 14.5692, "lng": 121.1325}, {"city": "Malabon", "lat": 14.6625, "lng": 120.9567}, {"city": "Tarlac City", "lat": 15.4802, "lng": 120.5979}, {"city": "Cainta", "lat": 14.5667, "lng": 121.1167}, {"city": "Lipa City", "lat": 13.9411, "lng": 121.1622}, {"city": "Mandaue City", "lat": 10.3333, "lng": 123.9333}, {"city": "Butuan", "lat": 8.9534, "lng": 125.5288}, {"city": "Baguio City", "lat": 16.4152, "lng": 120.5956}, {"city": "Iligan", "lat": 8.2333, "lng": 124.25}, {"city": "Cabuyao", "lat": 14.275, "lng": 121.125}, {"city": "San Fernando", "lat": 15.0333, "lng": 120.6833}, {"city": "San Pedro", "lat": 14.3583, "lng": 121.0583}, {"city": "Batangas", "lat": 13.75, "lng": 121.05}, {"city": "Cabanatuan City", "lat": 15.4833, "lng": 120.9667}, {"city": "Cotabato", "lat": 7.2167, "lng": 124.25}, {"city": "Binangonan", "lat": 14.4514, "lng": 121.1919}, {"city": "Tanza", "lat": 14.3944, "lng": 120.8531}, {"city": "Puerto Princesa", "lat": 9.75, "lng": 118.75}, {"city": "Navotas", "lat": 14.6667, "lng": 120.9417}, {"city": "Tagum", "lat": 7.4478, "lng": 125.8078}, {"city": "Silang", "lat": 14.2306, "lng": 120.975}, {"city": "Mabalacat", "lat": 15.2167, "lng": 120.5833}, {"city": "Santa Maria", "lat": 14.8183, "lng": 120.9563}, {"city": "San Pablo", "lat": 14.07, "lng": 121.325}, {"city": "Lucena", "lat": 13.9333, "lng": 121.6167}, {"city": "San Mateo", "lat": 14.6969, "lng": 121.1219}, {"city": "Talisay", "lat": 10.25, "lng": 123.8333}, {"city": "Malolos", "lat": 14.8433, "lng": 120.8114}, {"city": "Marilao", "lat": 14.7581, "lng": 120.9481}, {"city": "Olongapo", "lat": 14.8333, "lng": 120.2833}, {"city": "Tacloban", "lat": 11.2444, "lng": 125.0039}, {"city": "Meycauayan", "lat": 14.7333, "lng": 120.95}, {"city": "Ormoc", "lat": 11.0167, "lng": 124.6167}, {"city": "Santo Tomas", "lat": 14.0833, "lng": 121.1833}, {"city": "Valencia", "lat": 7.9, "lng": 125.0833}, {"city": "Trece Martires City", "lat": 14.2833, "lng": 120.8667}, {"city": "Naga City", "lat": 13.6167, "lng": 123.1667}, {"city": "Pagadian", "lat": 7.8333, "lng": 123.4333}, {"city": "Legazpi City", "lat": 13.1333, "lng": 123.7333}, {"city": "Panabo", "lat": 7.3, "lng": 125.6833}, {"city": "Marawi City", "lat": 8.0, "lng": 124.3}, {"city": "Toledo", "lat": 10.3833, "lng": 123.65}, {"city": "San Carlos City", "lat": 15.9281, "lng": 120.3489}, {"city": "Kabankalan", "lat": 9.9833, "lng": 122.8167}, {"city": "Koronadal", "lat": 6.5, "lng": 124.85}, {"city": "Tanauan", "lat": 14.0833, "lng": 121.15}, {"city": "General Mariano Alvarez", "lat": 14.3, "lng": 121.0}, {"city": "Bago", "lat": 10.5388, "lng": 122.8384}, {"city": "Malaybalay", "lat": 8.1575, "lng": 125.1278}, {"city": "Digos", "lat": 6.75, "lng": 125.35}, {"city": "Calbayog City", "lat": 12.0667, "lng": 124.6}, {"city": "Sorsogon", "lat": 12.9667, "lng": 124.0}, {"city": "Roxas City", "lat": 11.5833, "lng": 122.75}, {"city": "Dagupan City", "lat": 16.043, "lng": 120.334}, {"city": "Mexico", "lat": 15.0667, "lng": 120.7167}, {"city": "Lubao", "lat": 14.9333, "lng": 120.6}, {"city": "Polomolok", "lat": 6.2167, "lng": 125.0667}, {"city": "San Miguel", "lat": 15.1458, "lng": 120.9783}, {"city": "Baliuag", "lat": 14.95, "lng": 120.9}, {"city": "Surigao", "lat": 9.7833, "lng": 125.4833}, {"city": "Concepcion", "lat": 15.3249, "lng": 120.6554}, {"city": "Tuguegarao", "lat": 17.6167, "lng": 121.7167}, {"city": "Midsayap", "lat": 7.1917, "lng": 124.5333}, {"city": "Pikit", "lat": 7.05, "lng": 124.6667}, {"city": "Naic", "lat": 14.3167, "lng": 120.7667}, {"city": "Sariaya", "lat": 13.9667, "lng": 121.5333}, {"city": "Kidapawan", "lat": 7.0083, "lng": 125.0894}, {"city": "Pandi", "lat": 14.8667, "lng": 120.95}, {"city": "Cadiz", "lat": 10.95, "lng": 123.3}, {"city": "Ilagan", "lat": 17.1333, "lng": 121.8833}, {"city": "Danao", "lat": 10.5333, "lng": 123.9333}, {"city": "Poblacion", "lat": 10.4167, "lng": 123.9667}, {"city": "Capas", "lat": 15.3312, "lng": 120.5898}, {"city": "San Juan", "lat": 14.6, "lng": 121.0333}, {"city": "San Jose", "lat": 12.3528, "lng": 121.0676}, {"city": "Minglanilla", "lat": 10.245, "lng": 123.7964}, {"city": "Consolacion", "lat": 10.4, "lng": 123.95}, {"city": "San Jose", "lat": 15.7833, "lng": 121.0}, {"city": "Mariveles", "lat": 14.4333, "lng": 120.4833}, {"city": "Sagay", "lat": 10.9, "lng": 123.4167}, {"city": "Santiago", "lat": 16.6833, "lng": 121.55}, {"city": "Mati", "lat": 6.95, "lng": 126.2333}, {"city": "Calapan", "lat": 13.3667, "lng": 121.2}, {"city": "Urdaneta", "lat": 15.9761, "lng": 120.5711}, {"city": "Arayat", "lat": 15.1493, "lng": 120.7692}, {"city": "Bocaue", "lat": 14.8, "lng": 120.9333}, {"city": "Malasiqui", "lat": 15.9167, "lng": 120.4167}, {"city": "Calabayan", "lat": 16.7667, "lng": 121.7833}, {"city": "Tabaco", "lat": 13.35, "lng": 123.7333}, {"city": "Porac", "lat": 15.0719, "lng": 120.5419}, {"city": "Ozamiz City", "lat": 8.15, "lng": 123.85}, {"city": "Tanay", "lat": 14.4972, "lng": 121.2864}, {"city": "La Trinidad", "lat": 16.4621, "lng": 120.5877}, {"city": "Candelaria", "lat": 13.9311, "lng": 121.4233}, {"city": "Dipolog", "lat": 8.5667, "lng": 123.3333}, {"city": "Jolo", "lat": 6.05, "lng": 121.0}, {"city": "Dumaguete City", "lat": 9.3103, "lng": 123.3081}, {"city": "Carcar", "lat": 10.1167, "lng": 123.6333}, {"city": "Nasugbu", "lat": 14.0667, "lng": 120.6333}, {"city": "Gingoog", "lat": 8.8167, "lng": 125.1}, {"city": "Norzagaray", "lat": 14.9167, "lng": 121.05}, {"city": "Floridablanca", "lat": 14.9333, "lng": 120.5}, {"city": "Angono", "lat": 14.5234, "lng": 121.1536}, {"city": "Daraga", "lat": 13.1619, "lng": 123.6939}, {"city": "Hagonoy", "lat": 14.8333, "lng": 120.7333}, {"city": "Naga", "lat": 10.2167, "lng": 123.75}, {"city": "Talavera", "lat": 15.5839, "lng": 120.9189}, {"city": "San Carlos", "lat": 10.4929, "lng": 123.4095}, {"city": "Guagua", "lat": 14.9667, "lng": 120.6333}, {"city": "Silay", "lat": 10.8, "lng": 122.9667}, {"city": "City of Isabela", "lat": 6.7, "lng": 121.9667}, {"city": "Santo Tomas", "lat": 7.5333, "lng": 125.6167}, {"city": "Rosario", "lat": 13.846, "lng": 121.206}, {"city": "Guimba", "lat": 15.6581, "lng": 120.7689}, {"city": "San Fernando", "lat": 16.6167, "lng": 120.3167}, {"city": "Santa Cruz", "lat": 14.2833, "lng": 121.4167}, {"city": "Magalang", "lat": 15.2167, "lng": 120.6667}, {"city": "Gapan", "lat": 15.3075, "lng": 120.9453}, {"city": "Bayawan", "lat": 9.3667, "lng": 122.8}, {"city": "Tabuk", "lat": 17.45, "lng": 121.4583}, {"city": "Calumpit", "lat": 14.9167, "lng": 120.7667}, {"city": "Candaba", "lat": 15.0933, "lng": 120.8283}, {"city": "Dinalupihan", "lat": 14.8833, "lng": 120.4667}, {"city": "Apalit", "lat": 14.9496, "lng": 120.7587}, {"city": "Ligao", "lat": 13.2167, "lng": 123.5167}, {"city": "Malita", "lat": 6.4, "lng": 125.6}, {"city": "Plaridel", "lat": 14.8869, "lng": 120.8569}, {"city": "Guiguinto", "lat": 14.8333, "lng": 120.8833}, {"city": "Los Banos", "lat": 14.1667, "lng": 121.2167}, {"city": "Samal", "lat": 7.05, "lng": 125.7333}, {"city": "Himamaylan", "lat": 10.1, "lng": 122.8667}, {"city": "Bongao", "lat": 5.0292, "lng": 119.7731}, {"city": "San Ildefonso", "lat": 15.0789, "lng": 120.9419}, {"city": "Mangaldan", "lat": 16.07, "lng": 120.4025}, {"city": "Iriga City", "lat": 13.4167, "lng": 123.4167}, {"city": "San Juan", "lat": 13.826, "lng": 121.396}, {"city": "Daet", "lat": 14.1167, "lng": 122.95}, {"city": "Rosario", "lat": 14.4167, "lng": 120.85}, {"city": "Manolo Fortich", "lat": 8.3697, "lng": 124.8644}, {"city": "Libmanan", "lat": 13.7, "lng": 123.0667}, {"city": "Tayabas", "lat": 14.0167, "lng": 121.5833}, {"city": "Laoag", "lat": 18.1951, "lng": 120.5918}, {"city": "Subic", "lat": 14.9, "lng": 120.2333}, {"city": "Kawit", "lat": 14.4333, "lng": 120.9}, {"city": "Baybay", "lat": 10.6833, "lng": 124.8333}, {"city": "Pulilan", "lat": 14.902, "lng": 120.849}, {"city": "Tacurong", "lat": 6.6833, "lng": 124.6667}, {"city": "Cavite City", "lat": 14.4833, "lng": 120.9}, {"city": "Naujan", "lat": 13.3233, "lng": 121.3028}, {"city": "Quezon", "lat": 7.7333, "lng": 125.1}, {"city": "Glan", "lat": 5.8167, "lng": 125.2}, {"city": "Carmona", "lat": 14.3167, "lng": 121.05}, {"city": "Bayugan", "lat": 8.7143, "lng": 125.7481}, {"city": "Talisay", "lat": 10.7333, "lng": 122.9667}, {"city": "Lingayen", "lat": 16.0167, "lng": 120.2333}, {"city": "Cawayan", "lat": 9.9667, "lng": 122.6167}, {"city": "Maramag", "lat": 7.7667, "lng": 125.0}, {"city": "Tagbilaran City", "lat": 9.65, "lng": 123.85}, {"city": "Carmen", "lat": 7.2, "lng": 124.7833}, {"city": "Pateros", "lat": 14.5417, "lng": 121.0667}, {"city": "Tiaong", "lat": 13.95, "lng": 121.3167}, {"city": "Catbalogan", "lat": 11.7833, "lng": 124.8833}, {"city": "Bulan", "lat": 12.6714, "lng": 123.875}, {"city": "Malungun", "lat": 6.2667, "lng": 125.2833}, {"city": "Sultan Kudarat", "lat": 7.2333, "lng": 124.25}, {"city": "Balanga", "lat": 14.6833, "lng": 120.5333}, {"city": "Masbate", "lat": 12.3667, "lng": 123.6167}, {"city": "Sindangan", "lat": 8.2333, "lng": 123.0}, {"city": "Paniqui", "lat": 15.6667, "lng": 120.5833}, {"city": "San Rafael", "lat": 14.95, "lng": 120.9667}, {"city": "Parang", "lat": 7.3744, "lng": 124.2686}, {"city": "Guihulngan", "lat": 10.1167, "lng": 123.2667}, {"city": "Calasiao", "lat": 16.0167, "lng": 120.3667}, {"city": "Santa Cruz", "lat": 6.8333, "lng": 125.4167}, {"city": "Lamitan", "lat": 6.65, "lng": 122.1333}, {"city": "Talipao", "lat": 5.976, "lng": 121.1087}, {"city": "Catarman", "lat": 12.45, "lng": 124.65}, {"city": "Isulan", "lat": 6.6333, "lng": 124.6}, {"city": "Kalibo", "lat": 11.7, "lng": 122.3667}, {"city": "Ipil", "lat": 7.7833, "lng": 122.5833}, {"city": "Prosperidad", "lat": 8.6057, "lng": 125.9153}, {"city": "Alabel", "lat": 6.1023, "lng": 125.2868}, {"city": "Maasin", "lat": 10.1333, "lng": 124.85}, {"city": "Nabunturan", "lat": 7.6078, "lng": 125.9664}, {"city": "Cabadbaran", "lat": 9.1228, "lng": 125.5346}, {"city": "Balagtas", "lat": 14.8145, "lng": 120.9085}, {"city": "Virac", "lat": 13.5833, "lng": 124.2333}, {"city": "Poblacion", "lat": 10.25, "lng": 123.95}, {"city": "Pavia", "lat": 10.775, "lng": 122.5417}, {"city": "Oroquieta", "lat": 8.4833, "lng": 123.8}, {"city": "Borongan", "lat": 11.6, "lng": 125.4333}, {"city": "Bayombong", "lat": 16.4833, "lng": 121.15}, {"city": "Teresa", "lat": 14.5586, "lng": 121.2083}, {"city": "San Jose", "lat": 10.75, "lng": 121.95}, {"city": "Taal", "lat": 13.8833, "lng": 120.9333}, {"city": "Tandag", "lat": 9.0667, "lng": 126.1833}, {"city": "Naval", "lat": 11.5833, "lng": 124.45}, {"city": "Caridad", "lat": 14.4828, "lng": 120.8958}, {"city": "Boac", "lat": 13.45, "lng": 121.8333}, {"city": "Vigan", "lat": 17.5747, "lng": 120.3869}, {"city": "Iba", "lat": 15.3333, "lng": 119.9833}, {"city": "Noveleta", "lat": 14.4333, "lng": 120.8833}, {"city": "Bangued", "lat": 17.5965, "lng": 120.6179}, {"city": "Tubod", "lat": 8.05, "lng": 123.8}, {"city": "Mamburao", "lat": 13.2233, "lng": 120.596}, {"city": "Palayan City", "lat": 15.5333, "lng": 121.0833}, {"city": "Baler", "lat": 15.7583, "lng": 121.5625}, {"city": "Mambajao", "lat": 9.25, "lng": 124.7167}, {"city": "Romblon", "lat": 12.5789, "lng": 122.2747}, {"city": "Jordan", "lat": 10.6, "lng": 122.6}, {"city": "San Roque", "lat": 14.48, "lng": 120.9011}, {"city": "Shariff Aguak", "lat": 6.8647, "lng": 124.4417}, {"city": "Cabarroguis", "lat": 16.5833, "lng": 121.5}, {"city": "Camaligan", "lat": 13.625, "lng": 123.1569}, {"city": "Siquijor", "lat": 9.215, "lng": 123.514}, {"city": "General Emilio Aguinaldo", "lat": 14.1833, "lng": 120.8}, {"city": "Bontoc", "lat": 17.0872, "lng": 120.9756}, {"city": "Lagawe", "lat": 16.8167, "lng": 121.1}, {"city": "Kabugao", "lat": 18.0277, "lng": 121.1889}, {"city": "Magugpo Poblacion", "lat": 7.3821, "lng": 125.8017}, {"city": "Basco", "lat": 20.45, "lng": 121.9667}, {"city": "Santa Cruz", "lat": 14.1167, "lng": 121.2833}, {"city": "Koronadal", "lat": 6.2541, "lng": 124.9922}, {"city": "San Jose", "lat": 10.18, "lng": 125.5683}, {"city": "Tabuk", "lat": 17.4084, "lng": 121.2785}, {"city": "Pili", "lat": 13.7177, "lng": 123.7448}, {"city": "Alaminos", "lat": 16.1553, "lng": 119.9808}, {"city": "Pili", "lat": 13.5833, "lng": 123.3}, {"city": "Oton", "lat": 10.6931, "lng": 122.4736}, {"city": "Bislig", "lat": 8.1833, "lng": 126.35}, {"city": "M'lang", "lat": 6.95, "lng": 124.8833}, {"city": "Balayan", "lat": 13.9333, "lng": 120.7333}, {"city": "Escalante", "lat": 10.8333, "lng": 123.5}, {"city": "Balamban", "lat": 10.4667, "lng": 123.7833}, {"city": "Gerona", "lat": 15.6, "lng": 120.6}, {"city": "Lopez", "lat": 13.884, "lng": 122.2604}, {"city": "Daanbantayan", "lat": 11.3333, "lng": 124.0167}, {"city": "Monkayo", "lat": 7.8167, "lng": 126.05}, {"city": "Lemery", "lat": 13.9167, "lng": 120.8833}, {"city": "Kabacan", "lat": 7.1167, "lng": 124.8167}, {"city": "Indanan", "lat": 6.0, "lng": 120.9667}, {"city": "Santa Barbara", "lat": 16.0031, "lng": 120.4008}, {"city": "Palimbang", "lat": 6.2167, "lng": 124.2}, {"city": "Sablayan", "lat": 12.837, "lng": 120.7829}, {"city": "Bauan", "lat": 13.7917, "lng": 121.0085}, {"city": "Salaman", "lat": 6.6333, "lng": 124.0667}, {"city": "Pongotan", "lat": 7.15, "lng": 125.95}, {"city": "Victorias", "lat": 10.9, "lng": 123.0833}, {"city": "Pinamalayan", "lat": 13.0, "lng": 121.4167}, {"city": "Compostela", "lat": 7.6667, "lng": 126.0833}, {"city": "Polangui", "lat": 13.2922, "lng": 123.4856}, {"city": "Bogo", "lat": 11.0167, "lng": 124.0}, {"city": "Banga", "lat": 6.3, "lng": 124.7833}, {"city": "Surallah", "lat": 6.3667, "lng": 124.7333}, {"city": "Hinigaran", "lat": 10.2667, "lng": 122.85}, {"city": "Calabanga", "lat": 13.7167, "lng": 123.2333}, {"city": "Passi", "lat": 11.1, "lng": 122.6333}, {"city": "Murcia", "lat": 10.6, "lng": 123.0333}, {"city": "Calauan", "lat": 14.15, "lng": 121.3167}, {"city": "Solana", "lat": 17.65, "lng": 121.6833}, {"city": "Baras", "lat": 14.5167, "lng": 121.2667}, {"city": "Aroroy", "lat": 12.5125, "lng": 123.3989}, {"city": "Echague", "lat": 16.7, "lng": 121.65}, {"city": "San Fabian", "lat": 16.15, "lng": 120.45}, {"city": "Makilala", "lat": 6.9667, "lng": 125.0833}, {"city": "Calaca", "lat": 13.9667, "lng": 120.8}, {"city": "Camiling", "lat": 15.7, "lng": 120.4167}, {"city": "Baggao", "lat": 17.8894, "lng": 121.8709}, {"city": "Binmaley", "lat": 16.0323, "lng": 120.269}, {"city": "Nabua", "lat": 13.4083, "lng": 123.375}, {"city": "Bantayan", "lat": 11.2, "lng": 123.7333}, {"city": "Tagaytay", "lat": 14.1, "lng": 120.9333}, {"city": "Cabiao", "lat": 15.25, "lng": 120.85}, {"city": "Guinobatan", "lat": 13.1833, "lng": 123.6}, {"city": "Batarasa", "lat": 8.6667, "lng": 117.6167}, {"city": "Dapitan", "lat": 8.6549, "lng": 123.4243}, {"city": "Science City of Munoz", "lat": 15.7167, "lng": 120.9}, {"city": "Bais", "lat": 9.5907, "lng": 123.1213}, {"city": "Bolinao", "lat": 16.3333, "lng": 119.8833}, {"city": "San Antonio", "lat": 15.3833, "lng": 120.8}, {"city": "Maco", "lat": 7.3619, "lng": 125.8553}, {"city": "Taytay", "lat": 10.8167, "lng": 119.5167}, {"city": "Siaton", "lat": 9.0667, "lng": 123.0333}, {"city": "Mabinay", "lat": 9.7333, "lng": 122.9167}, {"city": "Tanjay", "lat": 9.5167, "lng": 123.1583}, {"city": "Calatrava", "lat": 10.6, "lng": 123.4833}, {"city": "Carmen", "lat": 7.3606, "lng": 125.7064}, {"city": "Bulacan", "lat": 14.7928, "lng": 120.8789}, {"city": "Siasi", "lat": 5.5462, "lng": 120.8145}, {"city": "Ubay", "lat": 10.056, "lng": 124.4729}, {"city": "Buhi", "lat": 13.4333, "lng": 123.5167}, {"city": "Matalam", "lat": 7.0833, "lng": 124.9}, {"city": "Lambunao", "lat": 11.05, "lng": 122.4833}, {"city": "Barili", "lat": 10.1167, "lng": 123.5333}, {"city": "San Jose", "lat": 13.8772, "lng": 121.105}, {"city": "Kapalong", "lat": 7.5854, "lng": 125.7052}, {"city": "Tagoloan", "lat": 8.5333, "lng": 124.75}, {"city": "San Francisco", "lat": 8.505, "lng": 125.9771}, {"city": "Malapatan", "lat": 5.9667, "lng": 125.2833}, {"city": "Jaen", "lat": 15.3333, "lng": 120.9}, {"city": "Poblacion", "lat": 6.8, "lng": 124.6333}, {"city": "Robles", "lat": 10.35, "lng": 123.0667}, {"city": "Patikul", "lat": 6.0667, "lng": 121.1}, {"city": "Mangatarem", "lat": 15.7874, "lng": 120.2921}, {"city": "Bauang", "lat": 16.5333, "lng": 120.3333}, {"city": "Pagbilao", "lat": 13.972, "lng": 121.687}, {"city": "Pototan", "lat": 10.95, "lng": 122.6333}, {"city": "Limay", "lat": 14.5619, "lng": 120.5983}, {"city": "Macabebe", "lat": 14.9081, "lng": 120.7156}, {"city": "Argao", "lat": 9.8833, "lng": 123.6}, {"city": "Bamban", "lat": 15.65, "lng": 120.25}, {"city": "Bustos", "lat": 14.95, "lng": 120.9167}, {"city": "Narra", "lat": 9.2833, "lng": 118.4167}, {"city": "Hermosa", "lat": 14.8333, "lng": 120.5}, {"city": "Santa Catalina", "lat": 9.3331, "lng": 122.8658}, {"city": "Manaoag", "lat": 16.0439, "lng": 120.4856}, {"city": "Umingan", "lat": 15.9, "lng": 120.8}, {"city": "Bongabong", "lat": 12.7167, "lng": 121.3667}, {"city": "Talakag", "lat": 8.1333, "lng": 124.7333}, {"city": "Palo", "lat": 11.1583, "lng": 124.9917}, {"city": "Infanta", "lat": 14.7425, "lng": 121.6494}, {"city": "Santa Rosa", "lat": 15.4239, "lng": 120.9389}, {"city": "Pilar", "lat": 12.9333, "lng": 123.6833}, {"city": "Pinamungahan", "lat": 10.2667, "lng": 123.5833}, {"city": "Libon", "lat": 13.3, "lng": 123.4333}, {"city": "Bugallon", "lat": 15.9167, "lng": 120.1833}, {"city": "Pozorrubio", "lat": 16.1167, "lng": 120.55}, {"city": "Dalaguete", "lat": 9.7612, "lng": 123.5349}, {"city": "Esperanza", "lat": 6.7167, "lng": 124.5167}, {"city": "Balingasag", "lat": 8.75, "lng": 124.7833}, {"city": "Dumangas", "lat": 10.8333, "lng": 122.7167}, {"city": "Alicia", "lat": 16.7787, "lng": 121.6972}, {"city": "Brookes Point", "lat": 8.7833, "lng": 117.8333}, {"city": "Lala", "lat": 7.9667, "lng": 123.75}, {"city": "Tupi", "lat": 6.3333, "lng": 124.95}, {"city": "Bula", "lat": 13.4667, "lng": 123.2833}, {"city": "Jose Abad Santos", "lat": 5.9167, "lng": 125.65}, {"city": "Carles", "lat": 11.5667, "lng": 123.1333}, {"city": "San Fernando", "lat": 10.1667, "lng": 123.7}, {"city": "Bacacay", "lat": 13.2925, "lng": 123.7917}, {"city": "Morong", "lat": 14.5119, "lng": 121.2389}, {"city": "Catanauan", "lat": 13.5917, "lng": 122.325}, {"city": "Sipalay", "lat": 9.75, "lng": 122.4}, {"city": "Camalig", "lat": 13.1333, "lng": 123.6667}, {"city": "Pigcawayan", "lat": 7.2833, "lng": 124.4333}, {"city": "Pililla", "lat": 14.4833, "lng": 121.3}, {"city": "Gumaca", "lat": 13.921, "lng": 122.1002}, {"city": "Calauag", "lat": 13.9575, "lng": 122.2875}, {"city": "Binalbagan", "lat": 10.2, "lng": 122.8667}, {"city": "Talibon", "lat": 10.1167, "lng": 124.2833}, {"city": "Parang", "lat": 5.9167, "lng": 120.9167}, {"city": "Goa", "lat": 13.7, "lng": 123.5}, {"city": "Orani", "lat": 14.8, "lng": 120.5333}, {"city": "Mauban", "lat": 14.1911, "lng": 121.7308}, {"city": "Tumauini", "lat": 17.2667, "lng": 121.8}, {"city": "Rizal", "lat": 15.6833, "lng": 121.1667}, {"city": "Tinambac", "lat": 13.8167, "lng": 123.3333}, {"city": "San Pascual", "lat": 13.8, "lng": 121.0333}, {"city": "Roxas", "lat": 10.3333, "lng": 119.3333}, {"city": "Indang", "lat": 14.2, "lng": 120.8833}, {"city": "Don Carlos", "lat": 7.6833, "lng": 125.0}, {"city": "La Paz", "lat": 15.4431, "lng": 120.7289}, {"city": "Cawayan", "lat": 12.0333, "lng": 123.6833}, {"city": "Mamungan", "lat": 8.1167, "lng": 124.2167}, {"city": "Aparri", "lat": 18.355, "lng": 121.6419}, {"city": "Bagumbayan", "lat": 6.5339, "lng": 124.5633}, {"city": "Buenavista", "lat": 8.9744, "lng": 125.409}, {"city": "San Leonardo", "lat": 15.3667, "lng": 120.9667}, {"city": "Tangub", "lat": 8.0667, "lng": 123.75}, {"city": "Bay", "lat": 14.1833, "lng": 121.2833}, {"city": "Alamada", "lat": 7.3868, "lng": 124.5534}, {"city": "Castillejos", "lat": 14.9333, "lng": 120.2}, {"city": "Miagao", "lat": 10.6442, "lng": 122.2352}, {"city": "Tuburan", "lat": 10.7333, "lng": 123.8333}, {"city": "Sipocot", "lat": 13.7667, "lng": 122.9833}, {"city": "Cuyapo", "lat": 15.7833, "lng": 120.6667}, {"city": "Santa Barbara", "lat": 10.8231, "lng": 122.5344}, {"city": "Rosales", "lat": 15.8944, "lng": 120.6328}, {"city": "Agoo", "lat": 16.322, "lng": 120.3647}, {"city": "San Mateo", "lat": 16.8833, "lng": 121.5833}, {"city": "Janiuay", "lat": 11.0, "lng": 122.5833}, {"city": "La Carlota", "lat": 10.4167, "lng": 122.9167}, {"city": "Bongabon", "lat": 15.6321, "lng": 121.1448}, {"city": "Lupon", "lat": 6.8981, "lng": 126.0096}, {"city": "Botolan", "lat": 15.2896, "lng": 120.0245}, {"city": "Opol", "lat": 8.5167, "lng": 124.5667}, {"city": "Angat", "lat": 14.9281, "lng": 121.0293}, {"city": "San Remigio", "lat": 11.0, "lng": 123.95}, {"city": "Oas", "lat": 13.2589, "lng": 123.4953}, {"city": "Malvar", "lat": 14.0417, "lng": 121.1583}, {"city": "Roxas", "lat": 17.1167, "lng": 121.6167}, {"city": "Lantapan", "lat": 8.0005, "lng": 125.0235}, {"city": "Kiamba", "lat": 5.9833, "lng": 124.6167}, {"city": "Coron", "lat": 12.0, "lng": 120.2}, {"city": "Villasis", "lat": 15.9, "lng": 120.5833}, {"city": "Lutayan", "lat": 6.6, "lng": 124.85}, {"city": "Solano", "lat": 16.5239, "lng": 121.1919}, {"city": "Nagcarlan", "lat": 14.1364, "lng": 121.4165}, {"city": "Quezon", "lat": 9.2333, "lng": 118.0333}, {"city": "Maasin", "lat": 5.8667, "lng": 125.0}, {"city": "Isabela", "lat": 10.2, "lng": 122.9833}, {"city": "Saravia", "lat": 10.8833, "lng": 122.9667}, {"city": "Hilongos", "lat": 10.3667, "lng": 124.75}, {"city": "Sibulan", "lat": 9.35, "lng": 123.2833}, {"city": "Atimonan", "lat": 14.0036, "lng": 121.9199}, {"city": "Victoria", "lat": 15.5781, "lng": 120.6819}, {"city": "Tuao", "lat": 17.7333, "lng": 121.45}, {"city": "Aliaga", "lat": 15.4988, "lng": 120.841}, {"city": "Sibalom", "lat": 10.7833, "lng": 122.0167}, {"city": "Santa Cruz", "lat": 15.7667, "lng": 119.9167}, {"city": "Jose Panganiban", "lat": 14.3, "lng": 122.7}, {"city": "Moncada", "lat": 15.7333, "lng": 120.5667}, {"city": "Bansalan", "lat": 6.7833, "lng": 125.2167}, {"city": "San Fernando", "lat": 7.9167, "lng": 125.3333}, {"city": "Calinog", "lat": 11.1333, "lng": 122.5}, {"city": "Santa Ana", "lat": 15.0939, "lng": 120.7681}, {"city": "Kapatagan", "lat": 7.9, "lng": 123.7667}, {"city": "Aurora", "lat": 13.35, "lng": 122.5167}, {"city": "Cambanugoy", "lat": 7.5386, "lng": 125.7508}, {"city": "Baao", "lat": 13.4535, "lng": 123.3654}, {"city": "Santo Domingo", "lat": 15.5833, "lng": 120.8667}, {"city": "Orion", "lat": 14.6206, "lng": 120.5817}, {"city": "Cabatuan", "lat": 10.8833, "lng": 122.4833}, {"city": "Itogon", "lat": 16.3667, "lng": 120.6833}, {"city": "Tigaon", "lat": 13.6333, "lng": 123.5}, {"city": "Abuyog", "lat": 10.7458, "lng": 125.0122}, {"city": "Tulunan", "lat": 6.8333, "lng": 124.8833}, {"city": "Obando", "lat": 14.7, "lng": 120.9167}, {"city": "Rosario", "lat": 16.2333, "lng": 120.4833}, {"city": "Jinoba-an", "lat": 9.6018, "lng": 122.4668}, {"city": "Malay", "lat": 11.9, "lng": 121.9167}, {"city": "Castilla", "lat": 12.9486, "lng": 123.8822}, {"city": "Laoang", "lat": 12.5667, "lng": 125.0167}, {"city": "Matanao", "lat": 6.75, "lng": 125.2333}, {"city": "Gubat", "lat": 12.9167, "lng": 124.1167}, {"city": "Paracale", "lat": 14.2833, "lng": 122.7833}, {"city": "Medellin", "lat": 11.1286, "lng": 123.9622}, {"city": "Maimbung", "lat": 5.9333, "lng": 121.0333}, {"city": "San Simon", "lat": 14.998, "lng": 120.78}, {"city": "Alfonso", "lat": 14.1379, "lng": 120.8552}, {"city": "San Mariano", "lat": 16.9833, "lng": 122.0167}, {"city": "Kananya", "lat": 11.1833, "lng": 124.5667}, {"city": "Ilog", "lat": 10.0333, "lng": 122.7667}, {"city": "Sigaboy", "lat": 6.65, "lng": 126.0667}, {"city": "Ragay", "lat": 13.8183, "lng": 122.7923}, {"city": "San Francisco", "lat": 10.65, "lng": 124.35}, {"city": "Irosin", "lat": 12.7, "lng": 124.0333}, {"city": "San Luis", "lat": 15.04, "lng": 120.7919}, {"city": "Roxas", "lat": 12.5833, "lng": 121.5}, {"city": "Esperanza", "lat": 8.676, "lng": 125.6454}, {"city": "Ibaan", "lat": 13.8176, "lng": 121.133}, {"city": "El Salvador", "lat": 8.5667, "lng": 124.5167}, {"city": "Mansalay", "lat": 12.5204, "lng": 121.4385}, {"city": "Calatagan", "lat": 13.8322, "lng": 120.6322}, {"city": "Masantol", "lat": 14.9, "lng": 120.7167}, {"city": "Canlaon", "lat": 10.3667, "lng": 123.2}, {"city": "Upi", "lat": 7.0289, "lng": 124.165}, {"city": "Gattaran", "lat": 18.0667, "lng": 121.65}, {"city": "Barotac Nuevo", "lat": 10.9, "lng": 122.7}, {"city": "Baganga", "lat": 7.5752, "lng": 126.5585}, {"city": "Palompon", "lat": 11.05, "lng": 124.3833}, {"city": "Asingan", "lat": 16.0023, "lng": 120.6695}, {"city": "Cogan", "lat": 10.5833, "lng": 123.9667}, {"city": "Dumanjog", "lat": 10.05, "lng": 123.4833}, {"city": "Tanauan", "lat": 11.1167, "lng": 125.0167}, {"city": "New Corella", "lat": 7.5866, "lng": 125.8237}, {"city": "Santa Maria", "lat": 6.55, "lng": 125.4667}, {"city": "Jasaan", "lat": 8.65, "lng": 124.75}, {"city": "Milagros", "lat": 12.2333, "lng": 123.5}, {"city": "Binalonan", "lat": 16.05, "lng": 120.6}, {"city": "Alangalang", "lat": 11.2, "lng": 124.85}, {"city": "Uson", "lat": 12.2253, "lng": 123.7834}, {"city": "Buluan", "lat": 6.7154, "lng": 124.7854}, {"city": "Hagonoy", "lat": 6.6833, "lng": 125.3}, {"city": "Lian", "lat": 14.0333, "lng": 120.65}, {"city": "Tiwi", "lat": 13.4585, "lng": 123.6805}, {"city": "Ramon", "lat": 16.7833, "lng": 121.5333}, {"city": "Poblacion", "lat": 10.4667, "lng": 123.9667}, {"city": "Paombong", "lat": 14.8311, "lng": 120.7892}, {"city": "Lagonoy", "lat": 13.7333, "lng": 123.5167}, {"city": "Basey", "lat": 11.2817, "lng": 125.0683}, {"city": "Pangantocan", "lat": 7.8333, "lng": 124.8333}, {"city": "Placer", "lat": 11.8667, "lng": 123.9167}, {"city": "Libungan", "lat": 7.25, "lng": 124.5167}, {"city": "Magsaysay", "lat": 6.7667, "lng": 125.1833}, {"city": "Pila", "lat": 14.2333, "lng": 121.3667}, {"city": "Diffun", "lat": 16.6, "lng": 121.4667}, {"city": "Urbiztondo", "lat": 15.8227, "lng": 120.3295}, {"city": "General Tinio", "lat": 15.35, "lng": 121.05}, {"city": "Bambang", "lat": 16.3825, "lng": 121.11}, {"city": "Batac", "lat": 18.0554, "lng": 120.5649}, {"city": "Mulanay", "lat": 13.5222, "lng": 122.4042}, {"city": "Asturias", "lat": 10.5679, "lng": 123.7172}, {"city": "Mercedes", "lat": 14.1093, "lng": 123.0109}, {"city": "Manapla", "lat": 10.958, "lng": 123.123}, {"city": "San Isidro", "lat": 15.2667, "lng": 120.9}, {"city": "Carigara", "lat": 11.3, "lng": 124.6833}, {"city": "Estancia", "lat": 11.45, "lng": 123.15}, {"city": "Pontevedra", "lat": 10.3667, "lng": 122.8833}, {"city": "Sara", "lat": 11.25, "lng": 123.0167}, {"city": "Santa Cruz", "lat": 13.4833, "lng": 122.0333}, {"city": "Masinloc", "lat": 15.5333, "lng": 119.95}, {"city": "San Manuel", "lat": 16.0656, "lng": 120.6667}, {"city": "Trento", "lat": 8.0459, "lng": 126.0614}, {"city": "Tapas", "lat": 11.2667, "lng": 122.5333}, {"city": "Minalabac", "lat": 13.5667, "lng": 123.1833}, {"city": "Titay", "lat": 7.8682, "lng": 122.5613}, {"city": "Tagkawayan", "lat": 13.9667, "lng": 122.5333}, {"city": "Cabagan", "lat": 17.4333, "lng": 121.7667}, {"city": "Impasugong", "lat": 8.3, "lng": 125.0}, {"city": "Magpet", "lat": 7.1167, "lng": 125.1167}, {"city": "Kitaotao", "lat": 7.6397, "lng": 125.0089}, {"city": "Sibonga", "lat": 10.0333, "lng": 123.5667}, {"city": "Pasacao", "lat": 13.5167, "lng": 123.05}, {"city": "Ajuy", "lat": 11.1725, "lng": 123.0196}, {"city": "Dauis", "lat": 9.6253, "lng": 123.8658}, {"city": "Guiuan", "lat": 11.0333, "lng": 125.7333}, {"city": "Lucban", "lat": 14.1133, "lng": 121.5569}, {"city": "Barobo", "lat": 8.55, "lng": 126.2}, {"city": "Molave", "lat": 8.0833, "lng": 123.4833}, {"city": "Buenavista", "lat": 10.7, "lng": 122.6333}, {"city": "Aurora", "lat": 7.9484, "lng": 123.5819}, {"city": "Hamtic", "lat": 10.7, "lng": 121.9833}, {"city": "Padre Garcia", "lat": 13.8833, "lng": 121.2167}, {"city": "Sison", "lat": 16.1667, "lng": 120.5167}, {"city": "Bani", "lat": 16.1869, "lng": 119.8592}, {"city": "San Joaquin", "lat": 10.6, "lng": 122.0833}, {"city": "Burauen", "lat": 10.9833, "lng": 124.9}, {"city": "Ibajay", "lat": 11.8167, "lng": 122.1667}, {"city": "Naguilian", "lat": 16.5333, "lng": 120.4}, {"city": "Bato", "lat": 13.3561, "lng": 123.3639}, {"city": "President Roxas", "lat": 7.1544, "lng": 125.0558}, {"city": "Claveria", "lat": 8.61, "lng": 124.8947}, {"city": "Alaminos", "lat": 14.0635, "lng": 121.2451}, {"city": "Leon", "lat": 10.7808, "lng": 122.3894}, {"city": "Mabini", "lat": 13.7167, "lng": 120.9}, {"city": "Caramoan", "lat": 13.7707, "lng": 123.8631}, {"city": "Cardona", "lat": 14.4861, "lng": 121.2289}, {"city": "Bantacan", "lat": 7.5333, "lng": 126.1333}, {"city": "Ocampo", "lat": 13.5594, "lng": 123.3761}, {"city": "San Narciso", "lat": 13.5677, "lng": 122.5667}, {"city": "Aringay", "lat": 16.3982, "lng": 120.3555}, {"city": "Kalamansig", "lat": 6.5667, "lng": 124.05}, {"city": "Cataingan", "lat": 12.0, "lng": 123.9833}, {"city": "Gloria", "lat": 12.9167, "lng": 121.4667}, {"city": "Donsol", "lat": 12.9167, "lng": 123.6}, {"city": "El Nido", "lat": 11.1956, "lng": 119.4075}, {"city": "Amulung", "lat": 17.8387, "lng": 121.7235}, {"city": "Wao", "lat": 7.6404, "lng": 124.7257}, {"city": "Penablanca", "lat": 17.6333, "lng": 121.7833}, {"city": "Pananaw", "lat": 5.9833, "lng": 121.25}, {"city": "Pontevedra", "lat": 11.4833, "lng": 122.8333}, {"city": "Zaragoza", "lat": 15.4531, "lng": 120.7911}, {"city": "Alcala", "lat": 15.8468, "lng": 120.5218}, {"city": "Santa Rita", "lat": 14.9953, "lng": 120.6153}, {"city": "Rosario", "lat": 8.3814, "lng": 126.0015}, {"city": "Dumarao", "lat": 11.2667, "lng": 122.6833}, {"city": "Odiongan", "lat": 12.4, "lng": 122.0}, {"city": "Kiblawan", "lat": 6.6167, "lng": 125.2167}, {"city": "Pio Duran", "lat": 13.0333, "lng": 123.45}, {"city": "Dulag", "lat": 10.9525, "lng": 125.0317}, {"city": "Carmen", "lat": 9.8167, "lng": 124.2}, {"city": "Vinzons", "lat": 14.1833, "lng": 122.9}, {"city": "Minalin", "lat": 14.9667, "lng": 120.6833}, {"city": "Malabang", "lat": 7.5903, "lng": 124.0703}, {"city": "Panay", "lat": 11.55, "lng": 122.8}, {"city": "Libona", "lat": 8.3333, "lng": 124.7333}, {"city": "Dumingag", "lat": 8.1667, "lng": 123.35}, {"city": "Inabanga", "lat": 10.0333, "lng": 124.0667}, {"city": "Barotac Viejo", "lat": 11.05, "lng": 122.85}, {"city": "Lal-lo", "lat": 18.2, "lng": 121.6667}, {"city": "Bacolor", "lat": 14.9984, "lng": 120.6526}, {"city": "New Washington", "lat": 11.65, "lng": 122.4333}, {"city": "Siocon", "lat": 7.7, "lng": 122.1333}, {"city": "Mahayag", "lat": 8.1333, "lng": 123.3833}, {"city": "Tuba", "lat": 16.3167, "lng": 120.55}, {"city": "Tibigan", "lat": 9.95, "lng": 123.9667}, {"city": "Balimbing", "lat": 5.0728, "lng": 119.8847}, {"city": "Talisay", "lat": 14.1, "lng": 121.0167}, {"city": "Santa Ignacia", "lat": 15.6167, "lng": 120.4333}, {"city": "Malinao", "lat": 13.4, "lng": 123.7}, {"city": "Sogod", "lat": 10.3833, "lng": 124.9833}, {"city": "Pilar", "lat": 11.4833, "lng": 123.0}, {"city": "Bunawan", "lat": 8.1781, "lng": 125.9935}, {"city": "Isabel", "lat": 10.9333, "lng": 124.4333}, {"city": "Pilar", "lat": 14.6667, "lng": 120.5667}, {"city": "Sumisip", "lat": 6.4167, "lng": 121.9833}, {"city": "Albuera", "lat": 10.9186, "lng": 124.6923}, {"city": "Ayungon", "lat": 9.8584, "lng": 123.1468}, {"city": "Banisilan", "lat": 7.5, "lng": 124.7}, {"city": "Norala", "lat": 6.55, "lng": 124.6667}, {"city": "Kabasalan", "lat": 7.7968, "lng": 122.7627}, {"city": "Tuy", "lat": 14.0167, "lng": 120.7333}, {"city": "Cordon", "lat": 16.6667, "lng": 121.45}, {"city": "Montevista", "lat": 7.7, "lng": 125.9833}, {"city": "Narvacan", "lat": 17.4175, "lng": 120.4753}, {"city": "Lower Tungawan", "lat": 7.6017, "lng": 122.4273}, {"city": "Dingle", "lat": 11.05, "lng": 122.6667}, {"city": "Pagalungan", "lat": 7.0592, "lng": 124.6987}, {"city": "Lupao", "lat": 15.8793, "lng": 120.8983}, {"city": "Tayug", "lat": 16.0267, "lng": 120.7478}, {"city": "Pagsanjan", "lat": 14.2667, "lng": 121.45}, {"city": "Maluso", "lat": 6.55, "lng": 121.8833}, {"city": "Lumba-a-Bayabao", "lat": 7.8833, "lng": 124.3833}, {"city": "Tantangan", "lat": 6.6167, "lng": 124.75}, {"city": "Jones", "lat": 16.5583, "lng": 121.7}, {"city": "Talagutong", "lat": 6.2667, "lng": 125.6667}, {"city": "San Jacinto", "lat": 16.0725, "lng": 120.4411}, {"city": "Victoria", "lat": 14.225, "lng": 121.325}, {"city": "Aguilar", "lat": 15.8899, "lng": 120.2379}, {"city": "Basud", "lat": 14.0667, "lng": 122.9667}, {"city": "Angadanan", "lat": 16.7571, "lng": 121.7479}, {"city": "Concepcion", "lat": 11.2, "lng": 123.1}, {"city": "Buguias", "lat": 16.7167, "lng": 120.8333}, {"city": "Maria Aurora", "lat": 15.7967, "lng": 121.4737}, {"city": "San Jose", "lat": 13.7, "lng": 123.5167}, {"city": "Manjuyod", "lat": 9.6833, "lng": 123.15}, {"city": "Bacnotan", "lat": 16.7197, "lng": 120.3481}, {"city": "Nasipit", "lat": 8.9884, "lng": 125.3408}, {"city": "Katipunan", "lat": 8.5134, "lng": 123.2847}, {"city": "Dolores", "lat": 12.05, "lng": 125.4833}, {"city": "Culasi", "lat": 11.4272, "lng": 122.056}, {"city": "San Pascual", "lat": 13.1333, "lng": 122.9833}, {"city": "Loon", "lat": 9.8, "lng": 123.8}, {"city": "Banaybanay", "lat": 6.9699, "lng": 126.0126}, {"city": "Labangan", "lat": 7.8667, "lng": 123.5167}, {"city": "Bulalacao", "lat": 12.3333, "lng": 121.35}, {"city": "General Mamerto Natividad", "lat": 15.6025, "lng": 121.0515}, {"city": "Maitum", "lat": 6.0333, "lng": 124.4833}, {"city": "Cateel", "lat": 7.7833, "lng": 126.45}, {"city": "Mandaon", "lat": 12.2259, "lng": 123.2842}, {"city": "Guinayangan", "lat": 13.9, "lng": 122.45}, {"city": "Labason", "lat": 8.0667, "lng": 122.5167}, {"city": "Badian", "lat": 9.8694, "lng": 123.3959}, {"city": "Hinatuan", "lat": 8.3667, "lng": 126.3333}, {"city": "Jaro", "lat": 11.1833, "lng": 124.7833}, {"city": "Loreto", "lat": 8.1856, "lng": 125.8538}, {"city": "Kalilangan", "lat": 7.75, "lng": 124.75}, {"city": "Laurel", "lat": 14.05, "lng": 120.9}, {"city": "Toboso", "lat": 10.7167, "lng": 123.5167}, {"city": "Santa Elena", "lat": 14.2, "lng": 122.3833}, {"city": "Madridejos", "lat": 11.2667, "lng": 123.7333}, {"city": "Moises Padilla", "lat": 10.2667, "lng": 123.0833}, {"city": "Roseller Lim", "lat": 7.6568, "lng": 122.4701}, {"city": "Guambog", "lat": 7.3, "lng": 125.85}, {"city": "Abucay", "lat": 14.7222, "lng": 120.5354}, {"city": "South Upi", "lat": 6.8548, "lng": 124.1443}, {"city": "Villaba", "lat": 11.2167, "lng": 124.4}, {"city": "Santo Tomas", "lat": 15.0, "lng": 120.75}, {"city": "Nueva Valencia", "lat": 10.5259, "lng": 122.5398}, {"city": "Panitan", "lat": 11.4667, "lng": 122.7667}, {"city": "Amadeo", "lat": 14.1728, "lng": 120.9277}, {"city": "Proper Bansud", "lat": 12.8333, "lng": 121.3667}, {"city": "Tucuran", "lat": 7.85, "lng": 123.5833}, {"city": "Llanera", "lat": 15.6667, "lng": 121.0167}, {"city": "Balabac", "lat": 7.9833, "lng": 117.05}, {"city": "Liloy", "lat": 8.1167, "lng": 122.6667}, {"city": "Santa Rita", "lat": 11.4667, "lng": 124.95}, {"city": "Carranglan", "lat": 15.9667, "lng": 121.0667}, {"city": "Santa Cruz", "lat": 13.1167, "lng": 120.85}, {"city": "Polanco", "lat": 8.5333, "lng": 123.3667}, {"city": "Quezon", "lat": 15.55, "lng": 120.8167}, {"city": "President Quirino", "lat": 6.7, "lng": 124.7333}, {"city": "Claveria", "lat": 12.9035, "lng": 123.2457}, {"city": "Aritao", "lat": 16.2973, "lng": 121.0338}, {"city": "Matnog", "lat": 12.5833, "lng": 124.0833}, {"city": "Bacong", "lat": 9.2464, "lng": 123.2948}, {"city": "Puerto Galera", "lat": 13.5, "lng": 120.9542}, {"city": "Anda", "lat": 16.2896, "lng": 119.9491}, {"city": "Kibawe", "lat": 7.5667, "lng": 124.9833}, {"city": "Naga", "lat": 7.7887, "lng": 122.6953}, {"city": "Kasibu", "lat": 16.3167, "lng": 121.2833}, {"city": "Daram", "lat": 11.6341, "lng": 124.7947}, {"city": "San Miguel", "lat": 8.8833, "lng": 126.0}, {"city": "Socorro", "lat": 13.0583, "lng": 121.4117}, {"city": "Tabogon", "lat": 10.9333, "lng": 124.0333}, {"city": "Santa Cruz", "lat": 17.0833, "lng": 120.45}, {"city": "Tagudin", "lat": 16.9333, "lng": 120.45}, {"city": "Malilipot", "lat": 13.3167, "lng": 123.7333}, {"city": "Gonzaga", "lat": 18.2667, "lng": 122.0}, {"city": "Mondragon", "lat": 12.5167, "lng": 124.75}, {"city": "Maayon", "lat": 11.3833, "lng": 122.7833}, {"city": "Alcala", "lat": 17.9031, "lng": 121.659}, {"city": "Santo Tomas", "lat": 16.2833, "lng": 120.3833}, {"city": "Lasam", "lat": 18.0667, "lng": 121.6}, {"city": "La Libertad", "lat": 10.0333, "lng": 123.2167}, {"city": "Villanueva", "lat": 8.5833, "lng": 124.7833}, {"city": "San Juan", "lat": 16.6667, "lng": 120.3333}, {"city": "Vallehermoso", "lat": 10.3333, "lng": 123.3167}, {"city": "Tagbina", "lat": 8.45, "lng": 126.1667}, {"city": "Tampakan", "lat": 6.45, "lng": 124.9333}, {"city": "Mobo", "lat": 12.3333, "lng": 123.65}, {"city": "Nabas", "lat": 11.8333, "lng": 122.0833}, {"city": "Maddela", "lat": 16.35, "lng": 121.7}, {"city": "Mambusao", "lat": 11.4333, "lng": 122.6}, {"city": "Lobo", "lat": 13.65, "lng": 121.25}, {"city": "Maragondon", "lat": 14.2667, "lng": 120.7333}, {"city": "Balaoan", "lat": 16.8167, "lng": 120.4}, {"city": "Valladolid", "lat": 10.4667, "lng": 122.8333}, {"city": "Banga", "lat": 11.6333, "lng": 122.3333}, {"city": "Siay", "lat": 7.7056, "lng": 122.8641}, {"city": "Leyte", "lat": 11.3667, "lng": 124.4833}, {"city": "Panglao", "lat": 9.5833, "lng": 123.7833}, {"city": "Rizal", "lat": 12.4667, "lng": 120.9667}, {"city": "Taysan", "lat": 13.7833, "lng": 121.2}, {"city": "Cabatuan", "lat": 16.9589, "lng": 121.6692}, {"city": "Dingras", "lat": 18.1, "lng": 120.7}, {"city": "Payabon", "lat": 9.7667, "lng": 123.1333}, {"city": "Lilio", "lat": 14.13, "lng": 121.436}, {"city": "Malalag", "lat": 6.6, "lng": 125.4}, {"city": "Plaridel", "lat": 8.6214, "lng": 123.7101}, {"city": "Balud", "lat": 12.0369, "lng": 123.1935}, {"city": "Santo Nino", "lat": 6.4333, "lng": 124.6833}, {"city": "Siniloan", "lat": 14.4167, "lng": 121.45}, {"city": "Pamplona", "lat": 9.4667, "lng": 123.1167}, {"city": "Baco", "lat": 13.3584, "lng": 121.0977}, {"city": "Alimodian", "lat": 10.8196, "lng": 122.4322}, {"city": "Tago", "lat": 9.0211, "lng": 126.2317}, {"city": "San Nicolas", "lat": 16.07, "lng": 120.7653}, {"city": "Poblacion", "lat": 7.5, "lng": 125.9333}, {"city": "Palauig", "lat": 15.4333, "lng": 120.05}, {"city": "Magsaysay", "lat": 12.3333, "lng": 121.15}, {"city": "Agoncillo", "lat": 13.9334, "lng": 120.9285}, {"city": "San Nicolas", "lat": 18.1725, "lng": 120.5958}, {"city": "Clarin", "lat": 8.2, "lng": 123.85}, {"city": "Pamplona", "lat": 13.6, "lng": 123.0833}, {"city": "Veruela", "lat": 8.0698, "lng": 125.9554}, {"city": "Kalingalan Caluang", "lat": 5.8833, "lng": 121.2667}, {"city": "Buldon", "lat": 7.5167, "lng": 124.3667}, {"city": "Sogod", "lat": 10.75, "lng": 124.0}, {"city": "Talacogon", "lat": 8.4488, "lng": 125.7869}, {"city": "Caraga", "lat": 7.3333, "lng": 126.5667}, {"city": "Alicia", "lat": 7.506, "lng": 122.9412}, {"city": "Manay", "lat": 7.2167, "lng": 126.5333}, {"city": "Damulog", "lat": 7.4833, "lng": 124.9333}, {"city": "Sual", "lat": 16.0667, "lng": 120.1}, {"city": "San Dionisio", "lat": 11.2711, "lng": 123.0948}, {"city": "Mapandan", "lat": 16.026, "lng": 120.454}, {"city": "Cabugao", "lat": 17.8, "lng": 120.45}, {"city": "Basista", "lat": 15.8524, "lng": 120.3976}, {"city": "Caluya", "lat": 11.932, "lng": 121.548}, {"city": "San Fernando", "lat": 13.5667, "lng": 123.15}, {"city": "Bangar", "lat": 16.9, "lng": 120.4167}, {"city": "Margosatubig", "lat": 7.5783, "lng": 123.1659}, {"city": "Valencia", "lat": 9.2833, "lng": 123.25}, {"city": "Samal", "lat": 14.7678, "lng": 120.5431}, {"city": "Aborlan", "lat": 9.4386, "lng": 118.5481}, {"city": "Olutanga", "lat": 7.3106, "lng": 122.8464}, {"city": "Jamindan", "lat": 11.4, "lng": 122.5}, {"city": "Maasin", "lat": 10.8833, "lng": 122.4333}, {"city": "Real", "lat": 14.6667, "lng": 121.6}, {"city": "Buug", "lat": 7.7333, "lng": 123.0667}, {"city": "San Andres", "lat": 13.6, "lng": 124.1}, {"city": "Patnongon", "lat": 10.9167, "lng": 121.9833}, {"city": "Borbon", "lat": 10.8333, "lng": 124.0}, {"city": "Santo Domingo", "lat": 13.235, "lng": 123.7769}, {"city": "Tayasan", "lat": 9.9167, "lng": 123.15}, {"city": "Laur", "lat": 15.5833, "lng": 121.1833}, {"city": "Bagabag", "lat": 16.6044, "lng": 121.2521}, {"city": "Luna", "lat": 16.85, "lng": 120.3833}, {"city": "San Andres", "lat": 13.3667, "lng": 122.65}, {"city": "Luuk", "lat": 5.9676, "lng": 121.3133}, {"city": "Mabuhay", "lat": 7.4176, "lng": 122.837}, {"city": "Marantao", "lat": 7.95, "lng": 124.233}, {"city": "San Marcelino", "lat": 14.9742, "lng": 120.1573}, {"city": "Tambulig", "lat": 8.0667, "lng": 123.5333}, {"city": "Magallanes", "lat": 12.8333, "lng": 123.85}, {"city": "Oras", "lat": 12.1333, "lng": 125.4333}, {"city": "San Antonio", "lat": 14.9486, "lng": 120.0864}, {"city": "Bantay", "lat": 17.5833, "lng": 120.3833}, {"city": "Mankayan", "lat": 16.8667, "lng": 120.7833}, {"city": "Sitangkai", "lat": 4.6615, "lng": 119.3919}, {"city": "Basilisa", "lat": 10.0654, "lng": 125.5968}, {"city": "San Enrique", "lat": 11.0697, "lng": 122.6567}, {"city": "Moalboal", "lat": 9.95, "lng": 123.4}, {"city": "Imbatug", "lat": 8.3128, "lng": 124.6873}, {"city": "Languyan", "lat": 5.2667, "lng": 120.0833}, {"city": "Sagnay", "lat": 13.6, "lng": 123.5167}, {"city": "Magsaysay", "lat": 9.0167, "lng": 125.1833}, {"city": "Canaman", "lat": 13.65, "lng": 123.1667}, {"city": "Manucan", "lat": 8.5161, "lng": 123.0917}, {"city": "San Luis", "lat": 13.8333, "lng": 120.9333}, {"city": "Aurora", "lat": 16.9918, "lng": 121.6357}, {"city": "Numancia", "lat": 11.7, "lng": 122.3333}, {"city": "Enrile", "lat": 17.55, "lng": 121.7}, {"city": "Cuenca", "lat": 13.9167, "lng": 121.05}, {"city": "Las Navas", "lat": 12.34, "lng": 125.032}, {"city": "Dinas", "lat": 7.6136, "lng": 123.3389}, {"city": "Gasan", "lat": 13.3167, "lng": 121.85}, {"city": "Simbahan", "lat": 6.3, "lng": 120.5833}, {"city": "Cabanglasan", "lat": 8.0667, "lng": 125.3167}, {"city": "Dagami", "lat": 11.0611, "lng": 124.9031}, {"city": "Rapu-Rapu", "lat": 13.1833, "lng": 124.1333}, {"city": "Capalonga", "lat": 14.3333, "lng": 122.5}, {"city": "Siayan", "lat": 8.2519, "lng": 123.1122}, {"city": "Pandan", "lat": 11.7167, "lng": 122.1}, {"city": "Barira", "lat": 7.4833, "lng": 124.3}, {"city": "Gutalac", "lat": 7.9833, "lng": 122.4}, {"city": "Bautista", "lat": 15.7833, "lng": 120.5}, {"city": "Claveria", "lat": 9.5667, "lng": 125.7333}, {"city": "San Antonio", "lat": 13.9, "lng": 121.3}, {"city": "Sibuco", "lat": 7.2833, "lng": 122.0667}, {"city": "Matanog", "lat": 7.4667, "lng": 124.25}, {"city": "Jagna", "lat": 9.65, "lng": 124.3667}, {"city": "Casiguran", "lat": 12.8667, "lng": 124.0167}, {"city": "Medina", "lat": 8.9167, "lng": 125.0167}, {"city": "Guimbal", "lat": 10.6667, "lng": 122.3167}, {"city": "Leganes", "lat": 10.7833, "lng": 122.5833}, {"city": "Santa Ana", "lat": 18.4667, "lng": 122.15}, {"city": "Pambujan", "lat": 12.5667, "lng": 124.9333}, {"city": "Balasan", "lat": 11.4728, "lng": 123.0878}, {"city": "Santa Fe", "lat": 11.15, "lng": 123.8}, {"city": "Mendez-Nunez", "lat": 14.1286, "lng": 120.9058}, {"city": "Pola", "lat": 13.1439, "lng": 121.44}, {"city": "Juban", "lat": 12.85, "lng": 123.9833}, {"city": "Morong", "lat": 14.68, "lng": 120.2683}, {"city": "Sulop", "lat": 6.5986, "lng": 125.3436}, {"city": "Allacapan", "lat": 18.227, "lng": 121.5556}, {"city": "Gandara", "lat": 12.013, "lng": 124.8118}, {"city": "Trinidad", "lat": 10.0795, "lng": 124.3432}, {"city": "Lingig", "lat": 8.0381, "lng": 126.4127}, {"city": "Abra de Ilog", "lat": 13.4448, "lng": 120.726}, {"city": "San Luis", "lat": 8.4964, "lng": 125.7364}, {"city": "Munai", "lat": 7.9758, "lng": 124.0636}, {"city": "Payao", "lat": 7.5857, "lng": 122.8022}, {"city": "Aloguinsan", "lat": 10.2229, "lng": 123.5491}, {"city": "Duenas", "lat": 11.0667, "lng": 122.6167}, {"city": "Milaor", "lat": 13.6, "lng": 123.1833}, {"city": "Laoac East", "lat": 16.0333, "lng": 120.55}, {"city": "Barugo", "lat": 11.3167, "lng": 124.7333}, {"city": "Bugasong", "lat": 11.05, "lng": 122.0667}, {"city": "Mogpog", "lat": 13.4833, "lng": 121.8667}, {"city": "Santa Maria", "lat": 14.475, "lng": 121.425}, {"city": "Abulug", "lat": 18.4441, "lng": 121.4576}, {"city": "Jalajala", "lat": 14.3557, "lng": 121.3233}, {"city": "Bonifacio", "lat": 8.0527, "lng": 123.6136}, {"city": "Ballesteros", "lat": 18.4, "lng": 121.5167}, {"city": "Santa Maria", "lat": 15.9808, "lng": 120.7003}, {"city": "Bayog", "lat": 7.8474, "lng": 123.0423}, {"city": "New Panamao", "lat": 5.9667, "lng": 121.2}, {"city": "Simunul", "lat": 4.898, "lng": 119.8213}, {"city": "Talayan", "lat": 6.9844, "lng": 124.3564}, {"city": "San Manuel", "lat": 17.0167, "lng": 121.6333}, {"city": "Tandubas", "lat": 5.134, "lng": 120.3461}, {"city": "Sibutu", "lat": 4.85, "lng": 119.4667}, {"city": "Pinukpuk", "lat": 17.6, "lng": 121.3667}, {"city": "Guindulman", "lat": 9.762, "lng": 124.488}, {"city": "San Quintin", "lat": 15.9844, "lng": 120.815}, {"city": "General Nakar", "lat": 14.7631, "lng": 121.635}, {"city": "Dao", "lat": 11.3944, "lng": 122.6858}, {"city": "Palapag", "lat": 12.547, "lng": 125.116}, {"city": "Tabango", "lat": 11.3167, "lng": 124.3667}, {"city": "Initao", "lat": 8.5, "lng": 124.3167}, {"city": "Cantilan", "lat": 9.3336, "lng": 125.9775}, {"city": "San Remigio", "lat": 10.8331, "lng": 122.0875}, {"city": "Tobias Fornier", "lat": 10.5167, "lng": 121.95}, {"city": "Lianga", "lat": 8.633, "lng": 126.0932}, {"city": "Lupi Viejo", "lat": 13.8167, "lng": 122.9}, {"city": "Catmon", "lat": 10.6667, "lng": 123.95}, {"city": "Sibagat", "lat": 8.8219, "lng": 125.6938}, {"city": "Bacarra", "lat": 18.2519, "lng": 120.6107}, {"city": "Naguilian", "lat": 17.0167, "lng": 121.85}, {"city": "Datu Paglas", "lat": 6.7669, "lng": 124.85}, {"city": "Kadingilan", "lat": 7.6, "lng": 124.9167}, {"city": "Batan", "lat": 11.5833, "lng": 122.5}, {"city": "Capoocan", "lat": 11.2833, "lng": 124.65}, {"city": "Batobato", "lat": 6.8244, "lng": 126.083}, {"city": "Masiu", "lat": 7.8167, "lng": 124.3167}, {"city": "Midsalip", "lat": 8.0324, "lng": 123.3145}, {"city": "Sapa Sapa", "lat": 5.0899, "lng": 120.2729}, {"city": "Banate", "lat": 11.05, "lng": 122.7833}, {"city": "Getafe", "lat": 10.15, "lng": 124.15}, {"city": "Columbio", "lat": 6.7, "lng": 124.9333}, {"city": "San Vicente", "lat": 10.5333, "lng": 119.2833}, {"city": "Calape", "lat": 9.8833, "lng": 123.8833}, {"city": "Vintar", "lat": 18.225, "lng": 120.65}, {"city": "Dupax Del Norte", "lat": 16.2864, "lng": 121.0942}, {"city": "Pandami", "lat": 5.5333, "lng": 120.75}, {"city": "Dipaculao", "lat": 15.9833, "lng": 121.6333}, {"city": "Dumalinao", "lat": 7.8167, "lng": 123.3667}, {"city": "Lumbang", "lat": 14.297, "lng": 121.459}, {"city": "Dolores", "lat": 14.0157, "lng": 121.4011}, {"city": "Badoc", "lat": 17.9267, "lng": 120.4754}, {"city": "Matalom", "lat": 10.2833, "lng": 124.8}, {"city": "Diplahan", "lat": 7.6939, "lng": 122.9845}, {"city": "Mayantoc", "lat": 15.6167, "lng": 120.3833}, {"city": "Balindong", "lat": 7.9167, "lng": 124.2}, {"city": "Penaranda", "lat": 15.35, "lng": 121.0}, {"city": "Alubijid", "lat": 8.5714, "lng": 124.4751}, {"city": "Jimalalud", "lat": 9.9797, "lng": 123.1999}, {"city": "Mallig", "lat": 17.2, "lng": 121.6167}, {"city": "Igbaras", "lat": 10.7167, "lng": 122.2667}, {"city": "Balimbing", "lat": 7.9, "lng": 123.85}, {"city": "Tubao", "lat": 16.35, "lng": 120.4167}, {"city": "Buguey", "lat": 18.2882, "lng": 121.8331}, {"city": "Catubig", "lat": 12.4, "lng": 125.05}, {"city": "Salug", "lat": 8.1079, "lng": 122.7542}, {"city": "Tamparan", "lat": 7.879, "lng": 124.333}, {"city": "Caramoran", "lat": 13.9833, "lng": 124.1333}, {"city": "Bauko", "lat": 16.9833, "lng": 120.8667}, {"city": "Malangas", "lat": 7.6263, "lng": 123.034}, {"city": "Claveria", "lat": 18.6, "lng": 121.0833}, {"city": "Polillo", "lat": 14.7167, "lng": 121.95}, {"city": "Mataas Na Kahoy", "lat": 13.9667, "lng": 121.0833}, {"city": "Sigma", "lat": 11.4214, "lng": 122.6662}, {"city": "Sergio Osmena Sr", "lat": 8.2988, "lng": 123.5036}, {"city": "Calubian", "lat": 11.45, "lng": 124.4167}, {"city": "Merida", "lat": 10.9098, "lng": 124.5376}, {"city": "Ivisan", "lat": 11.5217, "lng": 122.6908}, {"city": "Pantabangan", "lat": 15.8167, "lng": 121.15}, {"city": "Magsingal", "lat": 17.685, "lng": 120.4244}, {"city": "Lemery", "lat": 11.2333, "lng": 122.9333}, {"city": "President Roxas", "lat": 11.43, "lng": 122.93}, {"city": "Dimataling", "lat": 7.5333, "lng": 123.3667}, {"city": "Dasol", "lat": 15.9896, "lng": 119.8805}, {"city": "Bagac", "lat": 14.5951, "lng": 120.3918}, {"city": "Pulupandan", "lat": 10.5167, "lng": 122.8}, {"city": "Buenavista", "lat": 13.7394, "lng": 122.4675}, {"city": "Siraway", "lat": 7.5881, "lng": 122.1424}, {"city": "Gata", "lat": 7.85, "lng": 124.35}, {"city": "Paracelis", "lat": 17.2667, "lng": 121.4667}, {"city": "San Narciso", "lat": 15.0167, "lng": 120.0833}, {"city": "Tairan Camp", "lat": 6.65, "lng": 121.8667}, {"city": "San Miguel", "lat": 10.7833, "lng": 122.4667}, {"city": "Balatan", "lat": 13.3167, "lng": 123.2333}, {"city": "La Paz", "lat": 8.2801, "lng": 125.8092}, {"city": "San Isidro", "lat": 11.4167, "lng": 124.35}, {"city": "Ganassi", "lat": 7.8269, "lng": 124.1034}, {"city": "Aglipay", "lat": 16.4889, "lng": 121.5874}, {"city": "Gamu", "lat": 17.05, "lng": 121.8333}, {"city": "Anilao", "lat": 10.9785, "lng": 122.7531}, {"city": "Torrijos", "lat": 13.3167, "lng": 122.0833}, {"city": "Pantao-Ragat", "lat": 8.05, "lng": 124.15}, {"city": "Santa Maria", "lat": 17.3667, "lng": 120.4833}, {"city": "Maguing", "lat": 7.9, "lng": 124.4}, {"city": "Balungao", "lat": 15.9, "lng": 120.7}, {"city": "Candijay", "lat": 9.818, "lng": 124.496}, {"city": "Dumalag", "lat": 11.3, "lng": 122.6167}, {"city": "Candelaria", "lat": 15.6333, "lng": 119.9333}, {"city": "Balete", "lat": 11.55, "lng": 122.3833}, {"city": "Iguig", "lat": 17.75, "lng": 121.7333}, {"city": "Salay", "lat": 8.8667, "lng": 124.8}, {"city": "Las Nieves", "lat": 8.7351, "lng": 125.601}, {"city": "Dauin", "lat": 9.2, "lng": 123.2667}, {"city": "Calintaan", "lat": 12.5756, "lng": 120.9428}, {"city": "Padada", "lat": 6.6333, "lng": 125.35}, {"city": "Piagapo", "lat": 8.0, "lng": 124.2}, {"city": "Marogong", "lat": 7.6667, "lng": 124.15}, {"city": "Makato", "lat": 11.712, "lng": 122.2922}, {"city": "Agno", "lat": 16.1161, "lng": 119.8027}, {"city": "Placer", "lat": 9.657, "lng": 125.6016}, {"city": "Bontoc", "lat": 10.35, "lng": 124.9667}, {"city": "Ragan Sur", "lat": 17.3167, "lng": 121.7833}, {"city": "San Roque", "lat": 12.533, "lng": 124.867}, {"city": "Buenavista", "lat": 10.0833, "lng": 124.1167}, {"city": "Balabagan", "lat": 7.5333, "lng": 124.1167}, {"city": "San Jacinto", "lat": 12.5667, "lng": 123.7333}, {"city": "Zamboanguita", "lat": 9.1, "lng": 123.199}, {"city": "Benito Soliven", "lat": 16.9833, "lng": 121.95}, {"city": "San Luis", "lat": 15.7167, "lng": 121.5167}, {"city": "Pasuquin", "lat": 18.3333, "lng": 120.6167}, {"city": "Manticao", "lat": 8.4042, "lng": 124.2867}, {"city": "Licab", "lat": 15.5439, "lng": 120.7634}, {"city": "South Ubian", "lat": 5.1833, "lng": 120.4833}, {"city": "Sumilao", "lat": 8.2872, "lng": 124.9456}, {"city": "Kumalarang", "lat": 7.75, "lng": 123.15}, {"city": "Lavezares", "lat": 12.5333, "lng": 124.3333}, {"city": "Santo Domingo", "lat": 17.6333, "lng": 120.4083}, {"city": "Garchitorena", "lat": 13.8833, "lng": 123.7}, {"city": "Oslob", "lat": 9.55, "lng": 123.4}, {"city": "Sexmoan", "lat": 14.9333, "lng": 120.6167}, {"city": "Dapa", "lat": 9.7667, "lng": 126.05}, {"city": "Hinunangan", "lat": 10.4, "lng": 125.2}, {"city": "Poona-Piagapo", "lat": 8.0833, "lng": 124.0833}, {"city": "Jimenez", "lat": 8.3333, "lng": 123.8333}, {"city": "Lugus", "lat": 5.7, "lng": 120.8167}, {"city": "Tabuelan", "lat": 10.85, "lng": 123.9}, {"city": "Ponot", "lat": 8.45, "lng": 123.0333}, {"city": "Babatngon", "lat": 11.4207, "lng": 124.8434}, {"city": "San Manuel", "lat": 15.8333, "lng": 120.5833}, {"city": "Ampatuan", "lat": 6.8348, "lng": 124.4581}, {"city": "Baleno", "lat": 12.4739, "lng": 123.4982}, {"city": "Mabini", "lat": 9.865, "lng": 124.523}, {"city": "Pilar", "lat": 9.8333, "lng": 124.3333}, {"city": "Tudela", "lat": 8.2472, "lng": 123.8424}, {"city": "Tibiao", "lat": 11.2915, "lng": 122.0354}, {"city": "Santiago", "lat": 9.2654, "lng": 125.5602}, {"city": "Basay", "lat": 9.4167, "lng": 122.6333}, {"city": "Saint Bernard", "lat": 10.2833, "lng": 125.1333}, {"city": "Dona Remedios Trinidad", "lat": 15.0, "lng": 121.0833}, {"city": "Valencia", "lat": 9.6097, "lng": 124.208}, {"city": "Magdalena", "lat": 14.2, "lng": 121.4333}, {"city": "Santo Nino", "lat": 17.8861, "lng": 121.5691}, {"city": "Kolambugan", "lat": 8.1144, "lng": 123.8971}, {"city": "Datu Piang", "lat": 7.0178, "lng": 124.4974}, {"city": "Reina Mercedes Viejo", "lat": 16.9833, "lng": 121.7833}, {"city": "Libacao", "lat": 11.4833, "lng": 122.3}, {"city": "Talusan", "lat": 7.4263, "lng": 122.8084}, {"city": "Majayjay", "lat": 14.1463, "lng": 121.4729}, {"city": "Mainit", "lat": 9.535, "lng": 125.5231}, {"city": "Cabangan", "lat": 15.1333, "lng": 120.15}, {"city": "Cuartero", "lat": 11.35, "lng": 122.6667}, {"city": "Aloran", "lat": 8.4146, "lng": 123.8228}, {"city": "Bayang", "lat": 7.793, "lng": 124.192}, {"city": "Talisay", "lat": 14.1333, "lng": 122.9167}, {"city": "San Isidro", "lat": 12.388, "lng": 124.331}, {"city": "Dingalan", "lat": 15.3833, "lng": 121.4}, {"city": "Alitagtag", "lat": 13.865, "lng": 121.0063}, {"city": "Mahaplag", "lat": 10.5833, "lng": 124.9833}, {"city": "Lapuyan", "lat": 7.6333, "lng": 123.2}, {"city": "Zarraga", "lat": 10.8167, "lng": 122.6}, {"city": "Pitogo", "lat": 7.45, "lng": 123.3167}, {"city": "Leon Postigo", "lat": 8.1514, "lng": 122.9244}, {"city": "Villareal", "lat": 11.5667, "lng": 124.9333}, {"city": "Bien Unido", "lat": 10.1333, "lng": 124.3833}, {"city": "Conner", "lat": 17.8, "lng": 121.2333}, {"city": "Macalelon", "lat": 13.75, "lng": 122.1333}, {"city": "Ramon Magsaysay", "lat": 8.0, "lng": 123.4833}, {"city": "Palanas", "lat": 12.15, "lng": 123.9167}, {"city": "San Isidro", "lat": 16.8667, "lng": 121.7667}, {"city": "Badiangan", "lat": 10.986, "lng": 122.5369}, {"city": "Magarao", "lat": 13.6604, "lng": 123.1869}, {"city": "San Jose", "lat": 10.0083, "lng": 125.5889}, {"city": "Taraka", "lat": 7.8994, "lng": 124.3481}, {"city": "Saguiaran", "lat": 8.0333, "lng": 124.2667}, {"city": "Quezon", "lat": 17.3167, "lng": 121.6167}, {"city": "Labrador", "lat": 16.0339, "lng": 120.1392}, {"city": "San Juan", "lat": 17.7422, "lng": 120.4583}, {"city": "Tarragona", "lat": 7.0491, "lng": 126.4471}, {"city": "Santa Margarita", "lat": 12.0378, "lng": 124.6578}, {"city": "Pantar", "lat": 8.0667, "lng": 124.2667}, {"city": "Lagindingan", "lat": 8.5833, "lng": 124.45}, {"city": "Sapian", "lat": 11.5, "lng": 122.6}, {"city": "Lauaan", "lat": 11.1429, "lng": 122.0417}, {"city": "Bugho", "lat": 10.8, "lng": 124.9333}, {"city": "San Pablo", "lat": 7.65, "lng": 123.45}, {"city": "Macrohon", "lat": 10.0797, "lng": 124.9431}, {"city": "Malitbog", "lat": 8.5333, "lng": 124.8833}, {"city": "Pandag", "lat": 6.7411, "lng": 124.7827}, {"city": "Poro", "lat": 10.629, "lng": 124.407}, {"city": "Pura", "lat": 15.6248, "lng": 120.648}, {"city": "Casiguran", "lat": 16.2833, "lng": 122.1167}, {"city": "Bubong", "lat": 8.0167, "lng": 124.4833}, {"city": "Mabini", "lat": 16.0697, "lng": 119.94}, {"city": "Madalum", "lat": 7.853, "lng": 124.119}, {"city": "Del Gallego", "lat": 13.9167, "lng": 122.6}, {"city": "Kayapa", "lat": 16.4167, "lng": 120.9167}, {"city": "Santa Josefa", "lat": 7.9842, "lng": 126.0285}, {"city": "Santa Lucia", "lat": 17.1167, "lng": 120.45}, {"city": "Manito", "lat": 13.1235, "lng": 123.8693}, {"city": "Lamut", "lat": 16.65, "lng": 121.225}, {"city": "Burgos", "lat": 17.0667, "lng": 121.7}, {"city": "Sinait", "lat": 17.8667, "lng": 120.4583}, {"city": "Buenavista", "lat": 13.25, "lng": 121.95}, {"city": "San Pablo", "lat": 17.4831, "lng": 121.9878}, {"city": "Sanchez-Mira", "lat": 18.5667, "lng": 121.2333}, {"city": "Infanta", "lat": 15.8208, "lng": 119.9083}, {"city": "Sierra Bullones", "lat": 9.8167, "lng": 124.2833}, {"city": "Socorro", "lat": 9.621, "lng": 125.967}, {"city": "Bobon", "lat": 12.5167, "lng": 124.5667}, {"city": "Dancagan", "lat": 7.6167, "lng": 125.0}, {"city": "Binidayan", "lat": 7.8, "lng": 124.1667}, {"city": "Tabina", "lat": 7.4655, "lng": 123.4086}, {"city": "Tubay", "lat": 9.165, "lng": 125.5226}, {"city": "Natividad", "lat": 16.05, "lng": 120.8167}, {"city": "Talisayan", "lat": 8.9917, "lng": 124.8833}, {"city": "Santa Maria", "lat": 17.4667, "lng": 121.75}, {"city": "Tarangnan", "lat": 11.9, "lng": 124.75}, {"city": "Alegria", "lat": 9.7243, "lng": 123.3402}, {"city": "Altavas", "lat": 11.5333, "lng": 122.4833}, {"city": "Lopez Jaena", "lat": 8.55, "lng": 123.7667}, {"city": "Allen", "lat": 12.5013, "lng": 124.282}, {"city": "Ayuquitan", "lat": 9.4644, "lng": 123.2237}, {"city": "Tipo-Tipo", "lat": 6.5333, "lng": 122.1667}, {"city": "Busuanga", "lat": 12.1335, "lng": 119.9363}, {"city": "Unisan", "lat": 13.8413, "lng": 121.9752}, {"city": "Sarrat", "lat": 18.1622, "lng": 120.6478}, {"city": "Pangil", "lat": 14.4, "lng": 121.4667}, {"city": "San Nicolas", "lat": 13.9283, "lng": 120.951}, {"city": "Camalaniugan", "lat": 18.2667, "lng": 121.6833}, {"city": "San Miguel", "lat": 10.0, "lng": 124.3167}, {"city": "Tumbao", "lat": 7.1167, "lng": 124.3833}, {"city": "Talugtug", "lat": 15.7789, "lng": 120.8111}, {"city": "Nagtipunan", "lat": 16.2167, "lng": 121.6}, {"city": "Paete", "lat": 14.3667, "lng": 121.4833}, {"city": "Monreal", "lat": 12.644, "lng": 123.6648}, {"city": "Paoay", "lat": 18.0553, "lng": 120.5161}, {"city": "Poblacion", "lat": 10.1614, "lng": 125.1303}, {"city": "Kalayaan", "lat": 14.328, "lng": 121.48}, {"city": "San Felipe", "lat": 15.0619, "lng": 120.07}, {"city": "Pagudpud", "lat": 18.5583, "lng": 120.7847}, {"city": "Quirino", "lat": 17.1333, "lng": 121.7}, {"city": "Dimasalang", "lat": 12.1923, "lng": 123.8592}, {"city": "Ternate", "lat": 14.2833, "lng": 120.7167}, {"city": "General Luna", "lat": 13.6881, "lng": 122.1708}, {"city": "Baroy", "lat": 8.0333, "lng": 123.7833}, {"city": "Balete", "lat": 14.0167, "lng": 121.1}, {"city": "San Enrique", "lat": 10.4167, "lng": 122.85}, {"city": "Solsona", "lat": 18.1, "lng": 120.7667}, {"city": "Piat", "lat": 17.7917, "lng": 121.475}, {"city": "Jabonga", "lat": 9.3431, "lng": 125.5156}, {"city": "Tugaya", "lat": 7.884, "lng": 124.172}, {"city": "Santo Tomas", "lat": 17.4, "lng": 121.7667}, {"city": "Pamplona", "lat": 18.45, "lng": 121.3417}, {"city": "Lucena", "lat": 10.8833, "lng": 122.6}, {"city": "Tamilisan", "lat": 7.9742, "lng": 122.6625}, {"city": "Patian", "lat": 5.8444, "lng": 121.1439}, {"city": "Tuburan", "lat": 6.6, "lng": 122.2}, {"city": "Burdeos", "lat": 14.8436, "lng": 121.9697}, {"city": "Sagbayan", "lat": 9.9167, "lng": 124.1}, {"city": "Carrascal", "lat": 9.3703, "lng": 125.9492}, {"city": "Malinao", "lat": 11.65, "lng": 122.3}, {"city": "Garcia Hernandez", "lat": 9.6144, "lng": 124.2946}, {"city": "Bacolod", "lat": 8.1892, "lng": 124.0238}, {"city": "Mina", "lat": 10.9333, "lng": 122.5833}, {"city": "Kauswagan", "lat": 8.1917, "lng": 124.0847}, {"city": "Alicia", "lat": 9.8957, "lng": 124.4415}, {"city": "Lagonglong", "lat": 8.8, "lng": 124.7833}, {"city": "Caibiran", "lat": 11.5667, "lng": 124.5833}, {"city": "Ramain", "lat": 7.9667, "lng": 124.35}, {"city": "San Fernando", "lat": 12.3167, "lng": 122.6}, {"city": "San Agustin", "lat": 12.5689, "lng": 122.1314}, {"city": "Quezon", "lat": 16.5, "lng": 121.2667}, {"city": "Bulusan", "lat": 12.75, "lng": 124.1167}, {"city": "Magallanes", "lat": 14.1833, "lng": 120.75}, {"city": "Cavinti", "lat": 14.245, "lng": 121.507}, {"city": "Pitogo", "lat": 10.121, "lng": 124.553}, {"city": "Tangalan", "lat": 11.7667, "lng": 122.25}, {"city": "Catigbian", "lat": 9.8333, "lng": 124.0333}, {"city": "Limbuhan", "lat": 11.9, "lng": 124.0333}, {"city": "Pakil", "lat": 14.3833, "lng": 121.4833}, {"city": "Burgos", "lat": 16.0465, "lng": 119.8568}, {"city": "Kalawit", "lat": 7.9051, "lng": 122.5279}, {"city": "Candoni", "lat": 9.8167, "lng": 122.6}, {"city": "Padre Burgos", "lat": 13.9226, "lng": 121.8116}, {"city": "Baliguian", "lat": 7.8088, "lng": 122.1452}, {"city": "Ramos", "lat": 15.6667, "lng": 120.6417}, {"city": "Cuyo", "lat": 10.85, "lng": 121.0167}, {"city": "Caba", "lat": 16.4316, "lng": 120.3446}, {"city": "Dumaran", "lat": 10.5333, "lng": 119.7667}, {"city": "Gamay", "lat": 12.3833, "lng": 125.3}, {"city": "Maibog", "lat": 10.15, "lng": 125.0}, {"city": "Maigo", "lat": 8.15, "lng": 123.9667}, {"city": "Barbasa", "lat": 11.2167, "lng": 122.05}, {"city": "Calamba", "lat": 8.5583, "lng": 123.6417}, {"city": "General Luna", "lat": 9.8, "lng": 126.1333}, {"city": "Calbiga", "lat": 11.6333, "lng": 125.0167}, {"city": "Cajidiocan", "lat": 12.3667, "lng": 122.6833}, {"city": "Tubungan", "lat": 10.7833, "lng": 122.3}, {"city": "Culion", "lat": 11.8353, "lng": 119.9933}, {"city": "Carmen", "lat": 8.9999, "lng": 125.2648}, {"city": "Baclayon", "lat": 9.6227, "lng": 123.9135}, {"city": "Pitogo", "lat": 13.785, "lng": 122.0881}, {"city": "Prieto Diaz", "lat": 13.0333, "lng": 124.1833}, {"city": "Viga", "lat": 13.8667, "lng": 124.3}, {"city": "Oteiza", "lat": 8.7437, "lng": 126.2214}, {"city": "Lumbatan", "lat": 7.785, "lng": 124.256}, {"city": "Santa Teresita", "lat": 13.8664, "lng": 120.9814}, {"city": "Butig", "lat": 7.7239, "lng": 124.3011}, {"city": "Lazi", "lat": 9.128, "lng": 123.634}, {"city": "Magallanes", "lat": 9.0225, "lng": 125.5179}, {"city": "Parabcan", "lat": 13.7167, "lng": 123.75}, {"city": "Sarangani", "lat": 5.4, "lng": 125.4667}, {"city": "Naawan", "lat": 8.4333, "lng": 124.3}, {"city": "Piddig", "lat": 18.1667, "lng": 120.7333}, {"city": "Batad", "lat": 11.4167, "lng": 123.1167}, {"city": "Santa Fe", "lat": 11.1856, "lng": 124.9161}, {"city": "Maribojoc", "lat": 9.75, "lng": 123.85}, {"city": "San Jose", "lat": 9.4167, "lng": 123.2333}, {"city": "Anini-y", "lat": 10.4325, "lng": 121.9253}, {"city": "Salcedo", "lat": 11.15, "lng": 125.6667}, {"city": "Bato", "lat": 13.6, "lng": 124.3}, {"city": "San Agustin", "lat": 16.5167, "lng": 121.75}, {"city": "Madamba", "lat": 7.8833, "lng": 124.0667}, {"city": "Gigaquit", "lat": 9.6, "lng": 125.7}, {"city": "Guipos", "lat": 7.7333, "lng": 123.3167}, {"city": "Looc", "lat": 12.2605, "lng": 121.9926}, {"city": "MacArthur", "lat": 10.85, "lng": 124.95}, {"city": "Cabucgayan", "lat": 11.4719, "lng": 124.575}, {"city": "San Fernando", "lat": 12.4833, "lng": 123.7622}, {"city": "Tigbao", "lat": 7.8205, "lng": 123.2277}, {"city": "Cagwait", "lat": 8.9167, "lng": 126.3}, {"city": "Can-Avid", "lat": 12.0, "lng": 125.45}, {"city": "Rancheria Payau", "lat": 7.8509, "lng": 123.1542}, {"city": "Pandan", "lat": 14.05, "lng": 124.1667}, {"city": "Tolosa", "lat": 11.0333, "lng": 125.0167}, {"city": "Inopacan", "lat": 10.5, "lng": 124.75}, {"city": "Clarin", "lat": 9.9667, "lng": 124.0167}, {"city": "Linamon", "lat": 8.1833, "lng": 124.1667}, {"city": "Mabitac", "lat": 14.4333, "lng": 121.4167}, {"city": "Llorente", "lat": 11.4167, "lng": 125.5333}, {"city": "Kitcharao", "lat": 9.4581, "lng": 125.5756}, {"city": "Ronda", "lat": 10.0003, "lng": 123.4095}, {"city": "Luna", "lat": 18.3244, "lng": 121.2486}, {"city": "Barcelona", "lat": 12.8667, "lng": 124.1333}, {"city": "Lugait", "lat": 8.3411, "lng": 124.2592}, {"city": "Dupax del Sur", "lat": 16.2833, "lng": 121.1}, {"city": "Hindang", "lat": 10.45, "lng": 124.8}, {"city": "Aguinaldo", "lat": 16.8206, "lng": 121.4629}, {"city": "Luna", "lat": 16.9667, "lng": 121.7333}, {"city": "Luisiana", "lat": 14.185, "lng": 121.5109}, {"city": "Banting", "lat": 5.7167, "lng": 120.9}, {"city": "San Guillermo", "lat": 16.7667, "lng": 121.8}, {"city": "Samboan", "lat": 9.5288, "lng": 123.3064}, {"city": "Kawayan", "lat": 11.7, "lng": 124.3667}, {"city": "Banaue", "lat": 16.9186, "lng": 121.0592}, {"city": "Sapang Dalaga", "lat": 8.55, "lng": 123.5667}, {"city": "Caoayan", "lat": 17.5333, "lng": 120.4}, {"city": "Kapay", "lat": 8.0833, "lng": 124.4}, {"city": "Magsaysay", "lat": 8.0333, "lng": 123.9167}, {"city": "Pinan", "lat": 8.4785, "lng": 123.451}, {"city": "Danao", "lat": 10.0167, "lng": 124.2667}, {"city": "Villa Verde", "lat": 16.5833, "lng": 121.2}, {"city": "Del Carmen", "lat": 9.869, "lng": 125.97}, {"city": "Dagohoy", "lat": 9.9167, "lng": 124.2833}, {"city": "Malabuyoc", "lat": 9.65, "lng": 123.3333}, {"city": "Valderrama", "lat": 11.0, "lng": 122.1333}, {"city": "Mulundo", "lat": 7.9333, "lng": 124.3833}, {"city": "San Miguel", "lat": 7.65, "lng": 123.2667}, {"city": "Santiago", "lat": 17.3, "lng": 120.45}, {"city": "San Miguel", "lat": 11.2672, "lng": 124.8325}, {"city": "Sinacaban", "lat": 8.2854, "lng": 123.8436}, {"city": "Tigbauan", "lat": 10.6747, "lng": 122.3776}, {"city": "Tingloy", "lat": 13.65, "lng": 120.8667}, {"city": "Santa Teresita", "lat": 18.25, "lng": 121.8833}, {"city": "Cabusao", "lat": 13.7167, "lng": 123.1}, {"city": "Pugo", "lat": 16.2833, "lng": 120.4833}, {"city": "Rizal", "lat": 17.5, "lng": 121.6}, {"city": "Tublay", "lat": 16.5167, "lng": 120.6167}, {"city": "Pastrana", "lat": 11.1333, "lng": 124.8833}, {"city": "Buruanga", "lat": 11.8438, "lng": 121.8888}, {"city": "Siruma", "lat": 14.0, "lng": 123.25}, {"city": "Cervantes", "lat": 16.9917, "lng": 120.7333}, {"city": "Espiritu", "lat": 17.9833, "lng": 120.65}, {"city": "Marihatag", "lat": 8.8, "lng": 126.3}, {"city": "Alcoy", "lat": 9.7082, "lng": 123.506}, {"city": "Jiabong", "lat": 11.7625, "lng": 124.9519}, {"city": "Tadian", "lat": 16.9953, "lng": 120.8219}, {"city": "La Paz", "lat": 10.8833, "lng": 124.95}, {"city": "Kapangan", "lat": 16.5833, "lng": 120.6}, {"city": "Diadi", "lat": 16.6333, "lng": 121.35}, {"city": "Atok", "lat": 16.5667, "lng": 120.7}, {"city": "Rizal", "lat": 17.85, "lng": 121.35}, {"city": "San Teodoro", "lat": 13.4358, "lng": 121.0192}, {"city": "Lumbayanague", "lat": 7.7833, "lng": 124.2833}, {"city": "San Gabriel", "lat": 16.6667, "lng": 120.4}, {"city": "Malimono", "lat": 9.6167, "lng": 125.4}, {"city": "Duero", "lat": 9.7167, "lng": 124.4}, {"city": "Santander", "lat": 9.45, "lng": 123.3333}, {"city": "Cortes", "lat": 9.7167, "lng": 123.8833}, {"city": "Candon", "lat": 17.2, "lng": 120.45}, {"city": "Rizal", "lat": 14.1083, "lng": 121.3917}, {"city": "Sebaste", "lat": 11.5901, "lng": 122.0945}, {"city": "Madalag", "lat": 11.5167, "lng": 122.3}, {"city": "Taft", "lat": 11.9, "lng": 125.4167}, {"city": "Nunungan", "lat": 7.8167, "lng": 123.9667}, {"city": "Balilihan", "lat": 9.75, "lng": 123.9667}, {"city": "Paglat", "lat": 6.7811, "lng": 124.7849}, {"city": "Baliangao", "lat": 8.6667, "lng": 123.6}, {"city": "Bilar", "lat": 9.7, "lng": 124.1}, {"city": "Bombon", "lat": 13.6833, "lng": 123.2}, {"city": "Paluan", "lat": 13.4167, "lng": 120.4667}, {"city": "Tinoc", "lat": 16.7, "lng": 120.9}, {"city": "Mayorga", "lat": 10.9, "lng": 125.0}, {"city": "Cagdianao", "lat": 9.9167, "lng": 125.6667}, {"city": "Gitagum", "lat": 8.5956, "lng": 124.4054}, {"city": "Santa Fe", "lat": 16.1619, "lng": 120.9389}, {"city": "Almeria", "lat": 11.6206, "lng": 124.3794}, {"city": "Marcos", "lat": 18.05, "lng": 120.6833}, {"city": "Pinabacdao", "lat": 11.6167, "lng": 124.9833}, {"city": "San Jose", "lat": 12.531, "lng": 124.487}, {"city": "Loay", "lat": 9.6, "lng": 124.0167}, {"city": "Libjo", "lat": 10.196, "lng": 125.5328}, {"city": "Buadiposo-Buntong", "lat": 7.9667, "lng": 124.3833}, {"city": "Bucay", "lat": 17.5388, "lng": 120.7167}, {"city": "Santa Fe", "lat": 12.15, "lng": 122.0}, {"city": "Anda", "lat": 9.744, "lng": 124.576}, {"city": "Cortes", "lat": 9.2333, "lng": 126.1667}, {"city": "San Rafael", "lat": 11.1728, "lng": 122.8267}, {"city": "Flora", "lat": 18.1167, "lng": 121.4}, {"city": "Marabut", "lat": 11.1167, "lng": 125.2167}, {"city": "Jovellar", "lat": 13.0667, "lng": 123.6}, {"city": "Biliran", "lat": 11.4667, "lng": 124.4833}, {"city": "Catarman", "lat": 9.1333, "lng": 124.6833}, {"city": "Pinili", "lat": 17.954, "lng": 120.527}, {"city": "Esperanza", "lat": 11.7333, "lng": 124.05}, {"city": "Kiangan", "lat": 16.7833, "lng": 121.0833}, {"city": "Loboc", "lat": 9.6333, "lng": 124.0333}, {"city": "Sibutao", "lat": 8.6, "lng": 123.4667}, {"city": "Palanan", "lat": 17.0589, "lng": 122.43}, {"city": "Matagob", "lat": 11.1167, "lng": 124.4667}, {"city": "Libertad", "lat": 11.769, "lng": 121.9189}, {"city": "Boljoon", "lat": 9.6333, "lng": 123.4333}, {"city": "San Jorge", "lat": 11.9833, "lng": 124.8167}, {"city": "Lubang", "lat": 13.8, "lng": 120.15}, {"city": "Tagana-an", "lat": 9.7, "lng": 125.5833}, {"city": "Santa Magdalena", "lat": 12.65, "lng": 124.1}, {"city": "Alcantara", "lat": 12.2584, "lng": 122.0543}, {"city": "Saguday", "lat": 16.5167, "lng": 121.6}, {"city": "Calayan", "lat": 19.2667, "lng": 121.4833}, {"city": "Alcantara", "lat": 9.9715, "lng": 123.4047}, {"city": "Sudipen", "lat": 16.9, "lng": 120.4667}, {"city": "Tomas Oppus", "lat": 10.25, "lng": 124.9833}, {"city": "Dilasag", "lat": 16.4, "lng": 122.2167}, {"city": "Ginatilan", "lat": 9.6, "lng": 123.35}, {"city": "Famy", "lat": 14.4333, "lng": 121.45}, {"city": "Tubaran", "lat": 7.7167, "lng": 124.1667}, {"city": "La Paz", "lat": 17.6746, "lng": 120.6864}, {"city": "Madrid", "lat": 9.2667, "lng": 125.9667}, {"city": "San Juan", "lat": 9.159, "lng": 123.494}, {"city": "Zumarraga", "lat": 11.639, "lng": 124.841}, {"city": "San Miguel", "lat": 11.492, "lng": 119.871}, {"city": "Arteche", "lat": 12.2694, "lng": 125.3712}, {"city": "Panukulan", "lat": 14.9333, "lng": 121.8167}, {"city": "Alegria", "lat": 9.464, "lng": 125.5765}, {"city": "Bingawan", "lat": 11.2333, "lng": 122.5667}, {"city": "Leso", "lat": 11.6667, "lng": 122.3333}, {"city": "Alabat", "lat": 14.1023, "lng": 122.0136}, {"city": "Tankal", "lat": 8.0, "lng": 124.0}, {"city": "Quezon", "lat": 14.05, "lng": 122.1333}, {"city": "Despujols", "lat": 12.5333, "lng": 122.025}, {"city": "San Tomas", "lat": 15.8825, "lng": 120.5824}, {"city": "Santa Catalina", "lat": 17.5833, "lng": 120.3583}, {"city": "Julita", "lat": 10.9667, "lng": 124.9667}, {"city": "Kabayan", "lat": 16.6167, "lng": 120.8333}, {"city": "Sulat", "lat": 11.8167, "lng": 125.45}, {"city": "San Miguel", "lat": 13.6411, "lng": 124.3008}, {"city": "Mayoyao", "lat": 16.9667, "lng": 121.2167}, {"city": "Anao-aon", "lat": 9.7333, "lng": 125.4167}, {"city": "Ambaguio", "lat": 16.5316, "lng": 121.0282}, {"city": "San Policarpo", "lat": 12.1791, "lng": 125.5072}, {"city": "Magdiwang", "lat": 12.4833, "lng": 122.5167}, {"city": "Pudtol", "lat": 18.15, "lng": 121.2833}, {"city": "Victoria", "lat": 12.45, "lng": 124.3167}, {"city": "Libagon", "lat": 10.3, "lng": 125.05}, {"city": "Tubod", "lat": 9.562, "lng": 125.571}, {"city": "Motiong", "lat": 11.7833, "lng": 125.0}, {"city": "Maydolong", "lat": 11.5, "lng": 125.5}, {"city": "Tagoloan", "lat": 8.1333, "lng": 124.2667}, {"city": "Rizal", "lat": 8.5244, "lng": 123.5516}, {"city": "Silvino Lobos", "lat": 12.3, "lng": 124.8333}, {"city": "Patnanungan", "lat": 14.7833, "lng": 122.1833}, {"city": "Bangui", "lat": 18.5333, "lng": 120.7667}, {"city": "Santa", "lat": 17.4917, "lng": 120.4333}, {"city": "Tatarikan", "lat": 7.7333, "lng": 124.1167}, {"city": "Antequera", "lat": 9.7812, "lng": 123.8975}, {"city": "Tayum", "lat": 17.6165, "lng": 120.6553}, {"city": "Mahinog", "lat": 9.15, "lng": 124.7833}, {"city": "Matungao", "lat": 8.1333, "lng": 124.1667}, {"city": "San Juan", "lat": 10.2667, "lng": 125.1833}, {"city": "Calanogas", "lat": 7.75, "lng": 124.1}, {"city": "Lagangilang", "lat": 17.6103, "lng": 120.7344}, {"city": "Bacuag", "lat": 9.6081, "lng": 125.6405}, {"city": "Dimiao", "lat": 9.6167, "lng": 124.1667}, {"city": "San Julian", "lat": 11.7536, "lng": 125.4558}, {"city": "Batuan", "lat": 12.4167, "lng": 123.7667}, {"city": "Belison", "lat": 10.8333, "lng": 121.9667}, {"city": "Nampicuan", "lat": 15.7333, "lng": 120.6333}, {"city": "Larena", "lat": 9.249, "lng": 123.591}, {"city": "Lope de Vega", "lat": 12.2983, "lng": 124.6238}, {"city": "Quinapundan", "lat": 11.15, "lng": 125.5167}, {"city": "Boston", "lat": 7.8667, "lng": 126.3667}, {"city": "Maria", "lat": 9.196, "lng": 123.655}, {"city": "Pualas", "lat": 7.8167, "lng": 124.0667}, {"city": "Bakun", "lat": 16.7922, "lng": 120.6653}, {"city": "Bagulin", "lat": 16.6079, "lng": 120.4378}, {"city": "Sison", "lat": 9.66, "lng": 125.529}, {"city": "General MacArthur", "lat": 11.25, "lng": 125.5333}, {"city": "Araceli", "lat": 10.5529, "lng": 119.9904}, {"city": "Bokod", "lat": 16.5, "lng": 120.8333}, {"city": "Kinogitan", "lat": 8.9855, "lng": 124.7937}, {"city": "Balangiga", "lat": 11.1097, "lng": 125.3875}, {"city": "Mapanas", "lat": 12.475, "lng": 125.254}, {"city": "Santol", "lat": 16.7667, "lng": 120.45}, {"city": "San Vicente", "lat": 17.5917, "lng": 120.375}, {"city": "Batuan", "lat": 9.8, "lng": 124.1333}, {"city": "Sampaloc", "lat": 14.1667, "lng": 121.5833}, {"city": "Hinabangan", "lat": 11.7, "lng": 125.0667}, {"city": "Lanuza", "lat": 9.2342, "lng": 126.0644}, {"city": "Dakit", "lat": 10.06, "lng": 125.1606}, {"city": "Baras", "lat": 13.6667, "lng": 124.3667}, {"city": "Libertad", "lat": 8.5583, "lng": 124.35}, {"city": "San Clemente", "lat": 15.7167, "lng": 120.3667}, {"city": "Santa Marcela", "lat": 18.2833, "lng": 121.4333}, {"city": "Giporlos", "lat": 11.1167, "lng": 125.45}, {"city": "Agutaya", "lat": 11.152, "lng": 120.9396}, {"city": "Tinglayan", "lat": 17.2833, "lng": 121.1667}, {"city": "Silago", "lat": 10.5291, "lng": 125.1618}, {"city": "Agdangan", "lat": 13.8758, "lng": 121.9122}, {"city": "Culaba", "lat": 11.6578, "lng": 124.5425}, {"city": "Sagay", "lat": 9.1167, "lng": 124.7167}, {"city": "Lawaan", "lat": 11.15, "lng": 125.3}, {"city": "Burgos", "lat": 17.3333, "lng": 120.5}, {"city": "Perez", "lat": 14.1833, "lng": 121.9333}, {"city": "Santo Nino", "lat": 11.9263, "lng": 124.4492}, {"city": "Balbalan", "lat": 17.45, "lng": 121.15}, {"city": "Pilar", "lat": 10.807, "lng": 124.565}, {"city": "Magsaysay", "lat": 10.8667, "lng": 121.05}, {"city": "San Vicente", "lat": 14.1, "lng": 122.8667}, {"city": "Pidigan", "lat": 17.5703, "lng": 120.5893}, {"city": "Anao", "lat": 15.7304, "lng": 120.6264}, {"city": "Capul", "lat": 12.423, "lng": 124.182}, {"city": "Tagoloan", "lat": 8.1092, "lng": 124.4392}, {"city": "Hinundayan", "lat": 10.35, "lng": 125.25}, {"city": "Currimao", "lat": 18.0167, "lng": 120.4833}, {"city": "Calanasan", "lat": 18.2583, "lng": 121.0406}, {"city": "Lila", "lat": 9.6, "lng": 124.1}, {"city": "Josefina", "lat": 8.2, "lng": 123.5333}, {"city": "Tabontabon", "lat": 11.0333, "lng": 124.9667}, {"city": "Gainza", "lat": 13.6167, "lng": 123.15}, {"city": "Agcogon", "lat": 12.0667, "lng": 121.9333}, {"city": "Lapinig", "lat": 12.315, "lng": 125.302}, {"city": "Nueva Era", "lat": 17.9167, "lng": 120.6667}, {"city": "Mutia", "lat": 8.4176, "lng": 123.4771}, {"city": "Carmen", "lat": 9.2167, "lng": 125.9667}, {"city": "Dolores", "lat": 17.649, "lng": 120.7103}, {"city": "Biri", "lat": 12.6667, "lng": 124.3833}, {"city": "Manabo", "lat": 17.4331, "lng": 120.7048}, {"city": "Sablan", "lat": 16.5, "lng": 120.5167}, {"city": "Alburquerque", "lat": 9.6104, "lng": 123.9549}, {"city": "Sagada", "lat": 17.0833, "lng": 120.9}, {"city": "Tudela", "lat": 10.636, "lng": 124.47}, {"city": "Padre Burgos", "lat": 10.0333, "lng": 125.0167}, {"city": "Sevilla", "lat": 9.7, "lng": 124.05}, {"city": "Calatrava", "lat": 12.6167, "lng": 122.0708}, {"city": "Rosario", "lat": 12.5167, "lng": 124.4167}, {"city": "Bagamanoc", "lat": 13.9408, "lng": 124.2888}, {"city": "Salcedo", "lat": 17.15, "lng": 120.5333}, {"city": "Balingoan", "lat": 9.0, "lng": 124.85}, {"city": "Panaon", "lat": 8.3667, "lng": 123.8333}, {"city": "San Juan", "lat": 17.6834, "lng": 120.732}, {"city": "Suyo", "lat": 16.9667, "lng": 120.55}, {"city": "Burgos", "lat": 18.5167, "lng": 120.65}, {"city": "San Ricardo", "lat": 9.9167, "lng": 125.2833}, {"city": "Dinagat", "lat": 9.9561, "lng": 125.5933}, {"city": "Pasil", "lat": 17.3833, "lng": 121.15}, {"city": "Galimuyod", "lat": 17.1833, "lng": 120.4667}, {"city": "Pilar", "lat": 9.8667, "lng": 126.1}, {"city": "Pintuyan", "lat": 9.95, "lng": 125.25}, {"city": "Corcuera", "lat": 12.8, "lng": 122.05}, {"city": "Plaridel", "lat": 13.9511, "lng": 122.0203}, {"city": "Natonin", "lat": 17.1, "lng": 121.2833}, {"city": "Pilar", "lat": 17.4168, "lng": 120.5954}, {"city": "Balangkayan", "lat": 11.4667, "lng": 125.5}, {"city": "Sugbongkogon", "lat": 8.95, "lng": 124.7833}, {"city": "Hingyon", "lat": 16.8333, "lng": 121.1167}, {"city": "San Isidro", "lat": 9.8, "lng": 124.3}, {"city": "Panganiban", "lat": 13.9, "lng": 124.3}, {"city": "Sabangan", "lat": 16.95, "lng": 120.9167}, {"city": "Corella", "lat": 9.6833, "lng": 123.9167}, {"city": "Loreto", "lat": 10.3586, "lng": 125.5816}, {"city": "Santa Monica", "lat": 10.02, "lng": 126.038}, {"city": "Almagro", "lat": 11.9108, "lng": 124.2852}, {"city": "Lubuagan", "lat": 17.35, "lng": 121.1833}, {"city": "Quirino", "lat": 17.15, "lng": 120.6667}, {"city": "Concepcion", "lat": 8.4167, "lng": 123.6}, {"city": "San Antonio", "lat": 12.414, "lng": 124.279}, {"city": "Burgos", "lat": 16.525, "lng": 120.4583}, {"city": "Tagapul-an", "lat": 12.05, "lng": 124.15}, {"city": "Bayabas", "lat": 8.9667, "lng": 126.2667}, {"city": "San Sebastian", "lat": 11.7, "lng": 125.0167}, {"city": "San Ildefonso", "lat": 17.6167, "lng": 120.4}, {"city": "Hunduan", "lat": 16.8333, "lng": 121.0}, {"city": "San Esteban", "lat": 17.3333, "lng": 120.45}, {"city": "Tanudan", "lat": 17.3, "lng": 121.2333}, {"city": "Gigmoto", "lat": 13.7833, "lng": 124.3833}, {"city": "San Isidro", "lat": 9.9369, "lng": 126.0886}, {"city": "Hernani", "lat": 11.3333, "lng": 125.5833}, {"city": "Tunga", "lat": 11.25, "lng": 124.75}, {"city": "Anahawan", "lat": 10.2742, "lng": 125.2584}, {"city": "Alfonso Castaneda", "lat": 15.794, "lng": 121.3}, {"city": "Sadanga", "lat": 17.1667, "lng": 121.0333}, {"city": "Hipadpad", "lat": 12.2833, "lng": 125.2333}, {"city": "Ferrol", "lat": 12.3383, "lng": 121.9386}, {"city": "Banayoyo", "lat": 17.2333, "lng": 120.4833}, {"city": "Libertad", "lat": 8.467, "lng": 123.5266}, {"city": "Pagsanghan", "lat": 11.9651, "lng": 124.7213}, {"city": "Tubajon", "lat": 10.3253, "lng": 125.5572}, {"city": "Talalora", "lat": 11.5167, "lng": 124.85}, {"city": "Looc", "lat": 13.7217, "lng": 120.2506}, {"city": "Rizal", "lat": 14.696, "lng": 122.331}, {"city": "San Jose de Buan", "lat": 12.05, "lng": 125.0667}, {"city": "Binuangan", "lat": 8.9167, "lng": 124.8}, {"city": "Alilem", "lat": 16.8869, "lng": 120.531}, {"city": "Matuguinao", "lat": 12.15, "lng": 124.8833}, {"city": "San Vicente", "lat": 12.35, "lng": 124.05}, {"city": "San Emilio", "lat": 17.2333, "lng": 120.6167}, {"city": "Cagayancillo", "lat": 9.5769, "lng": 121.1972}, {"city": "Penarrubia", "lat": 17.5642, "lng": 120.6522}, {"city": "Sikatuna", "lat": 9.6833, "lng": 123.9667}, {"city": "Limasawa", "lat": 9.9078, "lng": 125.075}, {"city": "Guinisiliban", "lat": 9.1, "lng": 124.7833}, {"city": "Enrique Villanueva", "lat": 9.276, "lng": 123.647}, {"city": "Besao", "lat": 17.1, "lng": 120.8167}, {"city": "Maripipi", "lat": 11.7833, "lng": 124.35}, {"city": "Luba", "lat": 17.3181, "lng": 120.6952}, {"city": "Sallapadan", "lat": 17.4551, "lng": 120.7599}, {"city": "Mercedes", "lat": 11.1, "lng": 125.7167}, {"city": "Jones", "lat": 12.95, "lng": 122.0833}, {"city": "Divilaca", "lat": 17.3333, "lng": 122.3}, {"city": "Dinapigue", "lat": 16.6667, "lng": 122.35}, {"city": "San Quintin", "lat": 17.5427, "lng": 120.5203}, {"city": "San Benito", "lat": 9.958, "lng": 126.007}, {"city": "Villaviciosa", "lat": 17.4379, "lng": 120.6253}, {"city": "Tubo", "lat": 17.2567, "lng": 120.7256}, {"city": "Taganak", "lat": 6.0833, "lng": 118.3167}, {"city": "Nagbukel", "lat": 17.45, "lng": 120.55}, {"city": "Maslog", "lat": 12.1, "lng": 125.1667}]