[{"city": "Port Moresby", "lat": -9.4789, "lng": 147.1494}, {"city": "Lae", "lat": -6.7303, "lng": 147.0008}, {"city": "Madang", "lat": -5.2248, "lng": 145.7853}, {"city": "Mount Hagen", "lat": -5.8667, "lng": 144.2167}, {"city": "Popondetta", "lat": -8.7656, "lng": 148.2347}, {"city": "Mendi", "lat": -6.1478, "lng": 143.6572}, {"city": "Wewak", "lat": -3.55, "lng": 143.6333}, {"city": "Goroka", "lat": -6.0833, "lng": 145.3833}, {"city": "Kavieng", "lat": -2.5667, "lng": 150.8}, {"city": "Kimbe", "lat": -5.55, "lng": 150.143}, {"city": "Daru", "lat": -9.0833, "lng": 143.2}, {"city": "Alotau", "lat": -10.3167, "lng": 150.4333}, {"city": "Vanimo", "lat": -2.6817, "lng": 141.3014}, {"city": "Kundiawa", "lat": -6.023, "lng": 144.96}, {"city": "Lorengau", "lat": -2.0208, "lng": 147.2667}, {"city": "Kerema", "lat": -7.927, "lng": 145.838}, {"city": "Wabag", "lat": -5.4833, "lng": 143.7}, {"city": "Kokopo", "lat": -4.35, "lng": 152.2736}, {"city": "Kurumul", "lat": -5.855, "lng": 144.6311}, {"city": "Tari", "lat": -5.8489, "lng": 142.9506}, {"city": "Buka", "lat": -5.4219, "lng": 154.6728}, {"city": "Arawa", "lat": -6.228, "lng": 155.566}, {"city": "Kiunga", "lat": -6.1167, "lng": 141.3}, {"city": "Rabaul", "lat": -4.1981, "lng": 152.1681}, {"city": "Kieta", "lat": -6.2058, "lng": 155.6227}, {"city": "Sohano", "lat": -5.4297, "lng": 154.6711}, {"city": "Hoskins", "lat": -5.4746, "lng": 150.41}, {"city": "Amau", "lat": -10.0426, "lng": 148.565}]