[{"city": "Warsaw", "lat": 52.23, "lng": 21.0111}, {"city": "Krakow", "lat": 50.0614, "lng": 19.9372}, {"city": "Lodz", "lat": 51.7769, "lng": 19.4547}, {"city": "Wroclaw", "lat": 51.11, "lng": 17.0325}, {"city": "Poznan", "lat": 52.4083, "lng": 16.9336}, {"city": "Gdansk", "lat": 54.3667, "lng": 18.6333}, {"city": "Szczecin", "lat": 53.4247, "lng": 14.5553}, {"city": "Bydgoszcz", "lat": 53.1167, "lng": 18.0}, {"city": "Lublin", "lat": 51.2333, "lng": 22.5667}, {"city": "Bialystok", "lat": 53.1167, "lng": 23.1667}, {"city": "Katowice", "lat": 50.25, "lng": 19.0}, {"city": "Gdynia", "lat": 54.5189, "lng": 18.5319}, {"city": "Czestochowa", "lat": 50.8096, "lng": 19.1222}, {"city": "Radom", "lat": 51.4036, "lng": 21.1567}, {"city": "Torun", "lat": 53.0167, "lng": 18.6167}, {"city": "Sosnowiec", "lat": 50.3, "lng": 19.1667}, {"city": "Kielce", "lat": 50.8725, "lng": 20.6319}, {"city": "Rzeszow", "lat": 50.05, "lng": 22.0}, {"city": "Gliwice", "lat": 50.3011, "lng": 18.6498}, {"city": "Zabrze", "lat": 50.3, "lng": 18.7833}, {"city": "Olsztyn", "lat": 53.78, "lng": 20.4942}, {"city": "Bielsko-Biala", "lat": 49.8225, "lng": 19.0444}, {"city": "Bytom", "lat": 50.347, "lng": 18.923}, {"city": "Rybnik", "lat": 50.0833, "lng": 18.5}, {"city": "Ruda Slaska", "lat": 50.2701, "lng": 18.8742}, {"city": "Zielona Gora", "lat": 51.9397, "lng": 15.505}, {"city": "Tychy", "lat": 50.1667, "lng": 19.0}, {"city": "Opole", "lat": 50.6722, "lng": 17.9253}, {"city": "Gorzow Wielkopolski", "lat": 52.7333, "lng": 15.25}, {"city": "Dabrowa Gornicza", "lat": 50.3239, "lng": 19.1947}, {"city": "Plock", "lat": 52.55, "lng": 19.7}, {"city": "Elblag", "lat": 54.1667, "lng": 19.4}, {"city": "Walbrzych", "lat": 50.7667, "lng": 16.2833}, {"city": "Tarnow", "lat": 50.0125, "lng": 20.9883}, {"city": "Chorzow", "lat": 50.3, "lng": 18.95}, {"city": "Koszalin", "lat": 54.1903, "lng": 16.1817}, {"city": "Inowroclaw", "lat": 52.7958, "lng": 18.2611}, {"city": "Zamosc", "lat": 50.7206, "lng": 23.2586}, {"city": "Elk", "lat": 53.8167, "lng": 22.35}, {"city": "Pruszkow", "lat": 52.1667, "lng": 20.8}, {"city": "Swidnica", "lat": 50.8406, "lng": 16.4925}, {"city": "Legionowo", "lat": 52.3833, "lng": 20.8833}, {"city": "Swidnik", "lat": 51.2333, "lng": 22.7}, {"city": "Malbork", "lat": 54.0285, "lng": 19.0444}, {"city": "Sopot", "lat": 54.4419, "lng": 18.5478}, {"city": "Brzeg", "lat": 50.8667, "lng": 17.4833}, {"city": "Czeladz", "lat": 50.3333, "lng": 19.0833}, {"city": "Gizycko", "lat": 54.04, "lng": 21.7589}, {"city": "Ketrzyn", "lat": 54.0833, "lng": 21.3833}, {"city": "Piastow", "lat": 52.1844, "lng": 20.8395}, {"city": "Koscian", "lat": 52.0833, "lng": 16.65}, {"city": "Szczytno", "lat": 53.5628, "lng": 20.9853}, {"city": "Bartoszyce", "lat": 54.2535, "lng": 20.8082}, {"city": "Sidlice", "lat": 54.3471, "lng": 18.6171}, {"city": "Chojnow", "lat": 51.2667, "lng": 15.9333}, {"city": "Kalisz", "lat": 51.757, "lng": 18.083}, {"city": "Legnica", "lat": 51.2101, "lng": 16.1619}, {"city": "Wloclawek", "lat": 52.65, "lng": 19.05}, {"city": "Jaworzno", "lat": 50.2, "lng": 19.275}, {"city": "Grudziadz", "lat": 53.4875, "lng": 18.755}, {"city": "Jelenia Gora", "lat": 50.9, "lng": 15.7333}, {"city": "Siedlce", "lat": 52.1833, "lng": 22.2833}, {"city": "Myslowice", "lat": 50.2333, "lng": 19.1333}, {"city": "Piotrkow Trybunalski", "lat": 51.4, "lng": 19.6833}, {"city": "Konin", "lat": 52.2275, "lng": 18.2614}, {"city": "Ostrowiec Swietokrzyski", "lat": 50.9333, "lng": 21.4}, {"city": "Suwalki", "lat": 54.0833, "lng": 22.9333}, {"city": "Gniezno", "lat": 52.5333, "lng": 17.6}, {"city": "Stargard Szczecinski", "lat": 53.3387, "lng": 15.0448}, {"city": "Glogow", "lat": 51.6589, "lng": 16.0803}, {"city": "Przemysl", "lat": 49.7835, "lng": 22.7842}, {"city": "Pabianice", "lat": 51.6642, "lng": 19.35}, {"city": "Leszno", "lat": 51.8403, "lng": 16.5749}, {"city": "Chelm", "lat": 51.1333, "lng": 23.4833}, {"city": "Lomza", "lat": 53.1833, "lng": 22.0833}, {"city": "Tarnowskie Gory", "lat": 50.4455, "lng": 18.8615}, {"city": "Mielec", "lat": 50.2833, "lng": 21.4333}, {"city": "Belchatow", "lat": 51.3667, "lng": 19.3667}, {"city": "Bedzin", "lat": 50.325, "lng": 19.1333}, {"city": "Biala Podlaska", "lat": 52.0333, "lng": 23.1167}, {"city": "Ostroleka", "lat": 53.0833, "lng": 21.5667}, {"city": "Pulawy", "lat": 51.4166, "lng": 21.9694}, {"city": "Starogard Gdanski", "lat": 53.9667, "lng": 18.5333}, {"city": "Starachowice", "lat": 51.05, "lng": 21.0667}, {"city": "Rumia", "lat": 54.5667, "lng": 18.4}, {"city": "Kolobrzeg", "lat": 54.1667, "lng": 15.5667}, {"city": "Tarnobrzeg", "lat": 50.5833, "lng": 21.6833}, {"city": "Skierniewice", "lat": 51.9528, "lng": 20.1417}, {"city": "Kutno", "lat": 52.2333, "lng": 19.3667}, {"city": "Nysa", "lat": 50.4714, "lng": 17.3339}, {"city": "Debica", "lat": 50.0515, "lng": 21.4114}, {"city": "Otwock", "lat": 52.1167, "lng": 21.2667}, {"city": "Ciechanow", "lat": 52.8817, "lng": 20.6106}, {"city": "Sieradz", "lat": 51.6, "lng": 18.75}, {"city": "Mikolow", "lat": 50.1961, "lng": 18.8619}, {"city": "Kwidzyn", "lat": 53.7358, "lng": 18.9308}, {"city": "Chojnice", "lat": 53.6955, "lng": 17.557}, {"city": "Swinoujscie", "lat": 53.9167, "lng": 14.25}, {"city": "Nowa Sol", "lat": 51.8, "lng": 15.7167}, {"city": "Boleslawiec", "lat": 51.2667, "lng": 15.5667}, {"city": "Oswiecim", "lat": 50.0333, "lng": 19.2333}, {"city": "Zary", "lat": 51.6333, "lng": 15.1333}, {"city": "Jaroslaw", "lat": 50.0162, "lng": 22.6778}, {"city": "Chrzanow", "lat": 50.1333, "lng": 19.4}, {"city": "Lebork", "lat": 54.55, "lng": 17.75}, {"city": "Jaslo", "lat": 49.7333, "lng": 21.4667}, {"city": "Cieszyn", "lat": 49.75, "lng": 18.6333}, {"city": "Krasnik", "lat": 50.9167, "lng": 22.2167}, {"city": "Ilawa", "lat": 53.5964, "lng": 19.5656}, {"city": "Dzierzoniow", "lat": 50.7281, "lng": 16.6511}, {"city": "Olawa", "lat": 50.9333, "lng": 17.3}, {"city": "Nowy Targ", "lat": 49.4833, "lng": 20.0333}, {"city": "Police", "lat": 53.55, "lng": 14.5708}, {"city": "Zgorzelec", "lat": 51.1528, "lng": 15.0}, {"city": "Grodzisk Mazowiecki", "lat": 52.1089, "lng": 20.625}, {"city": "Lowicz", "lat": 52.1, "lng": 19.9333}, {"city": "Bielsk Podlaski", "lat": 52.7641, "lng": 23.1902}, {"city": "Lukow", "lat": 51.9167, "lng": 22.3833}, {"city": "Bochnia", "lat": 49.9833, "lng": 20.4333}, {"city": "Bielawa", "lat": 50.6908, "lng": 16.623}, {"city": "Mlawa", "lat": 53.1341, "lng": 20.3812}, {"city": "Augustow", "lat": 53.85, "lng": 22.9667}, {"city": "Brodnica", "lat": 53.25, "lng": 19.4}, {"city": "Lubon", "lat": 52.3333, "lng": 16.8833}, {"city": "Krotoszyn", "lat": 51.697, "lng": 17.4357}, {"city": "Bilgoraj", "lat": 50.55, "lng": 22.7333}, {"city": "Gorlice", "lat": 49.6556, "lng": 21.1604}, {"city": "Klodzko", "lat": 50.4378, "lng": 16.6528}, {"city": "Zakopane", "lat": 49.2994, "lng": 19.9519}, {"city": "Brzozow", "lat": 49.6953, "lng": 22.0194}, {"city": "Jarocin", "lat": 51.9667, "lng": 17.5}, {"city": "Kluczbork", "lat": 50.9833, "lng": 18.2167}, {"city": "Swiecie", "lat": 53.4167, "lng": 18.4333}, {"city": "Wagrowiec", "lat": 52.8, "lng": 17.2}, {"city": "Walcz", "lat": 53.2667, "lng": 16.4667}, {"city": "Skawina", "lat": 49.9753, "lng": 19.8275}, {"city": "Koscierzyna", "lat": 54.1167, "lng": 17.9833}, {"city": "Bialogard", "lat": 54.007, "lng": 15.9875}, {"city": "Sandomierz", "lat": 50.6833, "lng": 21.75}, {"city": "Bierun Stary", "lat": 50.0897, "lng": 19.0928}, {"city": "Konstancin-Jeziorna", "lat": 52.0833, "lng": 21.1167}, {"city": "Jawor", "lat": 51.0676, "lng": 16.185}, {"city": "Ostrow Mazowiecka", "lat": 52.8, "lng": 21.9}, {"city": "Lubartow", "lat": 51.4667, "lng": 22.6}, {"city": "Kolo", "lat": 52.2, "lng": 18.6333}, {"city": "Grajewo", "lat": 53.65, "lng": 22.45}, {"city": "Dzialdowo", "lat": 53.2333, "lng": 20.1833}, {"city": "Mragowo", "lat": 53.8644, "lng": 21.3051}, {"city": "Goleniow", "lat": 53.55, "lng": 14.8167}, {"city": "Swiedbodzin", "lat": 52.25, "lng": 15.5333}, {"city": "Leczna", "lat": 51.3, "lng": 22.8833}, {"city": "Laziska Gorne", "lat": 50.1434, "lng": 18.8528}, {"city": "Opoczno", "lat": 51.3833, "lng": 20.2833}, {"city": "Wieliczka", "lat": 49.9894, "lng": 20.0661}, {"city": "Chelmno", "lat": 53.3492, "lng": 18.4261}, {"city": "Hajnowka", "lat": 52.7333, "lng": 23.5667}, {"city": "Prudnik", "lat": 50.3197, "lng": 17.5792}, {"city": "Gryfino", "lat": 53.2524, "lng": 14.4883}, {"city": "Aleksandrow Lodzki", "lat": 51.8167, "lng": 19.3}, {"city": "Chodziez", "lat": 52.9901, "lng": 16.9122}, {"city": "Pleszew", "lat": 51.8974, "lng": 17.7856}, {"city": "Gostyn", "lat": 51.8792, "lng": 17.0125}, {"city": "Kety", "lat": 49.9, "lng": 19.2167}, {"city": "Deblin", "lat": 51.5667, "lng": 21.8614}, {"city": "Giszowiec", "lat": 50.2333, "lng": 19.0667}, {"city": "Naklo nad Notecia", "lat": 53.1403, "lng": 17.5928}, {"city": "Jasien", "lat": 54.3399, "lng": 18.56}, {"city": "Lancut", "lat": 50.0687, "lng": 22.2291}, {"city": "Krasnystaw", "lat": 51.0, "lng": 23.1667}, {"city": "Pultusk", "lat": 52.7025, "lng": 21.0828}, {"city": "Gostynin", "lat": 52.4294, "lng": 19.4619}, {"city": "Rawa Mazowiecka", "lat": 51.7667, "lng": 20.25}, {"city": "Miedzyrzecz", "lat": 52.4446, "lng": 15.578}, {"city": "Kostrzyn nad Odra", "lat": 52.5883, "lng": 14.6667}, {"city": "Kobylka", "lat": 52.3395, "lng": 21.1959}, {"city": "Garwolin", "lat": 51.9, "lng": 21.6167}, {"city": "Braniewo", "lat": 54.3833, "lng": 19.8333}, {"city": "Lask", "lat": 51.5924, "lng": 19.1332}, {"city": "Rypin", "lat": 53.0667, "lng": 19.45}, {"city": "Oborniki", "lat": 52.65, "lng": 16.8167}, {"city": "Miedzyrzec Podlaski", "lat": 51.9833, "lng": 22.8}, {"city": "Zlotoryja", "lat": 51.1264, "lng": 15.9198}, {"city": "Milanowek", "lat": 52.1243, "lng": 20.6654}, {"city": "Ustka", "lat": 54.5805, "lng": 16.8619}, {"city": "Leczyca", "lat": 52.0583, "lng": 19.2}, {"city": "Radzionkow Nowy", "lat": 50.4016, "lng": 18.901}, {"city": "Kozienice", "lat": 51.5833, "lng": 21.5667}, {"city": "Brzesko", "lat": 49.9667, "lng": 20.6167}, {"city": "Gubin", "lat": 51.95, "lng": 14.7333}, {"city": "Bytow", "lat": 54.1667, "lng": 17.5}, {"city": "Osowa", "lat": 54.4272, "lng": 18.4708}, {"city": "Grojec", "lat": 51.8656, "lng": 20.8675}, {"city": "Krapkowice", "lat": 50.4751, "lng": 17.9654}, {"city": "Strzegom", "lat": 51.0, "lng": 16.3333}, {"city": "Chelmza", "lat": 53.2, "lng": 18.6}, {"city": "Gryfice", "lat": 53.9167, "lng": 15.2}, {"city": "Olecko", "lat": 54.0333, "lng": 22.5}, {"city": "Przeworsk", "lat": 50.0667, "lng": 22.5}, {"city": "Ustron", "lat": 49.7167, "lng": 18.8167}, {"city": "Swidwin", "lat": 53.7667, "lng": 15.7833}, {"city": "Jedrzejow", "lat": 50.6333, "lng": 20.3}, {"city": "Siemiatycze", "lat": 52.4272, "lng": 22.8625}, {"city": "Limanowa", "lat": 49.7167, "lng": 20.4667}, {"city": "Jelcz-Laskowice", "lat": 51.0333, "lng": 17.3333}, {"city": "Glucholazy", "lat": 50.3131, "lng": 17.3742}, {"city": "Wladyslawowo", "lat": 54.8339, "lng": 18.3156}, {"city": "Choszczno", "lat": 53.1667, "lng": 15.4}, {"city": "Czluchow", "lat": 53.65, "lng": 17.3667}, {"city": "Grodzisk Wielkopolski", "lat": 52.2333, "lng": 16.3667}, {"city": "Zabkowice Slaskie", "lat": 50.5897, "lng": 16.8124}, {"city": "Wschowa", "lat": 51.8, "lng": 16.3}, {"city": "Darlowo", "lat": 54.4167, "lng": 16.4167}, {"city": "Lubsko", "lat": 51.7877, "lng": 14.9724}, {"city": "Golub-Dobrzyn", "lat": 53.1, "lng": 19.05}, {"city": "Aleksandrow Kujawski", "lat": 52.875, "lng": 18.7}, {"city": "Wlodawa", "lat": 51.55, "lng": 23.55}, {"city": "Goldap", "lat": 54.3063, "lng": 22.3036}, {"city": "Glubczyce", "lat": 50.2, "lng": 17.8333}, {"city": "Wolsztyn", "lat": 52.1167, "lng": 16.1167}, {"city": "Nidzica", "lat": 53.3583, "lng": 20.425}, {"city": "Trzebnica", "lat": 51.305, "lng": 17.0614}, {"city": "Brzeg Dolny", "lat": 51.2708, "lng": 16.7208}, {"city": "Brzeziny", "lat": 51.8, "lng": 19.75}, {"city": "Brwinow", "lat": 52.1417, "lng": 20.7167}, {"city": "Lubaczow", "lat": 50.1556, "lng": 23.123}, {"city": "Pyrzyce", "lat": 53.1417, "lng": 14.8917}, {"city": "Brzeszcze", "lat": 50.0, "lng": 19.15}, {"city": "Niepolomice", "lat": 50.0339, "lng": 20.2172}, {"city": "Suchanino", "lat": 54.3566, "lng": 18.6056}, {"city": "Janow Lubelski", "lat": 50.7, "lng": 22.4}, {"city": "Nowe Miasto Lubawskie", "lat": 53.4167, "lng": 19.5833}, {"city": "Gora", "lat": 51.6667, "lng": 16.55}, {"city": "Drawsko Pomorskie", "lat": 53.5333, "lng": 15.8}, {"city": "Krynica", "lat": 49.4222, "lng": 20.9594}, {"city": "Ciechocinek", "lat": 52.8833, "lng": 18.7833}, {"city": "Krosno Odrzanskie", "lat": 52.0542, "lng": 15.1}, {"city": "Wegorzewo", "lat": 54.2167, "lng": 21.75}, {"city": "Miastko", "lat": 54.0, "lng": 16.9833}, {"city": "Wisla", "lat": 49.6667, "lng": 18.8667}, {"city": "Warka", "lat": 51.7833, "lng": 21.2}, {"city": "Mysliborz", "lat": 52.925, "lng": 14.8667}, {"city": "Kowary", "lat": 50.7917, "lng": 15.8333}, {"city": "Krzeszowice", "lat": 50.1333, "lng": 19.6333}, {"city": "Koronowo", "lat": 53.3137, "lng": 17.937}, {"city": "Kolno", "lat": 53.4106, "lng": 21.9339}, {"city": "Biskupiec", "lat": 53.8647, "lng": 20.9569}, {"city": "Kokoszki", "lat": 54.3541, "lng": 18.4915}, {"city": "Ozimek", "lat": 50.6731, "lng": 18.2131}, {"city": "Stary Sacz", "lat": 49.5625, "lng": 20.6364}, {"city": "Lwowek Slaski", "lat": 51.1167, "lng": 15.5833}, {"city": "Lidzbark", "lat": 53.2628, "lng": 19.8266}, {"city": "Grodek Nad Dunajcem", "lat": 49.7333, "lng": 20.7167}, {"city": "Ziebice", "lat": 50.6, "lng": 17.0444}, {"city": "Zychlin", "lat": 52.2453, "lng": 19.6236}, {"city": "Polaniec", "lat": 50.4333, "lng": 21.2833}, {"city": "Kamien Pomorski", "lat": 53.9697, "lng": 14.7858}, {"city": "Kolbuszowa", "lat": 50.2441, "lng": 21.7761}, {"city": "Koscielisko", "lat": 49.2833, "lng": 19.8833}, {"city": "Oborniki Slaskie", "lat": 51.3014, "lng": 16.9147}, {"city": "Bretowo", "lat": 54.3667, "lng": 18.5667}, {"city": "Prabuty", "lat": 53.7558, "lng": 19.1975}, {"city": "Trzemeszno", "lat": 52.5667, "lng": 17.8167}, {"city": "Reszel", "lat": 54.0504, "lng": 21.1458}, {"city": "Zbaszyn", "lat": 52.2531, "lng": 15.9178}, {"city": "Sedziszow Malopolski", "lat": 50.0694, "lng": 21.7014}, {"city": "Belzyce", "lat": 51.1833, "lng": 22.2667}, {"city": "Sobotka", "lat": 50.8986, "lng": 16.7444}, {"city": "Pilawa Gorna", "lat": 50.6836, "lng": 16.7436}, {"city": "Kornik", "lat": 52.2367, "lng": 17.0986}, {"city": "Gniew", "lat": 53.8333, "lng": 18.8333}, {"city": "Gluszyca", "lat": 50.6874, "lng": 16.3717}, {"city": "Szklarska Poreba", "lat": 50.8257, "lng": 15.5227}, {"city": "Gryfow Slaski", "lat": 51.028, "lng": 15.4148}, {"city": "Zmigrod", "lat": 51.4703, "lng": 16.905}, {"city": "Gilowice", "lat": 49.7135, "lng": 19.3091}, {"city": "Gogolin", "lat": 50.4881, "lng": 18.0239}, {"city": "Mszczonow", "lat": 51.9742, "lng": 20.5267}, {"city": "Grybow", "lat": 49.6244, "lng": 20.9483}, {"city": "Matarnia", "lat": 54.3818, "lng": 18.4839}, {"city": "Jedlicze", "lat": 49.7164, "lng": 21.6456}, {"city": "Dabrowa Bialostocka", "lat": 53.65, "lng": 23.35}, {"city": "Kazimierza Wielka", "lat": 50.2736, "lng": 20.4844}, {"city": "Szczawno-Zdroj", "lat": 50.8035, "lng": 16.2566}, {"city": "Susz", "lat": 53.7174, "lng": 19.3364}, {"city": "Smigiel", "lat": 52.0134, "lng": 16.527}, {"city": "Dzierzgon", "lat": 53.9233, "lng": 19.3514}, {"city": "Glogowek", "lat": 50.3535, "lng": 17.864}, {"city": "Jaworzyna Slaska", "lat": 50.9167, "lng": 16.4333}, {"city": "Zolynia", "lat": 50.1667, "lng": 22.3167}, {"city": "Odolanow", "lat": 51.5742, "lng": 17.6743}, {"city": "Bierutow", "lat": 51.1244, "lng": 17.5461}]