[{"city": "San Juan", "lat": 18.4037, "lng": -66.0636}, {"city": "Bayamon", "lat": 18.3793, "lng": -66.1635}, {"city": "Carolina", "lat": 18.4054, "lng": -65.9792}, {"city": "Ponce", "lat": 18.012, "lng": -66.6198}, {"city": "Caguas", "lat": 18.2319, "lng": -66.0388}, {"city": "Guaynabo", "lat": 18.3839, "lng": -66.1134}, {"city": "Trujillo Alto", "lat": 18.3601, "lng": -66.0103}, {"city": "Levittown", "lat": 18.4454, "lng": -66.1759}, {"city": "Guayama", "lat": 17.9744, "lng": -66.1104}, {"city": "Yauco", "lat": 18.0344, "lng": -66.8615}, {"city": "Cayey", "lat": 18.115, "lng": -66.163}, {"city": "Manati", "lat": 18.4283, "lng": -66.4823}, {"city": "Rio Grande", "lat": 18.3789, "lng": -65.8388}, {"city": "Coamo", "lat": 18.0765, "lng": -66.3638}, {"city": "Pajaros", "lat": 18.3609, "lng": -66.2184}, {"city": "Sabana Grande", "lat": 18.0821, "lng": -66.9673}, {"city": "Juncos", "lat": 18.2264, "lng": -65.9163}, {"city": "Luquillo", "lat": 18.3735, "lng": -65.7218}, {"city": "Gurabo", "lat": 18.2529, "lng": -65.9786}, {"city": "Sabana Seca", "lat": 18.4273, "lng": -66.1809}, {"city": "San Lorenzo", "lat": 18.1894, "lng": -65.9674}, {"city": "Yabucoa", "lat": 18.0469, "lng": -65.8792}, {"city": "San Isidro", "lat": 18.3919, "lng": -65.8853}, {"city": "Las Piedras", "lat": 18.1784, "lng": -65.8708}, {"city": "Puerto Real", "lat": 18.0762, "lng": -67.1861}, {"city": "Arroyo", "lat": 17.9706, "lng": -66.0609}, {"city": "Cidra", "lat": 18.1775, "lng": -66.1582}, {"city": "Anasco", "lat": 18.286, "lng": -67.1411}, {"city": "Santa Isabel", "lat": 17.9687, "lng": -66.4049}, {"city": "Naguabo", "lat": 18.2116, "lng": -65.737}, {"city": "Penuelas", "lat": 18.0595, "lng": -66.7206}, {"city": "Salinas", "lat": 17.9779, "lng": -66.2961}, {"city": "Mayaguez", "lat": 18.2003, "lng": -67.1397}, {"city": "Arecibo", "lat": 18.4491, "lng": -66.7387}, {"city": "Fajardo", "lat": 18.333, "lng": -65.6592}, {"city": "Catano", "lat": 18.4415, "lng": -66.1388}, {"city": "Vega Baja", "lat": 18.441, "lng": -66.3993}, {"city": "Humacao", "lat": 18.1519, "lng": -65.8204}, {"city": "Candelaria", "lat": 18.4043, "lng": -66.2175}, {"city": "Dorado", "lat": 18.4657, "lng": -66.2724}, {"city": "Hormigueros", "lat": 18.1437, "lng": -67.12}, {"city": "San German", "lat": 18.0827, "lng": -67.046}, {"city": "Aguadilla", "lat": 18.4382, "lng": -67.1536}, {"city": "Isabela", "lat": 18.4991, "lng": -67.022}, {"city": "Vega Alta", "lat": 18.4152, "lng": -66.3211}, {"city": "Corozal", "lat": 18.3411, "lng": -66.3124}, {"city": "Cabo Rojo", "lat": 18.0867, "lng": -67.1482}, {"city": "San Sebastian", "lat": 18.3356, "lng": -66.9949}, {"city": "Aibonito", "lat": 18.1398, "lng": -66.2659}, {"city": "San Antonio", "lat": 18.4468, "lng": -66.3002}, {"city": "Canovanas", "lat": 18.3782, "lng": -65.9056}, {"city": "Utuado", "lat": 18.2697, "lng": -66.7049}, {"city": "Guanica", "lat": 17.9698, "lng": -66.9309}, {"city": "Juana Diaz", "lat": 18.0532, "lng": -66.5047}, {"city": "Ceiba", "lat": 18.265, "lng": -65.6488}, {"city": "Coco", "lat": 18.001, "lng": -66.2603}]