[{"city": "Paramaribo", "lat": 5.8667, "lng": -55.1667}, {"city": "Nieuw Nickerie", "lat": 5.9261, "lng": -56.9731}, {"city": "Brokopondo", "lat": 5.0404, "lng": -55.02}, {"city": "Albina", "lat": 5.5, "lng": -54.05}, {"city": "Nieuw Amsterdam", "lat": 5.91, "lng": -55.07}, {"city": "Groningen", "lat": 5.797, "lng": -55.481}, {"city": "Onverwacht", "lat": 5.6, "lng": -55.2}, {"city": "Totness", "lat": 5.8904, "lng": -56.32}, {"city": "Lelydorp", "lat": 5.7, "lng": -55.2333}, {"city": "Cottica", "lat": 3.8547, "lng": -54.2289}, {"city": "Moengo", "lat": 5.6167, "lng": -54.4}, {"city": "Tamanredjo", "lat": 5.7667, "lng": -55.0}, {"city": "Domburg", "lat": 5.7, "lng": -55.0833}, {"city": "Brownsweg", "lat": 5.02, "lng": -55.17}]