[{"city": "Stockholm", "lat": 59.3294, "lng": 18.0686}, {"city": "Gothenburg", "lat": 57.6717, "lng": 11.981}, {"city": "Malmo", "lat": 55.5833, "lng": 13.0333}, {"city": "Uppsala", "lat": 59.8498, "lng": 17.6389}, {"city": "Uppsala", "lat": 59.8601, "lng": 17.64}, {"city": "Vasteras", "lat": 59.6173, "lng": 16.5422}, {"city": "Orebro", "lat": 59.2669, "lng": 15.1965}, {"city": "Linkoping", "lat": 58.4094, "lng": 15.6257}, {"city": "Helsingborg", "lat": 56.0424, "lng": 12.721}, {"city": "Jonkoping", "lat": 57.7833, "lng": 14.1667}, {"city": "Umea", "lat": 63.8285, "lng": 20.2706}, {"city": "Gavle", "lat": 60.6748, "lng": 17.1444}, {"city": "Karlstad", "lat": 59.3808, "lng": 13.5016}, {"city": "Vaxjo", "lat": 56.8837, "lng": 14.8167}, {"city": "Halmstad", "lat": 56.6754, "lng": 12.8587}, {"city": "Lulea", "lat": 65.5838, "lng": 22.1915}, {"city": "Trollhattan", "lat": 58.2671, "lng": 12.3}, {"city": "Ostersund", "lat": 63.1775, "lng": 14.6414}, {"city": "Kalmar", "lat": 56.6694, "lng": 16.3218}, {"city": "Falun", "lat": 60.613, "lng": 15.647}, {"city": "Karlskrona", "lat": 56.1611, "lng": 15.5881}, {"city": "Nykoping", "lat": 58.7582, "lng": 17.0185}, {"city": "Visby", "lat": 57.629, "lng": 18.3071}, {"city": "Huskvarna", "lat": 57.7919, "lng": 14.2756}, {"city": "Harnosand", "lat": 62.6323, "lng": 17.9379}, {"city": "Norrkoping", "lat": 58.5919, "lng": 16.1856}, {"city": "Sundsvall", "lat": 62.3902, "lng": 17.3067}, {"city": "Boras", "lat": 57.7304, "lng": 12.92}, {"city": "Skovde", "lat": 58.3995, "lng": 13.8538}, {"city": "Borlange", "lat": 60.4833, "lng": 15.4167}, {"city": "Molndal", "lat": 57.6542, "lng": 12.0139}, {"city": "Kristianstad", "lat": 56.0337, "lng": 14.1333}, {"city": "Skelleftea", "lat": 64.65, "lng": 20.85}, {"city": "Ornskoldsvik", "lat": 63.294, "lng": 18.7122}, {"city": "Kiruna", "lat": 67.8494, "lng": 20.2544}, {"city": "Vanersborg", "lat": 58.363, "lng": 12.33}, {"city": "Hoganas", "lat": 56.196, "lng": 12.5769}, {"city": "Kinna", "lat": 57.4954, "lng": 12.6805}, {"city": "Mariestad", "lat": 58.705, "lng": 13.828}, {"city": "Mjolby", "lat": 58.3321, "lng": 15.1312}, {"city": "Bollnas", "lat": 61.3484, "lng": 16.3883}, {"city": "Mora", "lat": 61.0096, "lng": 14.5635}, {"city": "Ulricehamn", "lat": 57.7917, "lng": 13.4186}, {"city": "Tibro", "lat": 58.419, "lng": 14.158}, {"city": "Habo", "lat": 57.9066, "lng": 14.0856}, {"city": "Tidaholm", "lat": 58.1794, "lng": 13.9599}, {"city": "Stromstad", "lat": 58.9441, "lng": 11.1864}, {"city": "Haparanda", "lat": 65.8342, "lng": 24.117}, {"city": "Hjo", "lat": 58.3044, "lng": 14.2786}, {"city": "Kungsor", "lat": 59.4227, "lng": 16.1059}, {"city": "Vargarda", "lat": 58.0341, "lng": 12.8083}, {"city": "Hjarup", "lat": 55.6707, "lng": 13.141}]