[{"city": "N'Djamena", "lat": 12.11, "lng": 15.05}, {"city": "Moundou", "lat": 8.5667, "lng": 16.0833}, {"city": "Sarh", "lat": 9.15, "lng": 18.3833}, {"city": "Abeche", "lat": 13.8331, "lng": 20.8347}, {"city": "Goz-Beida", "lat": 12.2236, "lng": 21.4144}, {"city": "Koumra", "lat": 8.9, "lng": 17.55}, {"city": "Am-Timan", "lat": 11.0333, "lng": 20.2833}, {"city": "Doba", "lat": 8.65, "lng": 16.85}, {"city": "Bongor", "lat": 10.2806, "lng": 15.3722}, {"city": "Mongo", "lat": 12.1837, "lng": 18.7}, {"city": "Ati", "lat": 13.2139, "lng": 18.3403}, {"city": "Lai", "lat": 9.4, "lng": 16.3}, {"city": "Mao", "lat": 14.1194, "lng": 15.3133}, {"city": "Moussoro", "lat": 13.6333, "lng": 16.4833}, {"city": "Faya", "lat": 17.93, "lng": 19.1031}, {"city": "Bol", "lat": 13.4586, "lng": 14.7147}, {"city": "Biltine", "lat": 14.5275, "lng": 20.9267}, {"city": "Massenya", "lat": 11.4028, "lng": 16.17}, {"city": "Fada", "lat": 17.1833, "lng": 21.5833}, {"city": "Pala", "lat": 9.3646, "lng": 14.9073}, {"city": "Massakory", "lat": 13.0, "lng": 15.7333}, {"city": "Amdjarass", "lat": 16.0667, "lng": 22.8354}, {"city": "Bardai", "lat": 21.3547, "lng": 17.0016}, {"city": "Kelo", "lat": 9.3171, "lng": 15.8}, {"city": "Yao", "lat": 12.8508, "lng": 17.5608}, {"city": "Lere", "lat": 9.6556, "lng": 14.225}, {"city": "Fianga", "lat": 9.9153, "lng": 15.1375}, {"city": "Pala Oua", "lat": 9.35, "lng": 14.9667}, {"city": "Oum Hadjer", "lat": 13.2833, "lng": 19.6833}, {"city": "Zouar", "lat": 20.45, "lng": 16.5167}]