[{"city": "Ashgabat", "lat": 37.95, "lng": 58.3833}, {"city": "Turkmenabat", "lat": 39.1, "lng": 63.5667}, {"city": "Dasoguz", "lat": 41.8167, "lng": 59.9831}, {"city": "Mary", "lat": 37.6, "lng": 61.8333}, {"city": "Balkanabat", "lat": 39.5119, "lng": 54.365}, {"city": "Anew", "lat": 37.8875, "lng": 58.516}, {"city": "Serdar", "lat": 38.9667, "lng": 56.2667}, {"city": "Turkmenbasy", "lat": 40.023, "lng": 52.9697}, {"city": "Tejen", "lat": 37.3786, "lng": 60.496}, {"city": "Abadan", "lat": 38.0517, "lng": 58.21}, {"city": "Kaka", "lat": 37.3503, "lng": 59.6}, {"city": "Atamyrat", "lat": 37.8167, "lng": 65.2}, {"city": "Koneurgench", "lat": 42.3167, "lng": 59.1586}, {"city": "Hazar", "lat": 39.4, "lng": 53.1167}, {"city": "Gazojak", "lat": 41.1875, "lng": 61.4036}, {"city": "Seydi", "lat": 39.4817, "lng": 62.9136}, {"city": "Serhetabat", "lat": 35.2758, "lng": 62.3417}, {"city": "Sarahs", "lat": 36.5167, "lng": 61.2167}, {"city": "Magtymguly", "lat": 38.4333, "lng": 56.2833}, {"city": "Nyyazow", "lat": 41.8383, "lng": 60.1333}, {"city": "Darganata", "lat": 40.4833, "lng": 62.1667}, {"city": "Garabogaz", "lat": 41.5397, "lng": 52.57}, {"city": "Halac", "lat": 38.0686, "lng": 64.8811}, {"city": "Celeken", "lat": 39.4362, "lng": 53.1226}]