[{"city": "Dili", "lat": -8.5536, "lng": 125.5783}, {"city": "Maliana", "lat": -8.9917, "lng": 125.2197}, {"city": "Baucau", "lat": -8.4667, "lng": 126.45}, {"city": "Manatuto", "lat": -8.5167, "lng": 126.0167}, {"city": "Gleno", "lat": -8.7239, "lng": 125.4361}, {"city": "Viqueque", "lat": -8.85, "lng": 126.3667}, {"city": "Liquica", "lat": -8.5935, "lng": 125.3273}, {"city": "Ainaro", "lat": -8.9833, "lng": 125.5}, {"city": "Same", "lat": -9.0, "lng": 125.65}, {"city": "Aileu", "lat": -8.7281, "lng": 125.5664}, {"city": "Suai", "lat": -9.3129, "lng": 125.2565}, {"city": "Pante Macassar", "lat": -9.2, "lng": 124.3833}, {"city": "Lospalos", "lat": -8.5167, "lng": 127.0333}]