[{"city": "Istanbul", "lat": 41.01, "lng": 28.9603}, {"city": "Ankara", "lat": 39.93, "lng": 32.85}, {"city": "Bagcilar", "lat": 41.0406, "lng": 28.8261}, {"city": "Kucukcekmece", "lat": 41.0, "lng": 28.8}, {"city": "Kagithane", "lat": 41.0719, "lng": 28.9664}, {"city": "Elazig", "lat": 38.6667, "lng": 39.2167}, {"city": "Esenler", "lat": 41.0794, "lng": 28.8539}, {"city": "Esenyurt", "lat": 41.0343, "lng": 28.6801}, {"city": "Manisa", "lat": 38.6333, "lng": 27.4167}, {"city": "Van", "lat": 38.5019, "lng": 43.4167}, {"city": "Konak", "lat": 38.4183, "lng": 27.1347}, {"city": "Hatay", "lat": 36.2025, "lng": 36.1606}, {"city": "Izmir", "lat": 38.4127, "lng": 27.1384}, {"city": "Yildirim", "lat": 40.1878, "lng": 29.0822}, {"city": "Gungoren", "lat": 41.035, "lng": 28.8575}, {"city": "Iskenderun", "lat": 36.5804, "lng": 36.17}, {"city": "Kocaeli", "lat": 40.7656, "lng": 29.9406}, {"city": "Pendik", "lat": 40.8775, "lng": 29.2514}, {"city": "Adana", "lat": 37.0, "lng": 35.325}, {"city": "Kutahya", "lat": 39.4242, "lng": 29.9833}, {"city": "Avcilar", "lat": 40.9792, "lng": 28.7214}, {"city": "Sakarya", "lat": 40.7833, "lng": 30.4}, {"city": "Bursa", "lat": 40.1833, "lng": 29.0667}, {"city": "Tekirdag", "lat": 40.9833, "lng": 27.5167}, {"city": "Tokat", "lat": 40.3097, "lng": 36.5542}, {"city": "Karakopru", "lat": 37.1803, "lng": 38.8111}, {"city": "Beylikduzu", "lat": 40.9819, "lng": 28.64}, {"city": "Aydin", "lat": 37.8481, "lng": 27.8453}, {"city": "Selcuklu", "lat": 37.9312, "lng": 32.4996}, {"city": "Sultanbeyli", "lat": 40.9679, "lng": 29.2666}, {"city": "Kayapinar", "lat": 37.94, "lng": 40.19}, {"city": "Meram", "lat": 37.8364, "lng": 32.4383}, {"city": "Eregli", "lat": 41.2583, "lng": 31.425}, {"city": "Eskisehir", "lat": 39.7767, "lng": 30.5206}, {"city": "Osmaniye", "lat": 37.075, "lng": 36.25}, {"city": "Edirne", "lat": 41.6781, "lng": 26.5594}, {"city": "Gaziantep", "lat": 37.0667, "lng": 37.3833}, {"city": "Konya", "lat": 37.8714, "lng": 32.4847}, {"city": "Arnavutkoy", "lat": 41.1833, "lng": 28.7333}, {"city": "Ordu", "lat": 40.9833, "lng": 37.8833}, {"city": "Cekme", "lat": 41.0382, "lng": 29.2003}, {"city": "Kayseri", "lat": 38.7225, "lng": 35.4875}, {"city": "Kahta", "lat": 37.7803, "lng": 38.6217}, {"city": "Tuzla", "lat": 40.8637, "lng": 29.3194}, {"city": "Samsun", "lat": 41.2867, "lng": 36.33}, {"city": "Sivas", "lat": 39.75, "lng": 37.0167}, {"city": "Erzurum", "lat": 39.9097, "lng": 41.2756}, {"city": "Malatya", "lat": 38.3554, "lng": 38.3337}, {"city": "Suruc", "lat": 36.9761, "lng": 38.4253}, {"city": "Diyarbakir", "lat": 37.9108, "lng": 40.2367}, {"city": "Karabuk", "lat": 41.2, "lng": 32.6333}, {"city": "Mersin", "lat": 36.8, "lng": 34.6167}, {"city": "Mardin", "lat": 37.3131, "lng": 40.735}, {"city": "Hakkari", "lat": 37.5744, "lng": 43.7408}, {"city": "Karaman", "lat": 37.1833, "lng": 33.2167}, {"city": "Sanliurfa", "lat": 37.1583, "lng": 38.7917}, {"city": "Antalya", "lat": 36.9081, "lng": 30.6956}, {"city": "Aksaray", "lat": 38.3686, "lng": 34.0297}, {"city": "Balikesir", "lat": 39.6511, "lng": 27.8842}, {"city": "Trabzon", "lat": 41.005, "lng": 39.7225}, {"city": "Denizli", "lat": 37.7731, "lng": 29.0878}, {"city": "Kahramanmaras", "lat": 37.5875, "lng": 36.9453}, {"city": "Duzce", "lat": 40.8417, "lng": 31.1583}, {"city": "Mugla", "lat": 37.2167, "lng": 28.3667}, {"city": "Sariyer", "lat": 41.1911, "lng": 29.0094}, {"city": "Igdir", "lat": 39.9237, "lng": 44.045}, {"city": "Afyonkarahisar", "lat": 38.7581, "lng": 30.5386}, {"city": "Kars", "lat": 40.6078, "lng": 43.0958}, {"city": "Bartin", "lat": 41.6344, "lng": 32.3375}, {"city": "Usak", "lat": 38.6833, "lng": 29.4}, {"city": "Amasya", "lat": 40.65, "lng": 35.8333}, {"city": "Kartal", "lat": 40.9108, "lng": 29.1617}, {"city": "Corum", "lat": 40.5489, "lng": 34.9533}, {"city": "Batman", "lat": 37.8833, "lng": 41.1333}, {"city": "Rize", "lat": 41.0167, "lng": 40.5167}, {"city": "Siirt", "lat": 37.8417, "lng": 41.9458}, {"city": "Sirnak", "lat": 37.5164, "lng": 42.4611}, {"city": "Agri", "lat": 39.7225, "lng": 43.0544}, {"city": "Kirklareli", "lat": 41.7347, "lng": 27.2253}, {"city": "Bayburt", "lat": 40.2546, "lng": 40.226}, {"city": "Kastamonu", "lat": 41.3833, "lng": 33.7833}, {"city": "Canakkale", "lat": 40.15, "lng": 26.4}, {"city": "Burdur", "lat": 37.7167, "lng": 30.2833}, {"city": "Adiyaman", "lat": 37.7644, "lng": 38.2763}, {"city": "Isparta", "lat": 37.7667, "lng": 30.55}, {"city": "Yalova", "lat": 40.6556, "lng": 29.275}, {"city": "Bolu", "lat": 40.7333, "lng": 31.6}, {"city": "Nigde", "lat": 37.9667, "lng": 34.6792}, {"city": "Nevsehir", "lat": 38.625, "lng": 34.7122}, {"city": "Giresun", "lat": 40.9, "lng": 38.4167}, {"city": "Bitlis", "lat": 38.4, "lng": 42.1167}, {"city": "Zonguldak", "lat": 41.45, "lng": 31.7833}, {"city": "Ardahan", "lat": 41.1167, "lng": 42.7}, {"city": "Mus", "lat": 38.7333, "lng": 41.4911}, {"city": "Erzincan", "lat": 39.7464, "lng": 39.4914}, {"city": "Yozgat", "lat": 39.8208, "lng": 34.8083}, {"city": "Kilis", "lat": 36.7167, "lng": 37.1167}, {"city": "Sinop", "lat": 42.0267, "lng": 35.1511}, {"city": "Kirsehir", "lat": 39.145, "lng": 34.1608}, {"city": "Bingol", "lat": 38.8861, "lng": 40.5017}, {"city": "Bilecik", "lat": 40.1431, "lng": 29.9792}, {"city": "Cankiri", "lat": 40.6, "lng": 33.6167}, {"city": "Artvin", "lat": 41.1822, "lng": 41.8194}, {"city": "Gumushane", "lat": 40.4597, "lng": 39.4778}, {"city": "Kirikkale", "lat": 39.8417, "lng": 33.5139}, {"city": "Tunceli", "lat": 39.1061, "lng": 39.5481}, {"city": "Bafra", "lat": 41.5682, "lng": 35.9069}, {"city": "Kadirli", "lat": 37.3698, "lng": 36.1031}, {"city": "Kapakli", "lat": 41.3333, "lng": 27.9667}, {"city": "Cayirova", "lat": 40.8265, "lng": 29.3745}, {"city": "Karatepe", "lat": 40.6883, "lng": 30.0144}, {"city": "Arsuz", "lat": 36.4128, "lng": 35.8867}, {"city": "Yuksekova", "lat": 37.5667, "lng": 44.2833}, {"city": "Korfez", "lat": 40.7706, "lng": 29.7661}, {"city": "Asagicinik", "lat": 41.2719, "lng": 36.3508}, {"city": "Tarsus", "lat": 36.9167, "lng": 34.9}, {"city": "Beykoz", "lat": 41.125, "lng": 29.1056}, {"city": "Cizre", "lat": 37.3302, "lng": 42.1848}, {"city": "Kozlu", "lat": 41.4333, "lng": 31.75}, {"city": "Akhisar", "lat": 38.9167, "lng": 27.8333}, {"city": "Nazilli", "lat": 37.9125, "lng": 28.3206}, {"city": "Ceyhan", "lat": 37.0283, "lng": 35.8139}, {"city": "Yakacik", "lat": 36.75, "lng": 36.2167}, {"city": "Eregli", "lat": 37.5142, "lng": 34.048}, {"city": "Turgutlu", "lat": 38.5, "lng": 27.7}, {"city": "Samandag", "lat": 36.085, "lng": 35.9806}, {"city": "Bandirma", "lat": 40.3542, "lng": 27.9725}, {"city": "Odemis", "lat": 38.2311, "lng": 27.9719}, {"city": "Salihli", "lat": 38.4811, "lng": 28.1392}, {"city": "Inegol", "lat": 40.0806, "lng": 29.5097}, {"city": "Soke", "lat": 37.7482, "lng": 27.4061}, {"city": "Siverek", "lat": 37.75, "lng": 39.3167}, {"city": "Corlu", "lat": 41.1597, "lng": 27.8028}, {"city": "Tire", "lat": 38.0833, "lng": 27.7333}, {"city": "Ondokuzmayis", "lat": 41.4944, "lng": 36.0789}, {"city": "Marmara Ereglisi", "lat": 40.9697, "lng": 27.9553}, {"city": "Luleburgaz", "lat": 41.4056, "lng": 27.3569}, {"city": "Ceylanpinar", "lat": 36.8461, "lng": 40.0489}, {"city": "Aksehir", "lat": 38.3592, "lng": 31.4164}, {"city": "Edremit", "lat": 39.5961, "lng": 27.0244}, {"city": "Bergama", "lat": 39.1228, "lng": 27.1783}, {"city": "Silopi", "lat": 37.2497, "lng": 42.4717}, {"city": "Buyukcekmece", "lat": 41.02, "lng": 28.5775}, {"city": "Nizip", "lat": 37.0097, "lng": 37.7942}, {"city": "Erzin", "lat": 36.9539, "lng": 36.2022}, {"city": "Polatli", "lat": 39.5842, "lng": 32.1472}, {"city": "Akcakoca", "lat": 41.0806, "lng": 31.1297}, {"city": "Golcuk", "lat": 40.6667, "lng": 29.8333}, {"city": "Zile", "lat": 40.3, "lng": 35.8833}, {"city": "Kozluk", "lat": 38.1833, "lng": 41.4926}, {"city": "Kozan", "lat": 37.4507, "lng": 35.8123}, {"city": "Uzunkopru", "lat": 41.2669, "lng": 26.6875}, {"city": "Bolvadin", "lat": 38.7167, "lng": 31.05}, {"city": "Soma", "lat": 39.1833, "lng": 27.6056}, {"city": "Carsamba", "lat": 41.198, "lng": 36.726}, {"city": "Aliaga", "lat": 38.8008, "lng": 26.9728}, {"city": "Turhal", "lat": 40.3871, "lng": 36.0863}, {"city": "Nallihan", "lat": 40.1883, "lng": 31.3509}, {"city": "Menemen", "lat": 38.6, "lng": 27.0667}, {"city": "Guroymak", "lat": 38.5762, "lng": 42.0207}, {"city": "Reyhanli", "lat": 36.2679, "lng": 36.5675}, {"city": "Ayvalik", "lat": 39.3167, "lng": 26.7}, {"city": "Alasehir", "lat": 38.35, "lng": 28.5167}, {"city": "Incirliova", "lat": 37.8547, "lng": 27.7236}, {"city": "Belen", "lat": 36.4917, "lng": 36.1917}, {"city": "Bozyazi", "lat": 36.1, "lng": 32.975}, {"city": "Sarikamis", "lat": 40.3314, "lng": 42.5903}, {"city": "Birecik", "lat": 37.025, "lng": 37.9769}, {"city": "Unye", "lat": 41.1271, "lng": 37.2882}, {"city": "Kilimli", "lat": 41.4833, "lng": 31.8333}, {"city": "Battalgazi", "lat": 38.4228, "lng": 38.3656}, {"city": "Bor", "lat": 37.8963, "lng": 34.5627}, {"city": "Merzifon", "lat": 40.8836, "lng": 35.4711}, {"city": "Babaeski", "lat": 41.4325, "lng": 27.0931}, {"city": "Demre", "lat": 36.255, "lng": 29.9978}, {"city": "Islahiye", "lat": 37.0264, "lng": 36.6322}, {"city": "Tavsanli", "lat": 39.5461, "lng": 29.4922}, {"city": "Develi", "lat": 38.3886, "lng": 35.4925}, {"city": "Bozuyuk", "lat": 39.9078, "lng": 30.0367}, {"city": "Karakocan", "lat": 38.9551, "lng": 40.0375}, {"city": "Erbaa", "lat": 40.6667, "lng": 36.5667}, {"city": "Karapinar", "lat": 37.7147, "lng": 33.5508}, {"city": "Bahce", "lat": 37.2039, "lng": 36.5825}, {"city": "Idil", "lat": 37.3347, "lng": 41.8894}, {"city": "Sungurlu", "lat": 40.161, "lng": 34.377}, {"city": "Alanya", "lat": 36.5436, "lng": 31.9997}, {"city": "Niksar", "lat": 40.5833, "lng": 36.9667}, {"city": "Urla", "lat": 38.3222, "lng": 26.7647}, {"city": "Alapli", "lat": 41.1833, "lng": 31.3833}, {"city": "Haskoy", "lat": 38.6864, "lng": 41.6936}, {"city": "Emet", "lat": 39.3415, "lng": 29.2586}, {"city": "Kirkagac", "lat": 39.1056, "lng": 27.6731}, {"city": "Ortakoy", "lat": 38.7372, "lng": 34.0386}, {"city": "Biga", "lat": 40.2281, "lng": 27.2422}, {"city": "Burhaniye", "lat": 39.5108, "lng": 26.9786}, {"city": "Torbali", "lat": 38.1619, "lng": 27.3583}, {"city": "Silifke", "lat": 36.3783, "lng": 33.9261}, {"city": "Besikduzu", "lat": 41.052, "lng": 39.2329}, {"city": "Buldan", "lat": 38.045, "lng": 28.8306}, {"city": "Sereflikochisar", "lat": 38.9444, "lng": 33.5419}, {"city": "Cayeli", "lat": 41.093, "lng": 40.7292}, {"city": "Tekkekoy", "lat": 41.2125, "lng": 36.4569}, {"city": "Ortakent", "lat": 37.1089, "lng": 27.2821}, {"city": "Bayindir", "lat": 38.2192, "lng": 27.6481}, {"city": "Susurluk", "lat": 39.9136, "lng": 28.1578}, {"city": "Anamur", "lat": 36.0836, "lng": 32.8261}, {"city": "Tosya", "lat": 41.017, "lng": 34.0383}, {"city": "Viransehir", "lat": 37.2306, "lng": 39.7653}, {"city": "Saraykoy", "lat": 37.9265, "lng": 28.9267}, {"city": "Side", "lat": 36.7667, "lng": 31.3889}, {"city": "Sultanhani", "lat": 38.2481, "lng": 33.5465}, {"city": "Emirdag", "lat": 39.0197, "lng": 31.1503}, {"city": "Yalvac", "lat": 38.3, "lng": 31.1833}, {"city": "Tatvan", "lat": 38.5022, "lng": 42.2814}, {"city": "Malkara", "lat": 40.8933, "lng": 26.9042}, {"city": "Ergani", "lat": 38.2692, "lng": 39.7617}, {"city": "Serinhisar", "lat": 37.5779, "lng": 29.2639}, {"city": "Caglayancerit", "lat": 37.7508, "lng": 37.2922}, {"city": "Midyat", "lat": 37.4167, "lng": 41.3531}, {"city": "Havza", "lat": 40.9667, "lng": 35.6667}, {"city": "Selcuk", "lat": 37.95, "lng": 27.3667}, {"city": "Cumra", "lat": 37.575, "lng": 32.7747}, {"city": "Yahyali", "lat": 38.099, "lng": 35.359}, {"city": "Kocaali", "lat": 41.0636, "lng": 30.8581}, {"city": "Bucak", "lat": 37.4592, "lng": 30.595}, {"city": "Kaman", "lat": 39.3575, "lng": 33.7239}, {"city": "Fatsa", "lat": 41.0222, "lng": 37.4919}, {"city": "Beypazari", "lat": 40.1703, "lng": 31.9211}, {"city": "Ahmetli", "lat": 38.5289, "lng": 27.9447}, {"city": "Cay", "lat": 38.5926, "lng": 31.0274}, {"city": "Kiziltepe", "lat": 37.1939, "lng": 40.5861}, {"city": "Gebze", "lat": 40.8028, "lng": 29.4306}, {"city": "Boyabat", "lat": 41.4689, "lng": 34.7667}, {"city": "Bulancak", "lat": 40.9381, "lng": 38.2314}, {"city": "Akyazi", "lat": 40.6833, "lng": 30.6253}, {"city": "Yenice", "lat": 41.2, "lng": 32.3333}, {"city": "Palu", "lat": 38.6914, "lng": 39.9294}, {"city": "Divrigi", "lat": 39.3711, "lng": 38.1136}, {"city": "Cinarcik", "lat": 40.6422, "lng": 29.1203}, {"city": "Kulu", "lat": 39.0901, "lng": 33.0807}, {"city": "Tuzluca", "lat": 40.0494, "lng": 43.6608}, {"city": "Yesilhisar", "lat": 38.35, "lng": 35.0867}, {"city": "Dogubayazit", "lat": 39.55, "lng": 44.0833}, {"city": "Kemer", "lat": 36.6, "lng": 30.55}, {"city": "Bunyan", "lat": 38.8486, "lng": 35.8592}, {"city": "Fethiye", "lat": 36.6206, "lng": 29.1142}, {"city": "Tavas", "lat": 37.5729, "lng": 29.071}, {"city": "Kadinhani", "lat": 38.2397, "lng": 32.2114}, {"city": "Suluova", "lat": 40.8313, "lng": 35.6479}, {"city": "Cine", "lat": 37.6127, "lng": 28.0591}, {"city": "Camas", "lat": 40.9026, "lng": 37.528}, {"city": "Gumushacikoy", "lat": 40.8667, "lng": 35.2167}, {"city": "Afsin", "lat": 38.25, "lng": 36.9167}, {"city": "Simav", "lat": 39.0833, "lng": 28.9833}, {"city": "Cukurca", "lat": 37.2469, "lng": 43.6124}, {"city": "Bahsili", "lat": 39.8136, "lng": 33.4716}, {"city": "Bogazliyan", "lat": 39.1929, "lng": 35.2462}, {"city": "Alacam", "lat": 41.61, "lng": 35.595}, {"city": "Akcaabat", "lat": 41.0167, "lng": 39.5833}, {"city": "Toprakkale", "lat": 37.0639, "lng": 36.1469}, {"city": "Kusadasi", "lat": 37.8586, "lng": 27.2594}, {"city": "Yerkoy", "lat": 39.6381, "lng": 34.4672}, {"city": "Kinik", "lat": 39.0872, "lng": 27.3833}, {"city": "Nusaybin", "lat": 37.0833, "lng": 41.2167}, {"city": "Lice", "lat": 38.4549, "lng": 40.6519}, {"city": "Zara", "lat": 39.895, "lng": 37.7531}, {"city": "Aybasti", "lat": 40.6867, "lng": 37.3992}, {"city": "Gediz", "lat": 38.9939, "lng": 29.3914}, {"city": "Beysehir", "lat": 37.6867, "lng": 31.7306}, {"city": "Sivrihisar", "lat": 39.451, "lng": 31.5367}, {"city": "Serik", "lat": 36.9167, "lng": 31.1}, {"city": "Keskin", "lat": 39.6731, "lng": 33.6136}, {"city": "Ciftlikkoy", "lat": 40.6603, "lng": 29.3236}, {"city": "Yesilyurt", "lat": 38.3048, "lng": 38.2512}, {"city": "Havran", "lat": 39.5583, "lng": 27.0983}, {"city": "Saruhanli", "lat": 38.7344, "lng": 27.5681}, {"city": "Taskopru", "lat": 41.5097, "lng": 34.2142}, {"city": "Susehri", "lat": 40.1628, "lng": 38.0855}, {"city": "Aydincik", "lat": 36.1667, "lng": 33.35}, {"city": "Askale", "lat": 39.9211, "lng": 40.6947}, {"city": "Sivasli", "lat": 38.4996, "lng": 29.6808}, {"city": "Menderes", "lat": 38.254, "lng": 27.134}, {"city": "Sarkisla", "lat": 39.3506, "lng": 36.4095}, {"city": "Bozdogan", "lat": 37.6728, "lng": 28.3103}, {"city": "Cihanbeyli", "lat": 38.6581, "lng": 32.9281}, {"city": "Derik", "lat": 37.3644, "lng": 40.2689}, {"city": "Seydisehir", "lat": 37.4183, "lng": 31.8506}, {"city": "Sarayonu", "lat": 38.2661, "lng": 32.4064}, {"city": "Ipsala", "lat": 40.9181, "lng": 26.3831}, {"city": "Mut", "lat": 36.6458, "lng": 33.4375}, {"city": "Manavgat", "lat": 36.7913, "lng": 31.4415}, {"city": "Yayladagi", "lat": 35.9517, "lng": 36.0975}, {"city": "Pinarbasi", "lat": 38.722, "lng": 36.391}, {"city": "Sindirgi", "lat": 39.24, "lng": 28.175}, {"city": "Silivri", "lat": 41.0739, "lng": 28.2464}, {"city": "Saray", "lat": 41.4428, "lng": 27.9206}, {"city": "Gole", "lat": 40.7936, "lng": 42.6092}, {"city": "Carsibasi", "lat": 41.0833, "lng": 39.3833}, {"city": "Bulanik", "lat": 39.095, "lng": 42.2667}, {"city": "Sorgun", "lat": 39.8086, "lng": 35.1831}, {"city": "Adilcevaz", "lat": 38.8058, "lng": 42.7469}, {"city": "Tonya", "lat": 40.8856, "lng": 39.2922}, {"city": "Amasra", "lat": 41.7494, "lng": 32.3864}, {"city": "Arapgir", "lat": 39.0411, "lng": 38.4953}, {"city": "Aralik", "lat": 39.8728, "lng": 44.5192}, {"city": "Suhut", "lat": 38.5311, "lng": 30.5458}, {"city": "Turkoglu", "lat": 37.3816, "lng": 36.851}, {"city": "Cirali", "lat": 36.4073, "lng": 30.4786}, {"city": "Piraziz", "lat": 40.9333, "lng": 38.1333}, {"city": "Akcadag", "lat": 38.3442, "lng": 37.9742}, {"city": "Yildizeli", "lat": 39.8667, "lng": 36.5995}, {"city": "Ahlat", "lat": 38.7542, "lng": 42.4877}, {"city": "Buharkent", "lat": 37.9646, "lng": 28.7425}, {"city": "Cifteler", "lat": 39.3928, "lng": 31.0436}, {"city": "Dikili", "lat": 39.071, "lng": 26.8902}, {"city": "Can", "lat": 40.0323, "lng": 27.053}, {"city": "Cerkezkoy", "lat": 41.2894, "lng": 28.0046}, {"city": "Catalca", "lat": 41.15, "lng": 28.4503}, {"city": "Civril", "lat": 38.3014, "lng": 29.7404}, {"city": "Incesu", "lat": 38.6222, "lng": 35.1847}, {"city": "Tirebolu", "lat": 41.0069, "lng": 38.8139}, {"city": "Acigol", "lat": 38.5503, "lng": 34.5092}, {"city": "Patnos", "lat": 39.2337, "lng": 42.8637}, {"city": "Doganhisar", "lat": 38.145, "lng": 31.6767}, {"city": "Saraykent", "lat": 39.6936, "lng": 35.51}, {"city": "Avanos", "lat": 38.715, "lng": 34.8467}, {"city": "Urgup", "lat": 38.6294, "lng": 34.9119}, {"city": "Yenipazar", "lat": 37.8236, "lng": 28.1955}, {"city": "Golhisar", "lat": 37.1481, "lng": 29.512}, {"city": "Savastepe", "lat": 39.3839, "lng": 27.6547}, {"city": "Oguzeli", "lat": 36.965, "lng": 37.5092}, {"city": "Beydag", "lat": 38.0869, "lng": 28.2089}, {"city": "Espiye", "lat": 40.95, "lng": 38.7333}, {"city": "Ardesen", "lat": 41.1914, "lng": 40.9857}, {"city": "Cermik", "lat": 38.1353, "lng": 39.456}, {"city": "Bodrum", "lat": 37.0383, "lng": 27.4292}, {"city": "Ayvacik", "lat": 41.0036, "lng": 36.6319}, {"city": "Haymana", "lat": 39.4311, "lng": 32.4956}, {"city": "Eynesil", "lat": 41.0632, "lng": 39.1409}, {"city": "Seferhisar", "lat": 38.1975, "lng": 26.8388}, {"city": "Surmene", "lat": 40.9097, "lng": 40.1058}, {"city": "Ayancik", "lat": 41.95, "lng": 34.5833}, {"city": "Uzumlu", "lat": 39.71, "lng": 39.7017}, {"city": "Besiri", "lat": 37.92, "lng": 41.29}, {"city": "Gokcebey", "lat": 41.3067, "lng": 32.1442}, {"city": "Cobanlar", "lat": 38.7014, "lng": 30.7828}, {"city": "Vakfikebir", "lat": 41.0458, "lng": 39.2764}, {"city": "Esme", "lat": 38.4006, "lng": 28.9691}, {"city": "Basmakci", "lat": 37.8973, "lng": 30.0101}, {"city": "Emirgazi", "lat": 37.9022, "lng": 33.8372}, {"city": "Baskil", "lat": 38.5674, "lng": 38.8236}]