[{"city": "Taichung", "lat": 24.15, "lng": 120.6667}, {"city": "Kaohsiung", "lat": 22.6167, "lng": 120.3}, {"city": "Taipei", "lat": 25.0478, "lng": 121.5319}, {"city": "Tainan", "lat": 22.9833, "lng": 120.1833}, {"city": "Zhongli", "lat": 24.965, "lng": 121.2168}, {"city": "Changhua", "lat": 24.0667, "lng": 120.5333}, {"city": "Pingtung", "lat": 22.6761, "lng": 120.4942}, {"city": "Taoyuan District", "lat": 24.9889, "lng": 121.3111}, {"city": "Hsinchu", "lat": 24.8047, "lng": 120.9714}, {"city": "Keelung", "lat": 25.1283, "lng": 121.7419}, {"city": "Chiayi", "lat": 23.48, "lng": 120.4497}, {"city": "Pingzhen", "lat": 24.9439, "lng": 121.2161}, {"city": "Zhubei", "lat": 24.8333, "lng": 121.0}, {"city": "Bade", "lat": 24.9575, "lng": 121.2989}, {"city": "Yangmei", "lat": 24.9167, "lng": 121.15}, {"city": "Yilan", "lat": 24.75, "lng": 121.75}, {"city": "Hualien", "lat": 23.9722, "lng": 121.6064}, {"city": "Taitung", "lat": 22.7583, "lng": 121.1444}, {"city": "Douliu", "lat": 23.7075, "lng": 120.5439}, {"city": "Nantou", "lat": 23.9167, "lng": 120.6833}, {"city": "Miaoli", "lat": 24.57, "lng": 120.82}, {"city": "Magong", "lat": 23.5667, "lng": 119.5833}, {"city": "Taibao", "lat": 23.45, "lng": 120.3333}, {"city": "Banqiao", "lat": 25.0143, "lng": 121.4672}, {"city": "Nangan", "lat": 26.1598, "lng": 119.9432}, {"city": "Jincheng", "lat": 24.4167, "lng": 118.3167}, {"city": "Zhushan", "lat": 23.6889, "lng": 120.7289}, {"city": "Pozi", "lat": 23.4611, "lng": 120.242}, {"city": "Huatan", "lat": 24.0316, "lng": 120.558}, {"city": "Beigang", "lat": 23.5667, "lng": 120.3}, {"city": "Yuanchang", "lat": 23.642, "lng": 120.323}, {"city": "Ershui", "lat": 23.8167, "lng": 120.6167}]