[{"city": "Kampala", "lat": 0.3136, "lng": 32.5811}, {"city": "Mbale", "lat": 1.0806, "lng": 34.175}, {"city": "Arua", "lat": 3.03, "lng": 30.91}, {"city": "Tororo", "lat": 0.6928, "lng": 34.1808}, {"city": "Gulu", "lat": 2.7667, "lng": 32.3056}, {"city": "Lira", "lat": 2.2489, "lng": 32.9}, {"city": "Mbarara", "lat": -0.5996, "lng": 30.65}, {"city": "Jinja", "lat": 0.4431, "lng": 33.2128}, {"city": "Kasese", "lat": 0.23, "lng": 29.9883}, {"city": "Masaka", "lat": -0.3296, "lng": 31.73}, {"city": "Kitgum", "lat": 3.3004, "lng": 32.87}, {"city": "Busia", "lat": 0.4669, "lng": 34.09}, {"city": "Iganga", "lat": 0.6092, "lng": 33.4686}, {"city": "Kabale", "lat": -1.2496, "lng": 29.98}, {"city": "Fort Portal", "lat": 0.671, "lng": 30.275}, {"city": "Mityana", "lat": 0.4004, "lng": 32.05}, {"city": "Adjumani", "lat": 3.3614, "lng": 31.8097}, {"city": "Masindi", "lat": 1.6744, "lng": 31.715}, {"city": "Pallisa", "lat": 1.145, "lng": 33.7094}, {"city": "Nebbi", "lat": 2.4758, "lng": 31.1025}, {"city": "Moyo", "lat": 3.6504, "lng": 31.72}, {"city": "Kayunga", "lat": 0.7025, "lng": 32.8886}, {"city": "Mubende", "lat": 0.5904, "lng": 31.37}, {"city": "Pakwach", "lat": 2.45, "lng": 31.5}, {"city": "Kamuli", "lat": 0.9472, "lng": 33.1197}, {"city": "Ntungamo", "lat": -0.8794, "lng": 30.2642}, {"city": "Kiboga", "lat": 0.9161, "lng": 31.7742}, {"city": "Sironko", "lat": 1.2294, "lng": 34.2481}, {"city": "Kisoro", "lat": -1.3539, "lng": 29.6983}, {"city": "Kumi", "lat": 1.4608, "lng": 33.9361}, {"city": "Mpigi", "lat": 0.225, "lng": 32.3136}, {"city": "Katakwi", "lat": 1.8911, "lng": 33.9661}, {"city": "Nakasongola", "lat": 1.3089, "lng": 32.4564}, {"city": "Koboko", "lat": 3.4136, "lng": 30.9599}, {"city": "Kalangala", "lat": -0.3089, "lng": 32.225}, {"city": "Soroti", "lat": 1.6833, "lng": 33.6167}, {"city": "Kaberamaido", "lat": 1.7389, "lng": 33.1594}, {"city": "Bugiri", "lat": 0.5714, "lng": 33.7417}, {"city": "Moroto", "lat": 2.5403, "lng": 34.64}, {"city": "Hoima", "lat": 1.4356, "lng": 31.3436}, {"city": "Wakiso", "lat": 0.4044, "lng": 32.4594}, {"city": "Kapchorwa", "lat": 1.3965, "lng": 34.4509}, {"city": "Bundibugyo", "lat": 0.7085, "lng": 30.0634}, {"city": "Yumbe", "lat": 3.4651, "lng": 31.2469}, {"city": "Mukono", "lat": 0.3533, "lng": 32.7553}, {"city": "Kaabong", "lat": 3.5204, "lng": 34.12}, {"city": "Lyantonde", "lat": -0.4031, "lng": 31.1572}, {"city": "Bududa", "lat": 1.0112, "lng": 34.3311}, {"city": "Manafwa", "lat": 0.9784, "lng": 34.3743}, {"city": "Luwero", "lat": 0.8492, "lng": 32.4731}, {"city": "Mayuge", "lat": 0.4578, "lng": 33.4806}, {"city": "Namutumba", "lat": 0.8363, "lng": 33.6858}, {"city": "Kaliro", "lat": 0.8949, "lng": 33.5048}, {"city": "Amudat", "lat": 1.95, "lng": 34.95}, {"city": "Bukwo", "lat": 1.3, "lng": 34.75}, {"city": "Kibiito", "lat": 0.4772, "lng": 30.1925}, {"city": "Kibuku", "lat": 1.0433, "lng": 33.7975}, {"city": "Maracha", "lat": 3.2704, "lng": 30.9553}, {"city": "Buikwe", "lat": 0.3375, "lng": 33.0106}, {"city": "Kagadi", "lat": 0.9378, "lng": 30.8089}, {"city": "Binyin", "lat": 1.4167, "lng": 34.5333}, {"city": "Bulambuli", "lat": 1.1667, "lng": 34.3833}, {"city": "Namayingo", "lat": 0.2398, "lng": 33.8849}, {"city": "Apac", "lat": 1.9845, "lng": 32.534}, {"city": "Butebo", "lat": 1.1942, "lng": 33.9222}, {"city": "Kiryandongo", "lat": 1.8763, "lng": 32.0622}, {"city": "Busesa", "lat": 0.6263, "lng": 33.6003}, {"city": "Butaleja", "lat": 0.9166, "lng": 33.9563}, {"city": "Bukomansimbi", "lat": -0.1578, "lng": 31.6042}, {"city": "Luuka Town", "lat": 0.7008, "lng": 33.3002}, {"city": "Serere", "lat": 1.518, "lng": 33.4589}, {"city": "Zombo", "lat": 2.5135, "lng": 30.9091}, {"city": "Nsiika", "lat": -0.3831, "lng": 30.465}, {"city": "Rubanda", "lat": -1.1883, "lng": 29.8461}, {"city": "Ntara", "lat": 0.0044, "lng": 30.3658}, {"city": "Kalungu", "lat": -0.1667, "lng": 31.7569}, {"city": "Rukungiri", "lat": -0.8411, "lng": 29.9419}, {"city": "Bushenyi", "lat": -0.5853, "lng": 30.2114}, {"city": "Gombe", "lat": 0.1818, "lng": 32.1158}, {"city": "Kanungu", "lat": -0.9575, "lng": 29.7897}, {"city": "Bupoto", "lat": 0.9061, "lng": 34.3578}, {"city": "Rubirizi", "lat": -0.2989, "lng": 30.1336}, {"city": "Kyenjojo", "lat": 0.6328, "lng": 30.6214}, {"city": "Kyegegwa", "lat": 0.5022, "lng": 31.0414}, {"city": "Kole", "lat": 2.4002, "lng": 32.8003}, {"city": "Ibanda", "lat": -0.1539, "lng": 30.5319}, {"city": "Bulisa", "lat": 2.1178, "lng": 31.4116}, {"city": "Mparo", "lat": -1.1647, "lng": 30.0378}, {"city": "Mitoma", "lat": -0.6842, "lng": 30.07}, {"city": "Bukedea", "lat": 1.3169, "lng": 34.0506}, {"city": "Amolatar", "lat": 1.6378, "lng": 32.8448}, {"city": "Kasanda", "lat": 0.5567, "lng": 31.8022}, {"city": "Kasaali", "lat": -0.6167, "lng": 31.55}, {"city": "Dokolo", "lat": 1.9167, "lng": 33.172}, {"city": "Kakumiro", "lat": 0.7806, "lng": 31.3236}, {"city": "Sembabule", "lat": -0.0772, "lng": 31.4567}, {"city": "Rakai", "lat": -0.72, "lng": 31.4839}, {"city": "Kinoni", "lat": -0.6583, "lng": 30.4581}, {"city": "Kibingo", "lat": -0.626, "lng": 30.4359}, {"city": "Lwengo", "lat": -0.4161, "lng": 31.4081}, {"city": "Butalangu", "lat": 0.7011, "lng": 32.2481}, {"city": "Kanoni", "lat": 0.1772, "lng": 31.8811}, {"city": "Alebtong", "lat": 2.2447, "lng": 33.2547}, {"city": "Amuria", "lat": 2.0036, "lng": 33.6511}, {"city": "Abim", "lat": 2.7017, "lng": 33.6761}, {"city": "Ngora", "lat": 1.4314, "lng": 33.7772}, {"city": "Kalaki", "lat": 1.816, "lng": 33.337}, {"city": "Kamwenge", "lat": 0.2111, "lng": 30.4208}, {"city": "Isingiro", "lat": -0.8686, "lng": 30.8302}, {"city": "Buyende", "lat": 1.1517, "lng": 33.155}, {"city": "Palenga", "lat": 2.6131, "lng": 32.3369}, {"city": "Lamwo", "lat": 3.5297, "lng": 32.8016}, {"city": "Oyam", "lat": 2.2141, "lng": 32.3703}, {"city": "Agago", "lat": 2.8338, "lng": 33.3336}, {"city": "Napak", "lat": 2.2514, "lng": 34.2501}, {"city": "Nabilatuk", "lat": 2.0525, "lng": 34.5734}, {"city": "Kiruhura", "lat": -0.2356, "lng": 30.8725}, {"city": "Kotido", "lat": 2.9806, "lng": 34.1331}, {"city": "Nwoya", "lat": 2.6342, "lng": 32.0011}, {"city": "Pader", "lat": 3.05, "lng": 33.2167}, {"city": "Otuke", "lat": 2.5004, "lng": 33.5007}, {"city": "Amuru", "lat": 2.8139, "lng": 31.9387}, {"city": "Nakapiripirit", "lat": 1.9167, "lng": 34.7833}, {"city": "Kyankwanzi", "lat": 1.1987, "lng": 31.8062}, {"city": "Ntoroko", "lat": 1.0411, "lng": 30.4811}, {"city": "Kitamilo", "lat": 0.2222, "lng": 33.2061}, {"city": "Bombo", "lat": 0.5833, "lng": 32.5333}, {"city": "Entebbe", "lat": 0.05, "lng": 32.46}, {"city": "Kibale", "lat": 0.8, "lng": 31.0667}, {"city": "Katwe", "lat": -0.1296, "lng": 29.92}, {"city": "Masindi Port", "lat": 1.7004, "lng": 32.0699}]