[{"city": "Kyiv", "lat": 50.45, "lng": 30.5236}, {"city": "Kharkiv", "lat": 50.0, "lng": 36.2292}, {"city": "Odesa", "lat": 46.4775, "lng": 30.7326}, {"city": "Dnipro", "lat": 48.4675, "lng": 35.04}, {"city": "Donetsk", "lat": 48.0089, "lng": 37.8042}, {"city": "Zaporizhzhia", "lat": 47.8378, "lng": 35.1383}, {"city": "Lviv", "lat": 49.8419, "lng": 24.0315}, {"city": "Kryvyi Rih", "lat": 47.9086, "lng": 33.3433}, {"city": "Sevastopol", "lat": 44.6, "lng": 33.5333}, {"city": "Mykolaiv", "lat": 46.9667, "lng": 32.0}, {"city": "Mariupol", "lat": 47.1306, "lng": 37.5639}, {"city": "Luhansk", "lat": 48.5833, "lng": 39.3333}, {"city": "Vinnytsia", "lat": 49.2167, "lng": 28.4333}, {"city": "Simferopol", "lat": 44.9484, "lng": 34.1}, {"city": "Makiivka", "lat": 48.0556, "lng": 37.9611}, {"city": "Poltava", "lat": 49.5744, "lng": 34.5686}, {"city": "Chernihiv", "lat": 51.4939, "lng": 31.2947}, {"city": "Kherson", "lat": 46.6333, "lng": 32.6}, {"city": "Cherkasy", "lat": 49.4444, "lng": 32.0597}, {"city": "Khmelnytskyi", "lat": 49.42, "lng": 27.0}, {"city": "Zhytomyr", "lat": 50.2544, "lng": 28.6578}, {"city": "Chernivtsi", "lat": 48.2908, "lng": 25.9344}, {"city": "Sumy", "lat": 50.9068, "lng": 34.7992}, {"city": "Horlivka", "lat": 48.3336, "lng": 38.0925}, {"city": "Rivne", "lat": 50.6197, "lng": 26.2514}, {"city": "Ivano-Frankivsk", "lat": 48.9228, "lng": 24.7106}, {"city": "Kamianske", "lat": 48.5076, "lng": 34.6132}, {"city": "Kropyvnytskyi", "lat": 48.5103, "lng": 32.2667}, {"city": "Ternopil", "lat": 49.5667, "lng": 25.6}, {"city": "Lutsk", "lat": 50.7478, "lng": 25.3244}, {"city": "Kremenchuk", "lat": 49.0775, "lng": 33.4239}, {"city": "Bila Tserkva", "lat": 49.7956, "lng": 30.1167}, {"city": "Kramatorsk", "lat": 48.7208, "lng": 37.5556}, {"city": "Melitopol", "lat": 46.8333, "lng": 35.3667}, {"city": "Sievierodonetsk", "lat": 48.95, "lng": 38.4833}, {"city": "Kerch", "lat": 45.3386, "lng": 36.4681}, {"city": "Drohobych", "lat": 49.35, "lng": 23.5}, {"city": "Khrustalnyi", "lat": 48.1214, "lng": 38.9453}, {"city": "Uzhhorod", "lat": 48.6239, "lng": 22.295}, {"city": "Berdiansk", "lat": 46.7598, "lng": 36.7845}, {"city": "Sloviansk", "lat": 48.87, "lng": 37.625}, {"city": "Nikopol", "lat": 47.5772, "lng": 34.3575}, {"city": "Pavlohrad", "lat": 48.52, "lng": 35.87}, {"city": "Yevpatoriia", "lat": 45.2, "lng": 33.3583}, {"city": "Alchevsk", "lat": 48.4672, "lng": 38.7983}, {"city": "Brovary", "lat": 50.5114, "lng": 30.7903}, {"city": "Konotop", "lat": 51.2369, "lng": 33.2027}, {"city": "Kamianets-Podilskyi", "lat": 48.6806, "lng": 26.5806}, {"city": "Mukacheve", "lat": 48.4414, "lng": 22.7136}, {"city": "Uman", "lat": 48.75, "lng": 30.2167}, {"city": "Chervonohrad", "lat": 50.3822, "lng": 24.2275}, {"city": "Khartsyzk", "lat": 48.0333, "lng": 38.15}, {"city": "Stryi", "lat": 49.25, "lng": 23.85}, {"city": "Chornomorsk", "lat": 46.3017, "lng": 30.6569}, {"city": "Novohrad-Volynskyi", "lat": 50.5833, "lng": 27.6333}, {"city": "Myrnohrad", "lat": 48.3022, "lng": 37.2614}, {"city": "Rovenky", "lat": 48.0833, "lng": 39.3667}, {"city": "Myrhorod", "lat": 49.964, "lng": 33.6124}, {"city": "Bucha", "lat": 50.5464, "lng": 30.235}, {"city": "Chuhuiv", "lat": 49.8353, "lng": 36.6756}, {"city": "Sukhodilsk", "lat": 48.35, "lng": 39.7167}, {"city": "Kotsyubyns'ke", "lat": 50.4883, "lng": 30.3331}, {"city": "Hostomel", "lat": 50.5692, "lng": 30.2653}, {"city": "Vynnyky", "lat": 49.8156, "lng": 24.1297}, {"city": "Hirnyk", "lat": 48.05, "lng": 37.3667}, {"city": "Komyshany", "lat": 46.64, "lng": 32.51}, {"city": "Karnaukhivka", "lat": 48.4698, "lng": 34.7376}, {"city": "Lysychansk", "lat": 48.9169, "lng": 38.4306}, {"city": "Dovzhansk", "lat": 48.0846, "lng": 39.6516}, {"city": "Oleksandriia", "lat": 48.6667, "lng": 33.1167}, {"city": "Yalta", "lat": 44.4994, "lng": 34.1553}, {"city": "Yenakiieve", "lat": 48.2311, "lng": 38.2053}, {"city": "Bakhmut", "lat": 48.6044, "lng": 38.0067}, {"city": "Shostka", "lat": 51.8657, "lng": 33.4766}, {"city": "Stakhanov", "lat": 48.5472, "lng": 38.6361}, {"city": "Berdychiv", "lat": 49.8919, "lng": 28.6}, {"city": "Nizhyn", "lat": 51.05, "lng": 31.9}, {"city": "Kostiantynivka", "lat": 48.5333, "lng": 37.7167}, {"city": "Izmail", "lat": 45.35, "lng": 28.8333}, {"city": "Novomoskovsk", "lat": 48.6328, "lng": 35.2239}, {"city": "Kovel", "lat": 51.2167, "lng": 24.7167}, {"city": "Smila", "lat": 49.2167, "lng": 31.8667}, {"city": "Kalush", "lat": 49.0442, "lng": 24.3597}, {"city": "Korosten", "lat": 50.95, "lng": 28.65}, {"city": "Pokrovsk", "lat": 48.2833, "lng": 37.1833}, {"city": "Kolomyia", "lat": 48.5167, "lng": 25.0333}, {"city": "Boryspil", "lat": 50.35, "lng": 30.95}, {"city": "Rubizhne", "lat": 49.0167, "lng": 38.3667}, {"city": "Druzhkivka", "lat": 48.6203, "lng": 37.5278}, {"city": "Bilhorod-Dnistrovskyi", "lat": 46.1833, "lng": 30.3333}, {"city": "Irpin", "lat": 50.5167, "lng": 30.25}, {"city": "Antratsyt", "lat": 48.1167, "lng": 39.0833}, {"city": "Lozova", "lat": 48.8892, "lng": 36.3161}, {"city": "Enerhodar", "lat": 47.4989, "lng": 34.6558}, {"city": "Pryluky", "lat": 50.6, "lng": 32.4}, {"city": "Horishni Plavni", "lat": 49.0107, "lng": 33.6562}, {"city": "Novovolynsk", "lat": 50.7333, "lng": 24.1667}, {"city": "Shakhtarsk", "lat": 48.0333, "lng": 38.4833}, {"city": "Brianka", "lat": 48.5133, "lng": 38.6431}, {"city": "Snizhne", "lat": 48.0167, "lng": 38.7667}, {"city": "Marhanets", "lat": 47.648, "lng": 34.6167}, {"city": "Fastiv", "lat": 50.0747, "lng": 29.9181}, {"city": "Lubny", "lat": 50.0186, "lng": 32.9869}, {"city": "Svitlovodsk", "lat": 49.0833, "lng": 33.25}, {"city": "Nova Kakhovka", "lat": 46.7667, "lng": 33.3667}, {"city": "Zhovti Vody", "lat": 48.35, "lng": 33.5167}, {"city": "Krasnodon", "lat": 48.3, "lng": 39.7333}, {"city": "Shepetivka", "lat": 50.1833, "lng": 27.0667}, {"city": "Podilsk", "lat": 47.7419, "lng": 29.535}, {"city": "Romny", "lat": 50.7428, "lng": 33.4879}, {"city": "Vyshneve", "lat": 50.3833, "lng": 30.3667}, {"city": "Pokrov", "lat": 47.6632, "lng": 34.0811}, {"city": "Vasylkiv", "lat": 50.1775, "lng": 30.3217}, {"city": "Dubno", "lat": 50.3931, "lng": 25.735}, {"city": "Pervomaisk", "lat": 48.6333, "lng": 38.5167}, {"city": "Dzhankoi", "lat": 45.7086, "lng": 34.3933}, {"city": "Boryslav", "lat": 49.2881, "lng": 23.4267}, {"city": "Holubivske", "lat": 48.6375, "lng": 38.6433}, {"city": "Yasynuvata", "lat": 48.1167, "lng": 37.8333}, {"city": "Netishyn", "lat": 50.33, "lng": 26.64}, {"city": "Zhmerynka", "lat": 49.0425, "lng": 28.0992}, {"city": "Avdiivka", "lat": 48.1333, "lng": 37.75}, {"city": "Kakhovka", "lat": 46.8, "lng": 33.4667}, {"city": "Toretsk", "lat": 48.4, "lng": 37.8333}, {"city": "Sambir", "lat": 49.5167, "lng": 23.2}, {"city": "Boyarka", "lat": 50.3292, "lng": 30.2886}, {"city": "Voznesensk", "lat": 47.5725, "lng": 31.3119}, {"city": "Hlukhiv", "lat": 51.6765, "lng": 33.9078}, {"city": "Obukhiv", "lat": 50.1, "lng": 30.6167}, {"city": "Yuzhne", "lat": 46.6222, "lng": 31.1008}, {"city": "Mohyliv-Podilskyi", "lat": 48.45, "lng": 27.7833}, {"city": "Kostopil", "lat": 50.8833, "lng": 26.4431}, {"city": "Tokmak", "lat": 47.2514, "lng": 35.7058}, {"city": "Novoyavorovskoye", "lat": 49.9311, "lng": 23.5731}, {"city": "Synelnykove", "lat": 48.3178, "lng": 35.5119}, {"city": "Pervomaiskyi", "lat": 49.3869, "lng": 36.2142}, {"city": "Alushta", "lat": 44.6672, "lng": 34.3978}, {"city": "Khmilnyk", "lat": 49.55, "lng": 27.9667}, {"city": "Truskavets", "lat": 49.2806, "lng": 23.505}, {"city": "Balakliia", "lat": 49.4564, "lng": 36.8389}, {"city": "Novyi Rozdil", "lat": 49.4703, "lng": 24.13}, {"city": "Chortkiv", "lat": 49.0167, "lng": 25.8}, {"city": "Pershotravensk", "lat": 48.3464, "lng": 36.4044}, {"city": "Khust", "lat": 48.1814, "lng": 23.2978}, {"city": "Khrestivka", "lat": 48.15, "lng": 38.3667}, {"city": "Ternivka", "lat": 48.5231, "lng": 36.0826}, {"city": "Vyshhorod", "lat": 50.5833, "lng": 30.5}, {"city": "Zolotonosha", "lat": 49.6833, "lng": 32.0333}, {"city": "Bakhchysarai", "lat": 44.7528, "lng": 33.8608}, {"city": "Pereyaslav-Khmel'nyts'kyy", "lat": 50.065, "lng": 31.445}, {"city": "Sofiyivs'ka Borshchahivka", "lat": 50.4114, "lng": 30.3692}, {"city": "Perevalsk", "lat": 48.4333, "lng": 38.8167}, {"city": "Malyn", "lat": 50.7689, "lng": 29.27}, {"city": "Yany Kapu", "lat": 45.9675, "lng": 33.8003}, {"city": "Haisyn", "lat": 48.8094, "lng": 29.3906}, {"city": "Vynohradiv", "lat": 48.1397, "lng": 23.0331}, {"city": "Korostyshiv", "lat": 50.3186, "lng": 29.0592}, {"city": "Saky", "lat": 45.1336, "lng": 33.5772}, {"city": "Slavutych", "lat": 51.5206, "lng": 30.7569}, {"city": "Kaniv", "lat": 49.7447, "lng": 31.4558}, {"city": "Selydove", "lat": 48.15, "lng": 37.3}, {"city": "Zolochiv", "lat": 49.8075, "lng": 24.9031}, {"city": "Berehove", "lat": 48.2025, "lng": 22.6375}, {"city": "Brody", "lat": 50.0781, "lng": 25.1542}, {"city": "Koziatyn", "lat": 49.7167, "lng": 28.8333}, {"city": "Vilnohirsk", "lat": 48.4824, "lng": 34.0189}, {"city": "Molodohvardiisk", "lat": 48.3444, "lng": 39.6583}, {"city": "Znamianka", "lat": 48.7136, "lng": 32.6733}, {"city": "Ladyzhyn", "lat": 48.6667, "lng": 29.2167}, {"city": "Nadvirna", "lat": 48.6333, "lng": 24.5833}, {"city": "Lyman", "lat": 48.9861, "lng": 37.8111}, {"city": "Merefa", "lat": 49.8197, "lng": 36.0686}, {"city": "Bilohorodka", "lat": 50.4, "lng": 30.2167}, {"city": "Sokal", "lat": 50.4833, "lng": 24.2833}, {"city": "Liubotyn", "lat": 49.9489, "lng": 35.9306}, {"city": "Kremenets", "lat": 50.1081, "lng": 25.7275}, {"city": "Dolyna", "lat": 48.9703, "lng": 24.0108}, {"city": "Yahotyn", "lat": 50.2569, "lng": 31.7817}, {"city": "Pidhorodne", "lat": 48.5737, "lng": 35.0966}, {"city": "Balta", "lat": 47.9361, "lng": 29.6225}, {"city": "Henichesk", "lat": 46.1769, "lng": 34.7989}, {"city": "Dolynska", "lat": 48.1111, "lng": 32.7648}, {"city": "Kalynivka", "lat": 49.4472, "lng": 28.5231}, {"city": "Polohy", "lat": 47.4796, "lng": 36.2611}, {"city": "Piatykhatky", "lat": 48.4126, "lng": 33.7034}, {"city": "Starobilsk", "lat": 49.2667, "lng": 38.9167}, {"city": "Vovchansk", "lat": 50.2881, "lng": 36.9461}, {"city": "Dniprorudne", "lat": 47.3855, "lng": 34.9879}, {"city": "Bakhmach", "lat": 51.18, "lng": 32.8269}, {"city": "Korsun-Shevchenkivskyi", "lat": 49.4261, "lng": 31.2806}, {"city": "Amvrosiivka", "lat": 47.7958, "lng": 38.4801}, {"city": "Svatove", "lat": 49.4092, "lng": 38.1619}, {"city": "Zuhres", "lat": 48.0181, "lng": 38.2563}, {"city": "Skadovsk", "lat": 46.1167, "lng": 32.9167}, {"city": "Bolhrad", "lat": 45.6855, "lng": 28.6134}, {"city": "Berezhany", "lat": 49.4464, "lng": 24.9436}, {"city": "Svalyava", "lat": 48.5472, "lng": 22.9861}, {"city": "Zvenyhorodka", "lat": 49.0833, "lng": 30.9667}, {"city": "Vatutine", "lat": 49.0167, "lng": 31.0667}, {"city": "Iziaslav", "lat": 50.1167, "lng": 26.8}, {"city": "Sudak", "lat": 44.8514, "lng": 34.9725}, {"city": "Berezan", "lat": 50.3197, "lng": 31.47}, {"city": "Horodok", "lat": 49.1667, "lng": 26.5667}, {"city": "Bilohirsk", "lat": 45.0544, "lng": 34.6022}, {"city": "Verkhivtseve", "lat": 48.4812, "lng": 34.2488}, {"city": "Horodok", "lat": 49.7822, "lng": 23.6436}, {"city": "Okhtyrka", "lat": 50.3074, "lng": 34.9016}, {"city": "Bar", "lat": 49.0781, "lng": 27.6831}, {"city": "Ukrainka", "lat": 50.15, "lng": 30.7519}, {"city": "Dunaivtsi", "lat": 48.8873, "lng": 26.8476}, {"city": "Skvyra", "lat": 49.7333, "lng": 29.6833}, {"city": "Yuvileine", "lat": 48.5531, "lng": 39.1742}, {"city": "Ovruch", "lat": 51.3244, "lng": 28.8081}, {"city": "Putyvl", "lat": 51.3347, "lng": 33.8686}, {"city": "Ostroh", "lat": 50.3333, "lng": 26.5167}, {"city": "Rakhiv", "lat": 48.05, "lng": 24.2167}, {"city": "Bohodukhiv", "lat": 50.1608, "lng": 35.5164}, {"city": "Burshtyn", "lat": 49.26, "lng": 24.635}, {"city": "Tulchyn", "lat": 48.6744, "lng": 28.8497}, {"city": "Vil'nyans'k", "lat": 47.9445, "lng": 35.4331}, {"city": "Nyzhnia Krynka", "lat": 48.1144, "lng": 38.1606}, {"city": "Vuhledar", "lat": 47.7794, "lng": 37.2475}, {"city": "Ochakiv", "lat": 46.6186, "lng": 31.5392}, {"city": "Hulyaypole", "lat": 47.6644, "lng": 36.2632}, {"city": "Radomyshl", "lat": 50.4947, "lng": 29.2333}, {"city": "Stanytsia Luhanska", "lat": 48.6667, "lng": 39.4667}, {"city": "Orikhiv", "lat": 47.5677, "lng": 35.7849}, {"city": "Zolote", "lat": 48.6833, "lng": 38.5167}, {"city": "Kivertsi", "lat": 50.8331, "lng": 25.4614}, {"city": "Zhovkva", "lat": 50.0667, "lng": 23.9667}, {"city": "Zhashkiv", "lat": 49.25, "lng": 30.1}, {"city": "Horodyshche", "lat": 49.2925, "lng": 31.4581}, {"city": "Apostolove", "lat": 47.6595, "lng": 33.717}, {"city": "Hola Prystan", "lat": 46.5167, "lng": 32.5167}, {"city": "Bunhe", "lat": 48.2206, "lng": 38.2739}, {"city": "Talne", "lat": 48.8863, "lng": 30.7027}, {"city": "Kaharlyk", "lat": 49.8522, "lng": 30.8092}, {"city": "Zelenodolsk", "lat": 47.5631, "lng": 33.6524}, {"city": "Berezne", "lat": 51.0, "lng": 26.75}, {"city": "Nosivka", "lat": 50.93, "lng": 31.58}, {"city": "Borodyanka", "lat": 50.6439, "lng": 29.9339}, {"city": "Slobozhanske", "lat": 48.5342, "lng": 35.0749}, {"city": "Lebedyn", "lat": 50.5831, "lng": 34.4823}, {"city": "Vasylivka", "lat": 47.4344, "lng": 35.2808}, {"city": "Velykodolynske", "lat": 46.3425, "lng": 30.5653}, {"city": "Tetiiv", "lat": 49.3708, "lng": 29.69}, {"city": "Rozhyshche", "lat": 50.9131, "lng": 25.27}, {"city": "Yavoriv", "lat": 49.9469, "lng": 23.3931}, {"city": "Novhorod-Siverskyi", "lat": 51.9833, "lng": 33.2667}, {"city": "Bershad", "lat": 48.3728, "lng": 29.5325}, {"city": "Perehinske", "lat": 48.8103, "lng": 24.1819}, {"city": "Hvardiiske", "lat": 45.1142, "lng": 34.0142}, {"city": "Kamianka-Dniprovska", "lat": 47.4792, "lng": 34.4232}, {"city": "Shchastia", "lat": 48.7381, "lng": 39.2311}, {"city": "Buchach", "lat": 49.0647, "lng": 25.3872}, {"city": "Koriukivka", "lat": 51.7833, "lng": 32.25}, {"city": "Kamin-Kashyrskyi", "lat": 51.6242, "lng": 24.9606}, {"city": "Hnivan", "lat": 49.0833, "lng": 28.35}, {"city": "Beryslav", "lat": 46.8333, "lng": 33.4167}, {"city": "Uzyn", "lat": 49.8242, "lng": 30.4425}, {"city": "Bilovodsk", "lat": 49.1992, "lng": 39.5756}, {"city": "Mykhailivka", "lat": 47.2717, "lng": 35.2248}, {"city": "Ukrainsk", "lat": 48.1, "lng": 37.3667}, {"city": "Horodnia", "lat": 51.8833, "lng": 31.5833}, {"city": "Ovidiopol", "lat": 46.2667, "lng": 30.4333}, {"city": "Baranivka", "lat": 50.3, "lng": 27.6667}, {"city": "Bilopillya", "lat": 51.1532, "lng": 34.3025}, {"city": "Vasylkivka", "lat": 48.2084, "lng": 36.0253}, {"city": "Nemyriv", "lat": 48.9794, "lng": 28.8439}, {"city": "Prymorsk", "lat": 46.7333, "lng": 36.3596}, {"city": "Mena", "lat": 51.5167, "lng": 32.2167}, {"city": "Mala Vyska", "lat": 48.65, "lng": 31.6333}, {"city": "Kalmiuske", "lat": 47.6667, "lng": 38.0667}, {"city": "Lokhvytsya", "lat": 50.361, "lng": 33.2652}, {"city": "Myronivka", "lat": 49.65, "lng": 30.9833}, {"city": "Yakymivka", "lat": 46.6967, "lng": 35.1664}, {"city": "Snovsk", "lat": 51.8167, "lng": 31.95}, {"city": "Illintsi", "lat": 49.1, "lng": 29.2}, {"city": "Sosnivka", "lat": 50.2946, "lng": 24.2525}, {"city": "Chornomorske", "lat": 45.5031, "lng": 32.705}, {"city": "Zhydachiv", "lat": 49.3833, "lng": 24.1333}, {"city": "Rokytne", "lat": 49.6897, "lng": 30.4751}, {"city": "Hurzuf", "lat": 44.5528, "lng": 34.2875}, {"city": "Bobrovytsia", "lat": 50.7333, "lng": 31.3833}, {"city": "Bobrynets", "lat": 48.0578, "lng": 32.1581}, {"city": "Novgorodskoye", "lat": 48.3156, "lng": 37.8839}, {"city": "Manevychi", "lat": 51.2925, "lng": 25.5503}, {"city": "Hrebinka", "lat": 50.118, "lng": 32.4396}, {"city": "Baryshivka", "lat": 50.3703, "lng": 31.3286}, {"city": "Khrystynivka", "lat": 48.8333, "lng": 29.9667}, {"city": "Kurman", "lat": 45.4978, "lng": 34.295}, {"city": "Ichnia", "lat": 50.85, "lng": 32.4}, {"city": "Inkerman", "lat": 44.6142, "lng": 33.6083}, {"city": "Bolekhiv", "lat": 49.0669, "lng": 23.8514}, {"city": "Lyuboml'", "lat": 51.2158, "lng": 24.0408}, {"city": "Olevsk", "lat": 51.2278, "lng": 27.6481}, {"city": "Ivankiv", "lat": 50.9333, "lng": 29.9}, {"city": "Krasnoilsk", "lat": 48.0167, "lng": 25.5833}, {"city": "Verkhnodniprovsk", "lat": 48.6561, "lng": 34.3283}, {"city": "Letychiv", "lat": 49.3833, "lng": 27.6167}, {"city": "Korolevo", "lat": 48.15, "lng": 23.1333}, {"city": "Bilenke", "lat": 48.7664, "lng": 37.6314}, {"city": "Oster", "lat": 50.9486, "lng": 30.8811}, {"city": "Radyvyliv", "lat": 50.1333, "lng": 25.25}, {"city": "Tarashcha", "lat": 49.55, "lng": 30.5}, {"city": "Sniatyn", "lat": 48.45, "lng": 25.5667}, {"city": "Shyroke", "lat": 47.6882, "lng": 33.2654}, {"city": "Borzna", "lat": 51.2333, "lng": 32.4167}, {"city": "Teplodar", "lat": 46.5036, "lng": 30.3244}, {"city": "Shpola", "lat": 49.0333, "lng": 31.4167}, {"city": "Sofiivka", "lat": 48.2683, "lng": 38.1847}, {"city": "Dubove", "lat": 48.1781, "lng": 23.8863}, {"city": "Ratne", "lat": 51.65, "lng": 24.5333}, {"city": "Pereshchepyne", "lat": 49.0179, "lng": 35.3598}, {"city": "Pokrovske", "lat": 47.9853, "lng": 36.2367}, {"city": "Zinkiv", "lat": 50.2081, "lng": 34.3668}, {"city": "Kobeliaky", "lat": 49.1474, "lng": 34.1993}, {"city": "Berezivka", "lat": 47.2039, "lng": 30.9125}, {"city": "Makariv", "lat": 50.4667, "lng": 29.8167}, {"city": "Vesele", "lat": 47.016, "lng": 34.9124}, {"city": "Khodoriv", "lat": 49.41, "lng": 24.3094}, {"city": "Izium", "lat": 49.2238, "lng": 37.2915}, {"city": "Bilozerka", "lat": 46.6333, "lng": 32.4333}, {"city": "Mizhhiria", "lat": 48.5286, "lng": 23.5019}, {"city": "Velyka Dymerka", "lat": 50.5928, "lng": 30.9103}, {"city": "Bezliudivka", "lat": 49.8694, "lng": 36.2719}, {"city": "Pohrebyshche", "lat": 49.4869, "lng": 29.2733}, {"city": "Nyzhnohirskyi", "lat": 45.4464, "lng": 34.7344}, {"city": "Dubrovytsya", "lat": 51.5667, "lng": 26.5667}, {"city": "Tysmenytsia", "lat": 48.9008, "lng": 24.8492}, {"city": "Irshava", "lat": 48.3172, "lng": 23.0375}, {"city": "Khotyn", "lat": 48.5078, "lng": 26.486}, {"city": "Masandra", "lat": 44.5167, "lng": 34.1833}, {"city": "Velykyi Bychkiv", "lat": 47.9714, "lng": 24.0047}, {"city": "Horodenka", "lat": 48.6675, "lng": 25.5003}, {"city": "Valky", "lat": 49.8386, "lng": 35.6217}, {"city": "Kalanchak", "lat": 46.255, "lng": 33.2906}, {"city": "Obukhivka", "lat": 48.5442, "lng": 34.8664}, {"city": "Stryzhavka", "lat": 49.3103, "lng": 28.4808}, {"city": "Horokhiv", "lat": 50.4994, "lng": 24.765}, {"city": "Velyki Luchky", "lat": 48.42, "lng": 22.5611}, {"city": "Tiachiv", "lat": 48.0114, "lng": 23.5722}, {"city": "Kozova", "lat": 49.4318, "lng": 25.1544}, {"city": "Uspenka", "lat": 48.3939, "lng": 39.1536}, {"city": "Pomichna", "lat": 48.25, "lng": 31.4167}, {"city": "Chop", "lat": 48.4333, "lng": 22.2}, {"city": "Monastyryshche", "lat": 48.99, "lng": 29.8011}, {"city": "Tlumach", "lat": 48.8669, "lng": 25.0012}, {"city": "Ilarionove", "lat": 48.4059, "lng": 35.2734}, {"city": "Kryzhopil", "lat": 48.3842, "lng": 28.8625}, {"city": "Rava-Rus'ka", "lat": 50.25, "lng": 23.6167}, {"city": "Solotvyno", "lat": 47.9597, "lng": 23.8669}, {"city": "Chyhyryn", "lat": 49.0833, "lng": 32.6667}, {"city": "Busk", "lat": 49.9667, "lng": 24.6167}, {"city": "Barvynkove", "lat": 48.9067, "lng": 37.0131}, {"city": "Bushtyno", "lat": 48.0503, "lng": 23.4894}, {"city": "Andrushivka", "lat": 50.0167, "lng": 29.0167}, {"city": "Yasinia", "lat": 48.2728, "lng": 24.3747}, {"city": "Kosiv", "lat": 48.315, "lng": 25.0953}, {"city": "Yasnohirka", "lat": 48.7725, "lng": 37.5506}, {"city": "Lypovets", "lat": 49.2161, "lng": 29.0561}, {"city": "Buryn", "lat": 51.1951, "lng": 33.8262}, {"city": "Deliatyn", "lat": 48.5286, "lng": 24.6236}, {"city": "Lanivtsi", "lat": 49.8644, "lng": 26.0782}, {"city": "Vyshkovo", "lat": 48.0581, "lng": 23.4164}, {"city": "Mala Danylivka", "lat": 50.0614, "lng": 36.1675}, {"city": "Bohorodchany", "lat": 48.8, "lng": 24.5333}, {"city": "Zavodske", "lat": 50.4002, "lng": 33.3908}, {"city": "Novi Sanzhary", "lat": 49.3354, "lng": 34.3162}, {"city": "Kvasyliv", "lat": 50.5569, "lng": 26.2675}, {"city": "Lysianka", "lat": 49.2542, "lng": 30.8207}, {"city": "Krasnopillya", "lat": 50.7732, "lng": 35.2717}, {"city": "Tarutyne", "lat": 46.1846, "lng": 29.1495}, {"city": "Manhush", "lat": 47.05, "lng": 37.3}, {"city": "Yaremche", "lat": 48.4536, "lng": 24.5564}, {"city": "Ananiv", "lat": 47.7225, "lng": 29.96}, {"city": "Kushuhum", "lat": 47.7106, "lng": 35.2192}, {"city": "Semenivka", "lat": 52.1772, "lng": 32.5797}, {"city": "Pidvolochysk", "lat": 49.5311, "lng": 26.1467}, {"city": "Lanchyn", "lat": 48.5475, "lng": 24.7517}, {"city": "Kozelets", "lat": 50.9164, "lng": 31.1147}, {"city": "Pivdenne", "lat": 49.8849, "lng": 36.0687}, {"city": "Vylkove", "lat": 45.3992, "lng": 29.5936}, {"city": "Rohatyn", "lat": 49.4167, "lng": 24.6167}, {"city": "Nemishayeve", "lat": 50.5624, "lng": 30.0925}, {"city": "Vorzel", "lat": 50.55, "lng": 30.15}, {"city": "Kryve Ozero", "lat": 47.9333, "lng": 30.3333}, {"city": "Khoroshiv", "lat": 50.6, "lng": 28.45}, {"city": "Trostianets", "lat": 48.512, "lng": 29.2137}, {"city": "Novoselytsia", "lat": 48.2167, "lng": 26.2667}, {"city": "Dykanka", "lat": 49.8222, "lng": 34.5341}, {"city": "Teresva", "lat": 48.0, "lng": 23.6992}, {"city": "Vapniarka", "lat": 48.5333, "lng": 28.75}, {"city": "Solone", "lat": 48.2054, "lng": 34.8686}, {"city": "Velykyy Bereznyy", "lat": 48.8922, "lng": 22.4586}, {"city": "Bereznehuvate", "lat": 47.3114, "lng": 32.8478}, {"city": "Krasnokutsk", "lat": 50.0567, "lng": 35.1492}, {"city": "Romaniv", "lat": 50.1517, "lng": 27.9392}, {"city": "Tsarychanka", "lat": 48.9432, "lng": 34.4748}, {"city": "Mezhova", "lat": 48.2563, "lng": 36.7313}, {"city": "Rzhyshchiv", "lat": 49.9611, "lng": 31.0436}, {"city": "Borova", "lat": 50.1733, "lng": 30.1039}, {"city": "Rudno", "lat": 49.8404, "lng": 23.8747}, {"city": "Lymanske", "lat": 46.6639, "lng": 29.9708}, {"city": "Shyriaieve", "lat": 47.3878, "lng": 30.1911}, {"city": "Poninka", "lat": 50.1833, "lng": 27.5333}, {"city": "Ripky", "lat": 51.7994, "lng": 31.0994}, {"city": "Isliam-Terek", "lat": 45.2256, "lng": 35.2033}, {"city": "Sharhorod", "lat": 48.75, "lng": 28.0833}, {"city": "Petropavlivka", "lat": 48.4549, "lng": 36.4394}, {"city": "Molochansk", "lat": 47.2038, "lng": 35.5985}, {"city": "Piskivka", "lat": 50.7078, "lng": 29.595}, {"city": "Sakhnovshchyna", "lat": 49.1492, "lng": 35.8708}, {"city": "Turka", "lat": 49.1544, "lng": 23.03}, {"city": "Vorozhba", "lat": 51.1749, "lng": 34.2299}, {"city": "Sosnytsia", "lat": 51.5222, "lng": 32.5017}, {"city": "Pryvillya", "lat": 48.9999, "lng": 38.2948}, {"city": "Kazanka", "lat": 47.8381, "lng": 32.8261}, {"city": "Tomakivka", "lat": 47.8163, "lng": 34.7471}, {"city": "Shevchenkove", "lat": 49.6939, "lng": 37.1794}, {"city": "Vilshany", "lat": 50.0533, "lng": 35.8847}, {"city": "Chynadiyovo", "lat": 48.4833, "lng": 22.8333}, {"city": "Dobroslav", "lat": 46.82, "lng": 30.945}, {"city": "Nova Maiachka", "lat": 46.6033, "lng": 33.2283}, {"city": "Bilmak", "lat": 47.3589, "lng": 36.65}, {"city": "Hornostaivka", "lat": 47.007, "lng": 33.728}, {"city": "Oleksandrivsk", "lat": 48.5833, "lng": 39.1833}, {"city": "Sofiivka", "lat": 48.0727, "lng": 33.8937}, {"city": "Irshansk", "lat": 50.7167, "lng": 28.7167}, {"city": "Perechyn", "lat": 48.7333, "lng": 22.4667}, {"city": "Lityn", "lat": 49.3255, "lng": 28.0872}, {"city": "Staryi Sambir", "lat": 49.4333, "lng": 23.0}, {"city": "Svesa", "lat": 51.9481, "lng": 33.9367}, {"city": "Voronovytsia", "lat": 49.0989, "lng": 28.6831}, {"city": "Yemilchyne", "lat": 50.8708, "lng": 27.8028}, {"city": "Nova Praha", "lat": 48.5572, "lng": 32.8903}, {"city": "Sudova Vyshnya", "lat": 49.7892, "lng": 23.3722}, {"city": "Ivanychi", "lat": 50.6419, "lng": 24.3606}, {"city": "Pryazovske", "lat": 46.7378, "lng": 35.6416}, {"city": "Tsuman", "lat": 50.8333, "lng": 25.8833}, {"city": "Slatyne", "lat": 50.2161, "lng": 36.1525}, {"city": "Bilokurakyne", "lat": 49.5167, "lng": 38.7167}, {"city": "Dobrotvir", "lat": 50.2056, "lng": 24.3864}, {"city": "Drabiv", "lat": 49.9603, "lng": 32.1481}, {"city": "Halych", "lat": 49.1128, "lng": 24.7217}, {"city": "Chervonohryhorivka", "lat": 47.6233, "lng": 34.5309}, {"city": "Stavyshche", "lat": 49.3914, "lng": 30.1917}, {"city": "Petropavlivs'ka Borshchahivka", "lat": 50.4378, "lng": 30.3439}, {"city": "Vinkivtsi", "lat": 49.0333, "lng": 27.2333}, {"city": "Turbiv", "lat": 49.3464, "lng": 28.72}, {"city": "Velyki Mosty", "lat": 50.24, "lng": 24.1394}, {"city": "Mahdalynivka", "lat": 48.9147, "lng": 34.9154}, {"city": "Teplyk", "lat": 48.6589, "lng": 29.7499}, {"city": "Arbuzynka", "lat": 47.9067, "lng": 31.3131}, {"city": "Blahovishchenske", "lat": 48.3197, "lng": 30.2353}, {"city": "Hvardiys'ke", "lat": 48.7328, "lng": 35.311}, {"city": "Balabyne", "lat": 47.735, "lng": 35.2142}, {"city": "Partenit", "lat": 44.5764, "lng": 34.3397}, {"city": "Kehychivka", "lat": 49.2858, "lng": 35.7622}, {"city": "Sutysky", "lat": 49.0422, "lng": 28.4208}, {"city": "Volodarka", "lat": 49.52, "lng": 29.9153}, {"city": "Morshyn", "lat": 49.155, "lng": 23.8725}, {"city": "Koreiz", "lat": 44.4331, "lng": 34.0872}, {"city": "Murovani Kurylivtsi", "lat": 48.7222, "lng": 27.515}, {"city": "Ozerne", "lat": 50.1794, "lng": 28.7361}, {"city": "Bryukhovychi", "lat": 49.9, "lng": 23.9436}, {"city": "Chornukhyne", "lat": 48.3264, "lng": 38.5156}, {"city": "Verkhovyna", "lat": 48.1517, "lng": 24.8136}, {"city": "Chernihivka", "lat": 47.1942, "lng": 36.2023}, {"city": "Veselynove", "lat": 47.3583, "lng": 31.2397}, {"city": "Hrebinky", "lat": 49.9564, "lng": 30.1714}, {"city": "Lyubeshiv", "lat": 51.7631, "lng": 25.4992}, {"city": "Dobrovelychkivka", "lat": 48.35, "lng": 31.1667}, {"city": "Popilnia", "lat": 49.9458, "lng": 29.4594}, {"city": "Turiys'k", "lat": 51.0833, "lng": 24.5333}, {"city": "Velyka Novosilka", "lat": 47.8333, "lng": 36.8333}, {"city": "Dniprovske", "lat": 48.5953, "lng": 34.4207}, {"city": "Oleksandriiske", "lat": 48.6019, "lng": 32.9889}, {"city": "Novhorodka", "lat": 48.3565, "lng": 32.6466}, {"city": "Dymer", "lat": 50.7872, "lng": 30.3117}, {"city": "Chudniv", "lat": 50.0528, "lng": 28.0969}, {"city": "Broshniv-Osada", "lat": 48.9994, "lng": 24.1814}, {"city": "Savyntsi", "lat": 49.4105, "lng": 37.0617}, {"city": "Tomashpil", "lat": 48.5471, "lng": 28.5157}, {"city": "Korop", "lat": 51.5661, "lng": 32.9508}, {"city": "Nova Borova", "lat": 50.6922, "lng": 28.6367}, {"city": "Hubynykha", "lat": 48.8084, "lng": 35.2535}, {"city": "Katerynopil", "lat": 48.935, "lng": 30.9111}, {"city": "Otyniia", "lat": 48.7339, "lng": 24.8569}, {"city": "Nedryhayliv", "lat": 50.8332, "lng": 33.8799}, {"city": "Stara Syniava", "lat": 49.6, "lng": 27.6167}, {"city": "Stepanivka", "lat": 50.943, "lng": 34.6334}, {"city": "Pulyny", "lat": 50.4664, "lng": 28.2778}, {"city": "Pechenizhyn", "lat": 48.51, "lng": 24.8892}, {"city": "Hoshcha", "lat": 50.5986, "lng": 26.6753}, {"city": "Pishchanka", "lat": 48.2058, "lng": 28.8889}, {"city": "Shatsk", "lat": 51.4878, "lng": 23.9297}, {"city": "Bratske", "lat": 47.8636, "lng": 31.5781}, {"city": "Opishnya", "lat": 49.9564, "lng": 34.612}, {"city": "Komyshuvakha", "lat": 47.7155, "lng": 35.5241}, {"city": "Pechenihy", "lat": 49.8647, "lng": 36.9364}, {"city": "Novohuivynske", "lat": 50.2022, "lng": 28.685}, {"city": "Horodnytsia", "lat": 50.8094, "lng": 27.3183}, {"city": "Kupiansk", "lat": 49.7064, "lng": 37.6167}, {"city": "Bratslav", "lat": 48.8147, "lng": 28.9447}, {"city": "Stara Vyzhivka", "lat": 51.4396, "lng": 24.4373}, {"city": "Novomykolayivka", "lat": 47.9779, "lng": 35.9099}, {"city": "Chemerivtsi", "lat": 49.0, "lng": 26.3667}, {"city": "Kalynivka", "lat": 50.2256, "lng": 30.2319}, {"city": "Volovets", "lat": 48.7242, "lng": 23.2}, {"city": "Kyrnasivka", "lat": 48.5914, "lng": 28.98}, {"city": "Klavdiyevo-Tarasove", "lat": 50.5825, "lng": 30.0053}, {"city": "Kolochava", "lat": 48.4266, "lng": 23.6984}, {"city": "Bohdanivka", "lat": 48.5015, "lng": 36.11}, {"city": "Z.hurivka", "lat": 50.4976, "lng": 31.7739}, {"city": "Chechelnyk", "lat": 48.2122, "lng": 29.3622}, {"city": "Syurte", "lat": 48.5033, "lng": 22.2319}, {"city": "Nerubaiske", "lat": 46.5467, "lng": 30.6306}, {"city": "Ivanivka", "lat": 48.2325, "lng": 38.9525}, {"city": "Velykyi Dalnyk", "lat": 46.4658, "lng": 30.5583}, {"city": "Dovhe", "lat": 48.3675, "lng": 23.2869}, {"city": "Velyki Komiaty", "lat": 48.2386, "lng": 22.9789}, {"city": "Rozsoshentsi", "lat": 49.5406, "lng": 34.5042}, {"city": "Lozuvatka", "lat": 48.061, "lng": 33.2927}, {"city": "Kubei", "lat": 45.7925, "lng": 28.7475}, {"city": "Bile", "lat": 48.4936, "lng": 39.0367}, {"city": "Fontanka", "lat": 46.5644, "lng": 30.8586}, {"city": "Kushnytsia", "lat": 48.4517, "lng": 23.2581}, {"city": "Ahrarne", "lat": 45.0186, "lng": 34.0544}, {"city": "Sokilnyky", "lat": 49.7769, "lng": 23.9614}, {"city": "Horonda", "lat": 48.3786, "lng": 22.5681}, {"city": "Zoria", "lat": 45.9917, "lng": 29.6989}, {"city": "Horenka", "lat": 50.5569, "lng": 30.3175}, {"city": "Rivne", "lat": 48.2403, "lng": 31.7492}, {"city": "Mykolayivka", "lat": 48.3823, "lng": 36.3086}, {"city": "Yalta", "lat": 46.9667, "lng": 37.2667}]