[{"city": "New York", "lat": 40.6943, "lng": -73.9249}, {"city": "Los Angeles", "lat": 34.1139, "lng": -118.4068}, {"city": "Chicago", "lat": 41.8373, "lng": -87.6862}, {"city": "Miami", "lat": 25.7839, "lng": -80.2102}, {"city": "Dallas", "lat": 32.7936, "lng": -96.7662}, {"city": "Philadelphia", "lat": 40.0077, "lng": -75.1339}, {"city": "Houston", "lat": 29.7863, "lng": -95.3889}, {"city": "Atlanta", "lat": 33.7627, "lng": -84.4224}, {"city": "Washington", "lat": 38.9047, "lng": -77.0163}, {"city": "Boston", "lat": 42.3188, "lng": -71.0846}, {"city": "Phoenix", "lat": 33.5722, "lng": -112.0891}, {"city": "Seattle", "lat": 47.6211, "lng": -122.3244}, {"city": "San Francisco", "lat": 37.7562, "lng": -122.443}, {"city": "Detroit", "lat": 42.3834, "lng": -83.1024}, {"city": "San Diego", "lat": 32.8312, "lng": -117.1225}, {"city": "Minneapolis", "lat": 44.9635, "lng": -93.2678}, {"city": "Tampa", "lat": 27.9942, "lng": -82.4451}, {"city": "Denver", "lat": 39.7621, "lng": -104.8759}, {"city": "Brooklyn", "lat": 40.6501, "lng": -73.9496}, {"city": "Queens", "lat": 40.7498, "lng": -73.7976}, {"city": "Riverside", "lat": 33.9381, "lng": -117.3948}, {"city": "Baltimore", "lat": 39.3051, "lng": -76.6144}, {"city": "Las Vegas", "lat": 36.2333, "lng": -115.2654}, {"city": "Portland", "lat": 45.5372, "lng": -122.65}, {"city": "San Antonio", "lat": 29.4658, "lng": -98.5253}, {"city": "St. Louis", "lat": 38.6358, "lng": -90.2451}, {"city": "Sacramento", "lat": 38.5667, "lng": -121.4683}, {"city": "Orlando", "lat": 28.4772, "lng": -81.3369}, {"city": "San Jose", "lat": 37.3019, "lng": -121.8486}, {"city": "Cleveland", "lat": 41.4767, "lng": -81.6804}, {"city": "Pittsburgh", "lat": 40.4396, "lng": -79.9762}, {"city": "Austin", "lat": 30.3004, "lng": -97.7522}, {"city": "Cincinnati", "lat": 39.1413, "lng": -84.5061}, {"city": "Kansas City", "lat": 39.1239, "lng": -94.5541}, {"city": "Manhattan", "lat": 40.7834, "lng": -73.9662}, {"city": "Indianapolis", "lat": 39.7771, "lng": -86.1458}, {"city": "Columbus", "lat": 39.9862, "lng": -82.985}, {"city": "Charlotte", "lat": 35.208, "lng": -80.8304}, {"city": "Virginia Beach", "lat": 36.7335, "lng": -76.0435}, {"city": "Bronx", "lat": 40.8501, "lng": -73.8662}, {"city": "Milwaukee", "lat": 43.0642, "lng": -87.9673}, {"city": "Providence", "lat": 41.823, "lng": -71.4187}, {"city": "Jacksonville", "lat": 30.3322, "lng": -81.6749}, {"city": "Salt Lake City", "lat": 40.7777, "lng": -111.9306}, {"city": "Nashville", "lat": 36.1715, "lng": -86.7843}, {"city": "Richmond", "lat": 37.5295, "lng": -77.4756}, {"city": "Memphis", "lat": 35.1046, "lng": -89.9773}, {"city": "Raleigh", "lat": 35.8325, "lng": -78.6435}, {"city": "New Orleans", "lat": 30.0687, "lng": -89.9288}, {"city": "Louisville", "lat": 38.1663, "lng": -85.6485}, {"city": "Oklahoma City", "lat": 35.4676, "lng": -97.5136}, {"city": "Bridgeport", "lat": 41.1918, "lng": -73.1953}, {"city": "Buffalo", "lat": 42.9016, "lng": -78.8487}, {"city": "Fort Worth", "lat": 32.7811, "lng": -97.3473}, {"city": "Hartford", "lat": 41.7661, "lng": -72.6834}, {"city": "Tucson", "lat": 32.1545, "lng": -110.8782}, {"city": "Omaha", "lat": 41.2627, "lng": -96.0522}, {"city": "El Paso", "lat": 31.8479, "lng": -106.4309}, {"city": "Honolulu", "lat": 21.3294, "lng": -157.846}, {"city": "McAllen", "lat": 26.2273, "lng": -98.2471}, {"city": "Hempstead", "lat": 40.6629, "lng": -73.6089}, {"city": "Albuquerque", "lat": 35.1053, "lng": -106.6464}, {"city": "Birmingham", "lat": 33.5277, "lng": -86.7987}, {"city": "Sarasota", "lat": 27.3386, "lng": -82.5431}, {"city": "Dayton", "lat": 39.7797, "lng": -84.1998}, {"city": "Rochester", "lat": 43.168, "lng": -77.6162}, {"city": "Fresno", "lat": 36.7831, "lng": -119.7941}, {"city": "Allentown", "lat": 40.5961, "lng": -75.4756}, {"city": "Tulsa", "lat": 36.1284, "lng": -95.9042}, {"city": "Cape Coral", "lat": 26.6446, "lng": -81.9956}, {"city": "Concord", "lat": 37.9722, "lng": -122.0016}, {"city": "Colorado Springs", "lat": 38.8674, "lng": -104.7606}, {"city": "Charleston", "lat": 32.8153, "lng": -79.9628}, {"city": "Springfield", "lat": 42.1155, "lng": -72.5395}, {"city": "Grand Rapids", "lat": 42.962, "lng": -85.6562}, {"city": "Mission Viejo", "lat": 33.6095, "lng": -117.655}, {"city": "Albany", "lat": 42.6664, "lng": -73.7987}, {"city": "Knoxville", "lat": 35.9692, "lng": -83.9496}, {"city": "Bakersfield", "lat": 35.3529, "lng": -119.0359}, {"city": "Ogden", "lat": 41.2278, "lng": -111.9682}, {"city": "Baton Rouge", "lat": 30.4418, "lng": -91.131}, {"city": "Akron", "lat": 41.0798, "lng": -81.5219}, {"city": "New Haven", "lat": 41.3112, "lng": -72.9246}, {"city": "Columbia", "lat": 34.0376, "lng": -80.9037}, {"city": "Mesa", "lat": 33.4017, "lng": -111.718}, {"city": "Palm Bay", "lat": 27.955, "lng": -80.6627}, {"city": "Provo", "lat": 40.2457, "lng": -111.6457}, {"city": "Worcester", "lat": 42.2705, "lng": -71.8079}, {"city": "Murrieta", "lat": 33.572, "lng": -117.1909}, {"city": "Greenville", "lat": 34.8353, "lng": -82.3647}, {"city": "Brookhaven", "lat": 40.8321, "lng": -72.9518}, {"city": "Wichita", "lat": 37.6896, "lng": -97.3442}, {"city": "Toledo", "lat": 41.6639, "lng": -83.5822}, {"city": "Staten Island", "lat": 40.5834, "lng": -74.1496}, {"city": "Des Moines", "lat": 41.5725, "lng": -93.6105}, {"city": "Long Beach", "lat": 33.7981, "lng": -118.1675}, {"city": "Port St. Lucie", "lat": 27.2796, "lng": -80.3883}, {"city": "Denton", "lat": 33.2176, "lng": -97.1419}, {"city": "Madison", "lat": 43.0826, "lng": -89.3931}, {"city": "Reno", "lat": 39.5497, "lng": -119.8483}, {"city": "Harrisburg", "lat": 40.2752, "lng": -76.8843}, {"city": "Little Rock", "lat": 34.7256, "lng": -92.3576}, {"city": "Oakland", "lat": 37.7903, "lng": -122.2165}, {"city": "Durham", "lat": 35.9794, "lng": -78.9031}, {"city": "Winston-Salem", "lat": 36.1029, "lng": -80.2611}, {"city": "Bonita Springs", "lat": 26.3559, "lng": -81.7861}, {"city": "Indio", "lat": 33.7346, "lng": -116.2346}, {"city": "Palm Coast", "lat": 29.5392, "lng": -81.246}, {"city": "Chattanooga", "lat": 35.0657, "lng": -85.2488}, {"city": "Spokane", "lat": 47.6671, "lng": -117.433}, {"city": "Syracuse", "lat": 43.0409, "lng": -76.1438}, {"city": "Lancaster", "lat": 40.0421, "lng": -76.3012}, {"city": "Arlington", "lat": 32.6998, "lng": -97.125}, {"city": "Stockton", "lat": 37.9765, "lng": -121.3109}, {"city": "Poughkeepsie", "lat": 41.6949, "lng": -73.921}, {"city": "Augusta", "lat": 33.3645, "lng": -82.0708}, {"city": "Boise", "lat": 43.6007, "lng": -116.2312}, {"city": "Oxnard", "lat": 34.1963, "lng": -119.1815}, {"city": "Scranton", "lat": 41.4044, "lng": -75.6649}, {"city": "Modesto", "lat": 37.6374, "lng": -121.0028}, {"city": "Kissimmee", "lat": 28.3042, "lng": -81.4164}, {"city": "Aurora", "lat": 39.7087, "lng": -104.7273}, {"city": "Youngstown", "lat": 41.0993, "lng": -80.6463}, {"city": "Fayetteville", "lat": 36.0713, "lng": -94.166}, {"city": "Anaheim", "lat": 33.839, "lng": -117.8572}, {"city": "Pensacola", "lat": 30.4427, "lng": -87.1886}, {"city": "Victorville", "lat": 34.5277, "lng": -117.3536}, {"city": "Lancaster", "lat": 34.6935, "lng": -118.1753}, {"city": "Greensboro", "lat": 36.0956, "lng": -79.8269}, {"city": "Corpus Christi", "lat": 27.726, "lng": -97.3755}, {"city": "Fort Wayne", "lat": 41.0886, "lng": -85.1437}, {"city": "Santa Ana", "lat": 33.7366, "lng": -117.8819}, {"city": "Flint", "lat": 43.0235, "lng": -83.6922}, {"city": "Islip", "lat": 40.7384, "lng": -73.1887}, {"city": "Fayetteville", "lat": 35.0846, "lng": -78.9776}, {"city": "Jackson", "lat": 32.3163, "lng": -90.2124}, {"city": "Santa Rosa", "lat": 38.4458, "lng": -122.7067}, {"city": "Lansing", "lat": 42.7142, "lng": -84.5601}, {"city": "Lexington", "lat": 38.0423, "lng": -84.4587}, {"city": "Ann Arbor", "lat": 42.2755, "lng": -83.7312}, {"city": "Henderson", "lat": 36.0133, "lng": -115.038}, {"city": "Huntsville", "lat": 34.6988, "lng": -86.6412}, {"city": "Mobile", "lat": 30.6783, "lng": -88.1162}, {"city": "Fort Collins", "lat": 40.5478, "lng": -105.0656}, {"city": "Asheville", "lat": 35.5704, "lng": -82.5536}, {"city": "Santa Clarita", "lat": 34.4175, "lng": -118.4964}, {"city": "St. Paul", "lat": 44.9477, "lng": -93.104}, {"city": "Antioch", "lat": 37.9789, "lng": -121.7958}, {"city": "Lakeland", "lat": 28.0556, "lng": -81.9545}, {"city": "Oyster Bay", "lat": 40.7845, "lng": -73.5139}, {"city": "Trenton", "lat": 40.2236, "lng": -74.7641}, {"city": "Lincoln", "lat": 40.809, "lng": -96.6788}, {"city": "Springfield", "lat": 37.1943, "lng": -93.2916}, {"city": "Anchorage", "lat": 61.1508, "lng": -149.1091}, {"city": "Plano", "lat": 33.0502, "lng": -96.7487}, {"city": "Irvine", "lat": 33.6772, "lng": -117.7738}, {"city": "Davenport", "lat": 41.5563, "lng": -90.6052}, {"city": "Rockford", "lat": 42.2597, "lng": -89.0641}, {"city": "Newark", "lat": 40.7245, "lng": -74.1725}, {"city": "South Bend", "lat": 41.6767, "lng": -86.2696}, {"city": "Shreveport", "lat": 32.4656, "lng": -93.7956}, {"city": "Round Lake Beach", "lat": 42.379, "lng": -88.0811}, {"city": "Savannah", "lat": 32.0281, "lng": -81.1784}, {"city": "Myrtle Beach", "lat": 33.7096, "lng": -78.8843}, {"city": "Chula Vista", "lat": 32.6281, "lng": -117.0145}, {"city": "Eugene", "lat": 44.0563, "lng": -123.1173}, {"city": "Canton", "lat": 40.8075, "lng": -81.3677}, {"city": "Lubbock", "lat": 33.5659, "lng": -101.8878}, {"city": "Reading", "lat": 40.34, "lng": -75.9267}, {"city": "Winter Haven", "lat": 28.0118, "lng": -81.7017}, {"city": "Salem", "lat": 44.9231, "lng": -123.0246}, {"city": "St. Petersburg", "lat": 27.7931, "lng": -82.6652}, {"city": "Lafayette", "lat": 30.2084, "lng": -92.0323}, {"city": "Laredo", "lat": 27.5629, "lng": -99.4875}, {"city": "Jersey City", "lat": 40.7161, "lng": -74.0682}, {"city": "Concord", "lat": 35.3933, "lng": -80.6366}, {"city": "Columbus", "lat": 32.51, "lng": -84.8771}, {"city": "Chandler", "lat": 33.2826, "lng": -111.8516}, {"city": "McKinney", "lat": 33.2015, "lng": -96.6669}, {"city": "Scottsdale", "lat": 33.6872, "lng": -111.8651}, {"city": "Killeen", "lat": 31.0754, "lng": -97.7296}, {"city": "Tallahassee", "lat": 30.4551, "lng": -84.2526}, {"city": "Peoria", "lat": 40.752, "lng": -89.6153}, {"city": "Wilmington", "lat": 34.21, "lng": -77.8866}, {"city": "Montgomery", "lat": 32.3473, "lng": -86.2666}, {"city": "Gilbert", "lat": 33.3101, "lng": -111.7463}, {"city": "Glendale", "lat": 33.5791, "lng": -112.2311}, {"city": "North Las Vegas", "lat": 36.288, "lng": -115.0901}, {"city": "Chesapeake", "lat": 36.6778, "lng": -76.3024}, {"city": "Barnstable", "lat": 41.6722, "lng": -70.3599}, {"city": "Norfolk", "lat": 36.8945, "lng": -76.259}, {"city": "Fremont", "lat": 37.5265, "lng": -121.9852}, {"city": "Kennewick", "lat": 46.1978, "lng": -119.1732}, {"city": "Garland", "lat": 32.91, "lng": -96.6305}, {"city": "Irving", "lat": 32.8584, "lng": -96.9702}, {"city": "Visalia", "lat": 36.3276, "lng": -119.3269}, {"city": "Atlantic City", "lat": 39.3797, "lng": -74.4527}, {"city": "Paradise", "lat": 36.0807, "lng": -115.1369}, {"city": "Nashua", "lat": 42.7491, "lng": -71.491}, {"city": "Arlington", "lat": 38.8786, "lng": -77.1011}, {"city": "Hialeah", "lat": 25.8696, "lng": -80.3046}, {"city": "York", "lat": 39.9651, "lng": -76.7315}, {"city": "North Hempstead", "lat": 40.7912, "lng": -73.6688}, {"city": "Evansville", "lat": 37.9881, "lng": -87.5341}, {"city": "Avondale", "lat": 33.3858, "lng": -112.3236}, {"city": "Brownsville", "lat": 25.998, "lng": -97.4565}, {"city": "Gulfport", "lat": 30.4271, "lng": -89.0703}, {"city": "Appleton", "lat": 44.2779, "lng": -88.3891}, {"city": "Bremerton", "lat": 47.5436, "lng": -122.7122}, {"city": "Hickory", "lat": 35.7425, "lng": -81.323}, {"city": "Tacoma", "lat": 47.2431, "lng": -122.4531}, {"city": "San Bernardino", "lat": 34.1417, "lng": -117.2946}, {"city": "College Station", "lat": 30.5852, "lng": -96.296}, {"city": "Kalamazoo", "lat": 42.2749, "lng": -85.5882}, {"city": "Thousand Oaks", "lat": 34.1914, "lng": -118.8755}, {"city": "Roanoke", "lat": 37.2785, "lng": -79.958}, {"city": "Fontana", "lat": 34.0968, "lng": -117.4599}, {"city": "Moreno Valley", "lat": 33.9244, "lng": -117.2045}, {"city": "Babylon", "lat": 40.6924, "lng": -73.3585}, {"city": "North Port", "lat": 27.0577, "lng": -82.1975}, {"city": "Fargo", "lat": 46.8652, "lng": -96.8292}, {"city": "Green Bay", "lat": 44.515, "lng": -87.9896}, {"city": "Spring Valley", "lat": 36.0987, "lng": -115.2619}, {"city": "Amarillo", "lat": 35.1988, "lng": -101.8311}, {"city": "Portland", "lat": 43.6773, "lng": -70.2715}, {"city": "Santa Barbara", "lat": 34.4285, "lng": -119.7202}, {"city": "Gainesville", "lat": 29.6804, "lng": -82.3458}, {"city": "Huntington", "lat": 40.8522, "lng": -73.3824}, {"city": "Olympia", "lat": 47.0417, "lng": -122.8959}, {"city": "Frisco", "lat": 33.1555, "lng": -96.8215}, {"city": "Yonkers", "lat": 40.9466, "lng": -73.8674}, {"city": "Norwich", "lat": 41.5495, "lng": -72.0882}, {"city": "Glendale", "lat": 34.1818, "lng": -118.2468}, {"city": "Huntington Beach", "lat": 33.696, "lng": -118.0025}, {"city": "Deltona", "lat": 28.905, "lng": -81.2137}, {"city": "Aurora", "lat": 41.7637, "lng": -88.2901}, {"city": "Tempe", "lat": 33.3881, "lng": -111.9318}, {"city": "Overland Park", "lat": 38.887, "lng": -94.687}, {"city": "Grand Prairie", "lat": 32.6872, "lng": -97.0209}, {"city": "Sunrise Manor", "lat": 36.1785, "lng": -115.049}, {"city": "Waco", "lat": 31.5598, "lng": -97.1881}, {"city": "Salinas", "lat": 36.6884, "lng": -121.6317}, {"city": "Waterbury", "lat": 41.5583, "lng": -73.0361}, {"city": "Clarksville", "lat": 36.5695, "lng": -87.342}, {"city": "Cedar Rapids", "lat": 41.9665, "lng": -91.6782}, {"city": "Sioux Falls", "lat": 43.5397, "lng": -96.732}, {"city": "Huntington", "lat": 38.4109, "lng": -82.4344}, {"city": "Ontario", "lat": 34.0393, "lng": -117.6064}, {"city": "Hagerstown", "lat": 39.6401, "lng": -77.7217}, {"city": "Erie", "lat": 42.1168, "lng": -80.0733}, {"city": "Vancouver", "lat": 45.6366, "lng": -122.5967}, {"city": "Nampa", "lat": 43.5845, "lng": -116.5631}, {"city": "Spartanburg", "lat": 34.9437, "lng": -81.9257}, {"city": "Gastonia", "lat": 35.2494, "lng": -81.1853}, {"city": "Fort Lauderdale", "lat": 26.1412, "lng": -80.1464}, {"city": "Lorain", "lat": 41.4409, "lng": -82.184}, {"city": "Murfreesboro", "lat": 35.8492, "lng": -86.4119}, {"city": "High Point", "lat": 35.9907, "lng": -79.9938}, {"city": "Newport News", "lat": 37.1051, "lng": -76.5185}, {"city": "Rancho Cucamonga", "lat": 34.1248, "lng": -117.5666}, {"city": "Hemet", "lat": 33.7341, "lng": -116.9969}, {"city": "Santa Cruz", "lat": 36.9789, "lng": -122.0346}, {"city": "Danbury", "lat": 41.4016, "lng": -73.471}, {"city": "Peoria", "lat": 33.7844, "lng": -112.2989}, {"city": "Oceanside", "lat": 33.2247, "lng": -117.3083}, {"city": "Elk Grove", "lat": 38.416, "lng": -121.3842}, {"city": "Pembroke Pines", "lat": 26.0128, "lng": -80.3382}, {"city": "Vallejo", "lat": 38.1133, "lng": -122.2358}, {"city": "Garden Grove", "lat": 33.7787, "lng": -117.9601}, {"city": "Enterprise", "lat": 36.0164, "lng": -115.2208}, {"city": "Medford", "lat": 42.3372, "lng": -122.8537}, {"city": "Cary", "lat": 35.782, "lng": -78.8191}, {"city": "Marysville", "lat": 48.0809, "lng": -122.1561}, {"city": "Corona", "lat": 33.8616, "lng": -117.5649}, {"city": "Ocala", "lat": 29.178, "lng": -82.1511}, {"city": "Fredericksburg", "lat": 38.2992, "lng": -77.4872}, {"city": "Gainesville", "lat": 34.2903, "lng": -83.8301}, {"city": "Manchester", "lat": 42.9848, "lng": -71.4447}, {"city": "Champaign", "lat": 40.1144, "lng": -88.2735}, {"city": "Alexandria", "lat": 38.8185, "lng": -77.0861}, {"city": "Hayward", "lat": 37.6328, "lng": -122.0772}, {"city": "Springfield", "lat": 39.771, "lng": -89.6538}, {"city": "Lakewood", "lat": 39.6977, "lng": -105.1168}, {"city": "Lafayette", "lat": 40.399, "lng": -86.8594}, {"city": "Frederick", "lat": 39.4336, "lng": -77.4141}, {"city": "Lake Charles", "lat": 30.2012, "lng": -93.2122}, {"city": "Odessa", "lat": 31.8831, "lng": -102.3406}, {"city": "Tuscaloosa", "lat": 33.2348, "lng": -87.5267}, {"city": "Warner Robins", "lat": 32.597, "lng": -83.6529}, {"city": "Palmdale", "lat": 34.5944, "lng": -118.1057}, {"city": "Hollywood", "lat": 26.0294, "lng": -80.1679}, {"city": "Midland", "lat": 32.0249, "lng": -102.1137}, {"city": "Leesburg", "lat": 28.7657, "lng": -81.8996}, {"city": "Port Arthur", "lat": 29.8554, "lng": -93.9264}, {"city": "Muskegon", "lat": 43.2281, "lng": -86.2563}, {"city": "Macon", "lat": 32.8065, "lng": -83.6974}, {"city": "Kansas City", "lat": 39.1234, "lng": -94.7443}, {"city": "Sunnyvale", "lat": 37.3836, "lng": -122.0256}, {"city": "Pomona", "lat": 34.0585, "lng": -117.7626}, {"city": "Escondido", "lat": 33.1347, "lng": -117.0722}, {"city": "Pasadena", "lat": 29.6583, "lng": -95.1499}, {"city": "New Bedford", "lat": 41.6697, "lng": -70.9428}, {"city": "Fairfield", "lat": 38.2592, "lng": -122.0324}, {"city": "Naperville", "lat": 41.7483, "lng": -88.1657}, {"city": "Bellevue", "lat": 47.5951, "lng": -122.1535}, {"city": "Binghamton", "lat": 42.1014, "lng": -75.9093}, {"city": "Elkhart", "lat": 41.6916, "lng": -85.9628}, {"city": "Topeka", "lat": 39.0346, "lng": -95.6955}, {"city": "Joliet", "lat": 41.5189, "lng": -88.1499}, {"city": "Beaumont", "lat": 30.0849, "lng": -94.1451}, {"city": "Paterson", "lat": 40.9147, "lng": -74.1624}, {"city": "Merced", "lat": 37.3057, "lng": -120.4778}, {"city": "Pueblo", "lat": 38.2705, "lng": -104.6112}, {"city": "Tyler", "lat": 32.3184, "lng": -95.3062}, {"city": "Torrance", "lat": 33.8346, "lng": -118.3417}, {"city": "Yuma", "lat": 32.5992, "lng": -114.5488}, {"city": "Metairie", "lat": 29.9977, "lng": -90.178}, {"city": "Surprise", "lat": 33.68, "lng": -112.4524}, {"city": "Columbia", "lat": 38.9478, "lng": -92.3256}, {"city": "Athens", "lat": 33.9508, "lng": -83.3689}, {"city": "Roseville", "lat": 38.7703, "lng": -121.3196}, {"city": "Thornton", "lat": 39.9197, "lng": -104.9438}, {"city": "Miramar", "lat": 25.9773, "lng": -80.3351}, {"city": "Pasadena", "lat": 34.1597, "lng": -118.139}, {"city": "Mesquite", "lat": 32.7623, "lng": -96.5889}, {"city": "Olathe", "lat": 38.8832, "lng": -94.8198}, {"city": "Santa Maria", "lat": 34.9334, "lng": -120.4432}, {"city": "Houma", "lat": 29.5799, "lng": -90.7058}, {"city": "Carrollton", "lat": 32.989, "lng": -96.8999}, {"city": "Grand Junction", "lat": 39.0876, "lng": -108.5673}, {"city": "Charleston", "lat": 38.3484, "lng": -81.6323}, {"city": "Orange", "lat": 33.8038, "lng": -117.8218}, {"city": "Fullerton", "lat": 33.8841, "lng": -117.9279}, {"city": "Greeley", "lat": 40.4151, "lng": -104.7706}, {"city": "Las Cruces", "lat": 32.3265, "lng": -106.7892}, {"city": "Panama City", "lat": 30.1995, "lng": -85.6004}, {"city": "Harlingen", "lat": 26.1917, "lng": -97.6976}, {"city": "Ramapo", "lat": 41.1404, "lng": -74.1072}, {"city": "West Valley City", "lat": 40.6889, "lng": -112.0115}, {"city": "Hampton", "lat": 37.0551, "lng": -76.363}, {"city": "Warren", "lat": 42.4934, "lng": -83.027}, {"city": "Mauldin", "lat": 34.7849, "lng": -82.3005}, {"city": "Bloomington", "lat": 40.4757, "lng": -88.9703}, {"city": "Coral Springs", "lat": 26.2702, "lng": -80.2591}, {"city": "Round Rock", "lat": 30.5254, "lng": -97.666}, {"city": "Yakima", "lat": 46.5923, "lng": -120.5496}, {"city": "Sterling Heights", "lat": 42.5809, "lng": -83.0305}, {"city": "Kent", "lat": 47.3887, "lng": -122.2129}, {"city": "Burlington", "lat": 36.0758, "lng": -79.4686}, {"city": "Bellingham", "lat": 48.7543, "lng": -122.4687}, {"city": "Santa Clara", "lat": 37.3645, "lng": -121.968}, {"city": "Racine", "lat": 42.7274, "lng": -87.8135}, {"city": "Greenville", "lat": 35.5956, "lng": -77.3768}, {"city": "Stamford", "lat": 41.1035, "lng": -73.5583}, {"city": "Elizabeth", "lat": 40.6657, "lng": -74.1912}, {"city": "Johnson City", "lat": 36.3406, "lng": -82.3803}, {"city": "Lynchburg", "lat": 37.4003, "lng": -79.1909}, {"city": "Simi Valley", "lat": 34.2663, "lng": -118.749}, {"city": "Amherst", "lat": 43.0117, "lng": -78.7569}, {"city": "Fort Smith", "lat": 35.3493, "lng": -94.3695}, {"city": "Kenosha", "lat": 42.5864, "lng": -87.8765}, {"city": "Norman", "lat": 35.2335, "lng": -97.3471}, {"city": "South Lyon", "lat": 42.4614, "lng": -83.6526}, {"city": "Boulder", "lat": 40.0249, "lng": -105.2523}, {"city": "Abilene", "lat": 32.4543, "lng": -99.7384}, {"city": "Lehigh Acres", "lat": 26.612, "lng": -81.6388}, {"city": "Pearland", "lat": 29.5585, "lng": -95.3215}, {"city": "Berkeley", "lat": 37.8723, "lng": -122.276}, {"city": "Richardson", "lat": 32.9717, "lng": -96.7093}, {"city": "Redding", "lat": 40.5698, "lng": -122.365}, {"city": "Arvada", "lat": 39.8321, "lng": -105.1511}, {"city": "East Los Angeles", "lat": 34.0326, "lng": -118.1691}, {"city": "St. George", "lat": 37.077, "lng": -113.577}, {"city": "Billings", "lat": 45.7891, "lng": -108.5524}, {"city": "Yuba City", "lat": 39.1357, "lng": -121.6381}, {"city": "Rochester", "lat": 44.0151, "lng": -92.4778}, {"city": "Leominster", "lat": 42.5209, "lng": -71.7717}, {"city": "Kingsport", "lat": 36.5224, "lng": -82.5453}, {"city": "Duluth", "lat": 46.7756, "lng": -92.1392}, {"city": "Rock Hill", "lat": 34.9416, "lng": -81.0244}, {"city": "Gilroy", "lat": 37.0047, "lng": -121.5855}, {"city": "Cambridge", "lat": 42.3759, "lng": -71.1185}, {"city": "Sugar Land", "lat": 29.5935, "lng": -95.6357}, {"city": "Texas City", "lat": 29.4128, "lng": -94.9658}, {"city": "Iowa City", "lat": 41.6559, "lng": -91.5303}, {"city": "Saginaw", "lat": 43.4199, "lng": -83.9501}, {"city": "Chico", "lat": 39.7575, "lng": -121.8152}, {"city": "Dover", "lat": 39.161, "lng": -75.5203}, {"city": "Clearwater", "lat": 27.9789, "lng": -82.7622}, {"city": "Coeur d'Alene", "lat": 47.7041, "lng": -116.7935}, {"city": "Seaside", "lat": 36.6224, "lng": -121.8191}, {"city": "Independence", "lat": 39.0871, "lng": -94.3501}, {"city": "Smithtown", "lat": 40.8662, "lng": -73.2164}, {"city": "West Jordan", "lat": 40.6024, "lng": -112.0008}, {"city": "Brandon", "lat": 27.9367, "lng": -82.3}, {"city": "Bloomington", "lat": 39.1637, "lng": -86.5257}, {"city": "El Monte", "lat": 34.0739, "lng": -118.0291}, {"city": "North Charleston", "lat": 32.9066, "lng": -80.0722}, {"city": "Carlsbad", "lat": 33.1247, "lng": -117.2837}, {"city": "St. Cloud", "lat": 45.5339, "lng": -94.1718}, {"city": "Temecula", "lat": 33.4928, "lng": -117.1315}, {"city": "Clovis", "lat": 36.8278, "lng": -119.6831}, {"city": "Meridian", "lat": 43.6112, "lng": -116.3968}, {"city": "The Woodlands", "lat": 30.1738, "lng": -95.5134}, {"city": "Westminster", "lat": 39.8837, "lng": -105.0624}, {"city": "Costa Mesa", "lat": 33.6667, "lng": -117.9135}, {"city": "Monroe", "lat": 32.5183, "lng": -92.0774}, {"city": "Utica", "lat": 43.0961, "lng": -75.226}, {"city": "Pompano Beach", "lat": 26.2428, "lng": -80.1312}, {"city": "West Palm Beach", "lat": 26.7468, "lng": -80.1316}, {"city": "Waterloo", "lat": 42.492, "lng": -92.3522}, {"city": "Everett", "lat": 47.9525, "lng": -122.1669}, {"city": "El Centro", "lat": 32.7867, "lng": -115.5586}, {"city": "Santa Fe", "lat": 35.6619, "lng": -105.9819}, {"city": "Downey", "lat": 33.9379, "lng": -118.1312}, {"city": "Spring Hill", "lat": 28.4797, "lng": -82.53}, {"city": "Lowell", "lat": 42.6389, "lng": -71.3217}, {"city": "Centennial", "lat": 39.5926, "lng": -104.8674}, {"city": "Elgin", "lat": 42.0385, "lng": -88.3229}, {"city": "Richmond", "lat": 37.9477, "lng": -122.339}, {"city": "Broken Arrow", "lat": 36.0365, "lng": -95.7809}, {"city": "Miami Gardens", "lat": 25.9433, "lng": -80.2426}, {"city": "Bend", "lat": 44.0562, "lng": -121.3087}, {"city": "Burlington", "lat": 44.4877, "lng": -73.2314}, {"city": "Jurupa Valley", "lat": 34.001, "lng": -117.4705}, {"city": "Sandy Springs", "lat": 33.9366, "lng": -84.3703}, {"city": "Gresham", "lat": 45.5023, "lng": -122.4413}, {"city": "Lewisville", "lat": 33.0452, "lng": -96.9823}, {"city": "Hillsboro", "lat": 45.5272, "lng": -122.9361}, {"city": "San Buenaventura", "lat": 34.2741, "lng": -119.2314}, {"city": "Jacksonville", "lat": 34.7288, "lng": -77.3941}, {"city": "Pottstown", "lat": 40.2507, "lng": -75.6444}, {"city": "Inglewood", "lat": 33.9566, "lng": -118.3444}, {"city": "League City", "lat": 29.4873, "lng": -95.1087}, {"city": "Eau Claire", "lat": 44.8199, "lng": -91.4949}, {"city": "Turlock", "lat": 37.5053, "lng": -120.8588}, {"city": "Temple", "lat": 31.1076, "lng": -97.3894}, {"city": "Sioux City", "lat": 42.4959, "lng": -96.3901}, {"city": "Salisbury", "lat": 38.3756, "lng": -75.5867}, {"city": "Davie", "lat": 26.0789, "lng": -80.287}, {"city": "Daly City", "lat": 37.6862, "lng": -122.4685}, {"city": "Highlands Ranch", "lat": 39.5419, "lng": -104.9708}, {"city": "Allen", "lat": 33.1088, "lng": -96.6735}, {"city": "West Covina", "lat": 34.0555, "lng": -117.9112}, {"city": "Sparks", "lat": 39.5729, "lng": -119.7157}, {"city": "Wichita Falls", "lat": 33.9072, "lng": -98.5291}, {"city": "San Mateo", "lat": 37.5521, "lng": -122.3122}, {"city": "Columbia", "lat": 39.2004, "lng": -76.859}, {"city": "Norwalk", "lat": 33.9069, "lng": -118.0829}, {"city": "Rialto", "lat": 34.1174, "lng": -117.3894}, {"city": "Manteca", "lat": 37.7927, "lng": -121.2264}, {"city": "Arden-Arcade", "lat": 38.6034, "lng": -121.381}, {"city": "El Cajon", "lat": 32.8017, "lng": -116.9605}, {"city": "Burbank", "lat": 34.1879, "lng": -118.3235}, {"city": "Longmont", "lat": 40.1686, "lng": -105.1005}, {"city": "Lakewood", "lat": 40.0763, "lng": -74.2031}, {"city": "Renton", "lat": 47.4784, "lng": -122.1919}, {"city": "Vista", "lat": 33.1896, "lng": -117.2386}, {"city": "Logan", "lat": 41.74, "lng": -111.8419}, {"city": "Prescott Valley", "lat": 34.5983, "lng": -112.3176}, {"city": "Vacaville", "lat": 38.359, "lng": -121.968}, {"city": "Edinburg", "lat": 26.3197, "lng": -98.1596}, {"city": "Carmel", "lat": 39.965, "lng": -86.146}, {"city": "Spokane Valley", "lat": 47.6626, "lng": -117.2346}, {"city": "San Angelo", "lat": 31.4424, "lng": -100.4506}, {"city": "La Crosse", "lat": 43.824, "lng": -91.2268}, {"city": "Edison", "lat": 40.536, "lng": -74.3697}, {"city": "Idaho Falls", "lat": 43.4872, "lng": -112.0362}, {"city": "Holland", "lat": 42.7677, "lng": -86.0985}, {"city": "Charlottesville", "lat": 38.0375, "lng": -78.4855}, {"city": "Longview", "lat": 32.5193, "lng": -94.7621}, {"city": "Woodbridge", "lat": 40.5611, "lng": -74.2943}, {"city": "Tracy", "lat": 37.7269, "lng": -121.4522}, {"city": "Bismarck", "lat": 46.8144, "lng": -100.7694}, {"city": "Orem", "lat": 40.2983, "lng": -111.6992}, {"city": "Compton", "lat": 33.893, "lng": -118.2275}, {"city": "Sunrise", "lat": 26.1547, "lng": -80.2997}, {"city": "Quincy", "lat": 42.2516, "lng": -71.0183}, {"city": "Lynn", "lat": 42.4779, "lng": -70.9663}, {"city": "South Gate", "lat": 33.9448, "lng": -118.1926}, {"city": "Kirkland", "lat": 47.6974, "lng": -122.2054}, {"city": "Westminster", "lat": 33.7523, "lng": -117.9938}, {"city": "Germantown", "lat": 39.1755, "lng": -77.2643}, {"city": "Santa Monica", "lat": 34.0232, "lng": -118.4813}, {"city": "Miami Beach", "lat": 25.8171, "lng": -80.1396}, {"city": "San Leandro", "lat": 37.7071, "lng": -122.1601}, {"city": "Citrus Heights", "lat": 38.6948, "lng": -121.288}, {"city": "State College", "lat": 40.7909, "lng": -77.8568}, {"city": "Hawthorne", "lat": 33.9146, "lng": -118.3476}, {"city": "Whittier", "lat": 33.9678, "lng": -118.0188}, {"city": "Clifton", "lat": 40.8631, "lng": -74.1575}, {"city": "Milpitas", "lat": 37.4339, "lng": -121.8921}, {"city": "Alhambra", "lat": 34.084, "lng": -118.1355}, {"city": "Upper Darby", "lat": 39.949, "lng": -75.2892}, {"city": "Mountain View", "lat": 37.4, "lng": -122.0796}, {"city": "Buena Park", "lat": 33.8572, "lng": -118.0046}, {"city": "Silver Spring", "lat": 39.0028, "lng": -77.0207}, {"city": "Somerville", "lat": 42.3908, "lng": -71.1013}, {"city": "Deerfield Beach", "lat": 26.305, "lng": -80.1277}, {"city": "Cicero", "lat": 41.8445, "lng": -87.7593}, {"city": "Lawrence", "lat": 42.7003, "lng": -71.1626}, {"city": "Cheyenne", "lat": 41.1351, "lng": -104.79}, {"city": "Tustin", "lat": 33.7309, "lng": -117.8106}, {"city": "Lakewood", "lat": 33.8471, "lng": -118.1221}, {"city": "Pine Hills", "lat": 28.5818, "lng": -81.4693}, {"city": "New Rochelle", "lat": 40.9305, "lng": -73.7836}, {"city": "Lebanon", "lat": 40.3412, "lng": -76.4227}, {"city": "Alameda", "lat": 37.767, "lng": -122.2672}, {"city": "Watsonville", "lat": 36.9206, "lng": -121.7706}, {"city": "Davis", "lat": 38.5552, "lng": -121.7365}, {"city": "Bellflower", "lat": 33.888, "lng": -118.1271}, {"city": "Baldwin Park", "lat": 34.0829, "lng": -117.9721}, {"city": "Centreville", "lat": 38.8391, "lng": -77.4388}, {"city": "Camden", "lat": 39.9362, "lng": -75.1073}, {"city": "Evanston", "lat": 42.0463, "lng": -87.6942}, {"city": "New Britain", "lat": 41.6758, "lng": -72.7862}, {"city": "Pawtucket", "lat": 41.8744, "lng": -71.3743}, {"city": "Lauderhill", "lat": 26.1605, "lng": -80.2242}, {"city": "Wilmington", "lat": 39.7415, "lng": -75.5413}, {"city": "Lynwood", "lat": 33.924, "lng": -118.2017}, {"city": "Passaic", "lat": 40.8574, "lng": -74.1282}, {"city": "Gaithersburg", "lat": 39.1346, "lng": -77.2132}, {"city": "Union City", "lat": 40.7674, "lng": -74.0323}, {"city": "South San Francisco", "lat": 37.6536, "lng": -122.4197}, {"city": "Mount Vernon", "lat": 40.9136, "lng": -73.8291}, {"city": "Redondo Beach", "lat": 33.8574, "lng": -118.3766}, {"city": "Tamarac", "lat": 26.2056, "lng": -80.2542}, {"city": "Florence-Graham", "lat": 33.9682, "lng": -118.2447}, {"city": "Schenectady", "lat": 42.8025, "lng": -73.9276}, {"city": "Bayonne", "lat": 40.6661, "lng": -74.1141}, {"city": "East Orange", "lat": 40.7651, "lng": -74.2117}, {"city": "Brentwood", "lat": 40.7839, "lng": -73.2522}, {"city": "North Miami", "lat": 25.9007, "lng": -80.1686}, {"city": "Skokie", "lat": 42.0359, "lng": -87.74}, {"city": "Pico Rivera", "lat": 33.9902, "lng": -118.0888}, {"city": "Montebello", "lat": 34.0155, "lng": -118.1108}, {"city": "North Bergen", "lat": 40.7938, "lng": -74.0242}, {"city": "The Hammocks", "lat": 25.67, "lng": -80.4483}, {"city": "National City", "lat": 32.6654, "lng": -117.0983}, {"city": "Coconut Creek", "lat": 26.2803, "lng": -80.1842}, {"city": "Fountainebleau", "lat": 25.7723, "lng": -80.3458}, {"city": "La Habra", "lat": 33.9278, "lng": -117.9513}, {"city": "Malden", "lat": 42.4305, "lng": -71.0576}, {"city": "South Whittier", "lat": 33.9336, "lng": -118.0311}, {"city": "West Allis", "lat": 43.0068, "lng": -88.0296}, {"city": "Taylorsville", "lat": 40.657, "lng": -111.9493}, {"city": "Monterey Park", "lat": 34.0497, "lng": -118.1326}, {"city": "Gardena", "lat": 33.8944, "lng": -118.3073}, {"city": "Cupertino", "lat": 37.3168, "lng": -122.0465}, {"city": "La Mesa", "lat": 32.7703, "lng": -117.0204}, {"city": "Brookline", "lat": 42.3243, "lng": -71.1408}, {"city": "Margate", "lat": 26.2466, "lng": -80.2119}, {"city": "Carson City", "lat": 39.1512, "lng": -119.7474}, {"city": "Middletown", "lat": 41.4459, "lng": -74.4236}, {"city": "Union", "lat": 40.6953, "lng": -74.2697}, {"city": "White Plains", "lat": 41.022, "lng": -73.7549}, {"city": "Jefferson City", "lat": 38.5676, "lng": -92.1759}, {"city": "Arcadia", "lat": 34.1342, "lng": -118.0373}, {"city": "Huntington Park", "lat": 33.98, "lng": -118.2167}, {"city": "Medford", "lat": 42.4234, "lng": -71.1087}, {"city": "Tamiami", "lat": 25.7556, "lng": -80.4016}, {"city": "Kendale Lakes", "lat": 25.7081, "lng": -80.4078}, {"city": "New Brunswick", "lat": 40.487, "lng": -74.445}, {"city": "Fountain Valley", "lat": 33.7105, "lng": -117.9514}, {"city": "Ithaca", "lat": 42.4442, "lng": -76.5032}, {"city": "Oak Lawn", "lat": 41.7139, "lng": -87.7528}, {"city": "Berwyn", "lat": 41.8433, "lng": -87.7909}, {"city": "Aloha", "lat": 45.492, "lng": -122.8726}, {"city": "Irvington", "lat": 40.7242, "lng": -74.2318}, {"city": "Rosemead", "lat": 34.0689, "lng": -118.0823}, {"city": "Paramount", "lat": 33.8976, "lng": -118.1652}, {"city": "Revere", "lat": 42.4192, "lng": -71.0036}, {"city": "Aspen Hill", "lat": 39.0928, "lng": -77.0823}, {"city": "Helena", "lat": 46.5965, "lng": -112.0202}, {"city": "West New York", "lat": 40.7856, "lng": -74.0093}, {"city": "Hoboken", "lat": 40.7453, "lng": -74.0279}, {"city": "Oak Park", "lat": 41.8872, "lng": -87.7899}, {"city": "Levittown", "lat": 40.7241, "lng": -73.5125}, {"city": "Perth Amboy", "lat": 40.5203, "lng": -74.2724}, {"city": "Placentia", "lat": 33.8807, "lng": -117.8553}, {"city": "Aliso Viejo", "lat": 33.5792, "lng": -117.7289}, {"city": "Country Club", "lat": 25.9407, "lng": -80.3102}, {"city": "Plainfield", "lat": 40.6154, "lng": -74.4157}, {"city": "Wheaton", "lat": 39.0492, "lng": -77.0572}, {"city": "North Bethesda", "lat": 39.0393, "lng": -77.1191}, {"city": "Cerritos", "lat": 33.8677, "lng": -118.0686}, {"city": "Lakewood", "lat": 41.4824, "lng": -81.8008}, {"city": "Bloomfield", "lat": 40.8098, "lng": -74.1868}, {"city": "Cypress", "lat": 33.8171, "lng": -118.0386}, {"city": "Hollister", "lat": 36.8563, "lng": -121.3981}, {"city": "Ceres", "lat": 37.5953, "lng": -120.9625}, {"city": "University", "lat": 28.0771, "lng": -82.4335}, {"city": "Antelope", "lat": 38.7153, "lng": -121.361}, {"city": "La Mirada", "lat": 33.9025, "lng": -118.0093}, {"city": "North Highlands", "lat": 38.6713, "lng": -121.3721}, {"city": "Florin", "lat": 38.4832, "lng": -121.4042}, {"city": "Covina", "lat": 34.0903, "lng": -117.8817}, {"city": "Rye", "lat": 41.0076, "lng": -73.6872}, {"city": "Everett", "lat": 42.4064, "lng": -71.0545}, {"city": "Arlington", "lat": 42.4187, "lng": -71.164}, {"city": "Oakland Park", "lat": 26.178, "lng": -80.1528}, {"city": "Altadena", "lat": 34.1928, "lng": -118.1345}, {"city": "North Lauderdale", "lat": 26.2113, "lng": -80.2209}, {"city": "Hackensack", "lat": 40.889, "lng": -74.0461}, {"city": "Cleveland Heights", "lat": 41.5112, "lng": -81.5636}, {"city": "Concord", "lat": 43.2305, "lng": -71.5595}, {"city": "Annandale", "lat": 38.8324, "lng": -77.196}, {"city": "Rohnert Park", "lat": 38.348, "lng": -122.6964}, {"city": "Salem", "lat": 42.5129, "lng": -70.902}, {"city": "North Miami Beach", "lat": 25.9302, "lng": -80.166}, {"city": "Whitney", "lat": 36.1005, "lng": -115.038}, {"city": "Freeport", "lat": 40.6515, "lng": -73.585}, {"city": "San Bruno", "lat": 37.6254, "lng": -122.4313}, {"city": "Hicksville", "lat": 40.7637, "lng": -73.5245}, {"city": "West Babylon", "lat": 40.7112, "lng": -73.3567}, {"city": "Bell Gardens", "lat": 33.9663, "lng": -118.155}, {"city": "Campbell", "lat": 37.2802, "lng": -121.9538}, {"city": "Woonsocket", "lat": 42.001, "lng": -71.4993}, {"city": "Greenacres", "lat": 26.6272, "lng": -80.1371}, {"city": "Wilkes-Barre", "lat": 41.2468, "lng": -75.8759}, {"city": "Teaneck", "lat": 40.89, "lng": -74.0107}, {"city": "Montclair", "lat": 34.0714, "lng": -117.698}, {"city": "San Gabriel", "lat": 34.0948, "lng": -118.099}, {"city": "Hallandale Beach", "lat": 25.9854, "lng": -80.1423}, {"city": "Keizer", "lat": 45.0029, "lng": -123.0241}, {"city": "Chelsea", "lat": 42.3959, "lng": -71.0325}, {"city": "La Puente", "lat": 34.0323, "lng": -117.9533}, {"city": "Waipahu", "lat": 21.3858, "lng": -158.0103}, {"city": "Annapolis", "lat": 38.9706, "lng": -76.5047}, {"city": "Culver City", "lat": 34.0058, "lng": -118.3968}, {"city": "Frankfort", "lat": 38.1924, "lng": -84.8643}, {"city": "Northglenn", "lat": 39.9108, "lng": -104.9783}, {"city": "Fort Lee", "lat": 40.8509, "lng": -73.9712}, {"city": "Lake Worth", "lat": 26.6196, "lng": -80.0591}, {"city": "Kendall West", "lat": 25.7065, "lng": -80.4388}, {"city": "Montclair", "lat": 40.8254, "lng": -74.211}, {"city": "La Presa", "lat": 32.711, "lng": -117.0027}, {"city": "Stanton", "lat": 33.8002, "lng": -117.9935}, {"city": "East Meadow", "lat": 40.7197, "lng": -73.5604}, {"city": "Mission Bend", "lat": 29.6948, "lng": -95.6657}, {"city": "Egypt Lake-Leto", "lat": 28.0177, "lng": -82.5062}, {"city": "Richmond West", "lat": 25.6105, "lng": -80.4297}, {"city": "Valley Stream", "lat": 40.6647, "lng": -73.7044}, {"city": "Hanover Park", "lat": 41.9819, "lng": -88.1447}, {"city": "South Miami Heights", "lat": 25.5886, "lng": -80.3862}, {"city": "Aventura", "lat": 25.9565, "lng": -80.1372}, {"city": "Park Ridge", "lat": 42.0125, "lng": -87.8436}, {"city": "West Hollywood", "lat": 34.0882, "lng": -118.3718}, {"city": "Richfield", "lat": 44.8762, "lng": -93.2833}, {"city": "Kearns", "lat": 40.652, "lng": -112.0093}, {"city": "Lincoln Park", "lat": 42.2432, "lng": -83.1811}, {"city": "Lauderdale Lakes", "lat": 26.1682, "lng": -80.2017}, {"city": "Belleville", "lat": 40.795, "lng": -74.1616}, {"city": "Watertown Town", "lat": 42.37, "lng": -71.1774}, {"city": "Foothill Farms", "lat": 38.6867, "lng": -121.3475}, {"city": "Elmont", "lat": 40.7033, "lng": -73.7078}, {"city": "Temple City", "lat": 34.1021, "lng": -118.0579}, {"city": "Chillum", "lat": 38.9667, "lng": -76.979}, {"city": "Bell", "lat": 33.9801, "lng": -118.1798}, {"city": "Westmont", "lat": 33.9417, "lng": -118.3018}, {"city": "Manhattan Beach", "lat": 33.8895, "lng": -118.3972}, {"city": "Englewood", "lat": 39.6468, "lng": -104.9942}, {"city": "Buenaventura Lakes", "lat": 28.3349, "lng": -81.3539}, {"city": "Oildale", "lat": 35.4249, "lng": -119.0279}, {"city": "Norristown", "lat": 40.1224, "lng": -75.3398}, {"city": "Montgomery Village", "lat": 39.1783, "lng": -77.1957}, {"city": "University City", "lat": 38.6657, "lng": -90.3315}, {"city": "Midvale", "lat": 40.6148, "lng": -111.8928}, {"city": "Golden Glades", "lat": 25.9129, "lng": -80.2013}, {"city": "Chester", "lat": 39.8456, "lng": -75.3718}, {"city": "Foster City", "lat": 37.5553, "lng": -122.2659}, {"city": "Beverly Hills", "lat": 34.0786, "lng": -118.4021}, {"city": "Glendale Heights", "lat": 41.9196, "lng": -88.0785}, {"city": "Fair Oaks", "lat": 38.8653, "lng": -77.3586}, {"city": "Long Beach", "lat": 40.5887, "lng": -73.666}, {"city": "Eastchester", "lat": 40.9536, "lng": -73.8134}, {"city": "West Little River", "lat": 25.857, "lng": -80.2367}, {"city": "Fair Lawn", "lat": 40.9359, "lng": -74.1177}, {"city": "Huntington Station", "lat": 40.8446, "lng": -73.405}, {"city": "North Providence", "lat": 41.8616, "lng": -71.4575}, {"city": "Lawndale", "lat": 33.8884, "lng": -118.3531}, {"city": "Mount Lebanon", "lat": 40.3752, "lng": -80.0493}, {"city": "Spring Valley", "lat": 41.1151, "lng": -74.0486}, {"city": "College Park", "lat": 38.996, "lng": -76.9337}, {"city": "Eastpointe", "lat": 42.4657, "lng": -82.9461}, {"city": "Franklin Square", "lat": 40.7002, "lng": -73.6775}, {"city": "Uniondale", "lat": 40.7176, "lng": -73.5947}, {"city": "Juneau", "lat": 58.4546, "lng": -134.1739}, {"city": "Garfield", "lat": 40.8791, "lng": -74.1085}, {"city": "Parkville", "lat": 39.3832, "lng": -76.5519}, {"city": "Miami Lakes", "lat": 25.9125, "lng": -80.3214}, {"city": "Ridley", "lat": 39.8854, "lng": -75.328}, {"city": "San Pablo", "lat": 37.9628, "lng": -122.3425}, {"city": "Burlingame", "lat": 37.586, "lng": -122.3669}, {"city": "Oceanside", "lat": 40.6328, "lng": -73.6364}, {"city": "City of Orange", "lat": 40.7682, "lng": -74.2348}, {"city": "Sterling", "lat": 39.0052, "lng": -77.405}, {"city": "Long Branch", "lat": 40.2965, "lng": -73.9915}, {"city": "Santa Paula", "lat": 34.3521, "lng": -119.0698}, {"city": "San Carlos", "lat": 37.4982, "lng": -122.268}, {"city": "Rahway", "lat": 40.6077, "lng": -74.2807}, {"city": "Bay Shore", "lat": 40.7317, "lng": -73.2505}, {"city": "Westchester", "lat": 25.7474, "lng": -80.3358}, {"city": "Suisun City", "lat": 38.2473, "lng": -122.009}, {"city": "West Falls Church", "lat": 38.8648, "lng": -77.1878}, {"city": "Golden Gate", "lat": 26.1844, "lng": -81.7031}, {"city": "Oak Park", "lat": 42.4649, "lng": -83.1824}, {"city": "East Palo Alto", "lat": 37.4671, "lng": -122.1352}, {"city": "Port Chester", "lat": 41.0052, "lng": -73.668}, {"city": "Nutley", "lat": 40.8192, "lng": -74.1571}, {"city": "Shamokin", "lat": 40.7883, "lng": -76.555}, {"city": "Englewood", "lat": 40.8917, "lng": -73.9736}, {"city": "Burbank", "lat": 41.7444, "lng": -87.7686}, {"city": "Winchester", "lat": 36.1368, "lng": -115.1299}, {"city": "Melrose", "lat": 42.4556, "lng": -71.059}, {"city": "Drexel Hill", "lat": 39.9495, "lng": -75.3039}, {"city": "Isla Vista", "lat": 34.4144, "lng": -119.8581}, {"city": "Mililani Town", "lat": 21.4465, "lng": -158.0147}, {"city": "Imperial Beach", "lat": 32.5689, "lng": -117.1184}, {"city": "Bergenfield", "lat": 40.9236, "lng": -73.9983}, {"city": "Ladera Ranch", "lat": 33.5491, "lng": -117.6416}, {"city": "Easton", "lat": 40.6858, "lng": -75.2209}, {"city": "Indiana", "lat": 40.622, "lng": -79.1552}, {"city": "Reisterstown", "lat": 39.4552, "lng": -76.8144}, {"city": "Maywood", "lat": 33.9885, "lng": -118.1877}, {"city": "Belmont", "lat": 37.5154, "lng": -122.2955}, {"city": "Kiryas Joel", "lat": 41.3406, "lng": -74.166}, {"city": "Lemon Grove", "lat": 32.7331, "lng": -117.0344}, {"city": "Lindenhurst", "lat": 40.6858, "lng": -73.371}, {"city": "West Whittier-Los Nietos", "lat": 33.9759, "lng": -118.0689}, {"city": "Leisure City", "lat": 25.4937, "lng": -80.4369}, {"city": "University Park", "lat": 25.7469, "lng": -80.3684}, {"city": "Soledad", "lat": 36.4432, "lng": -121.3426}, {"city": "Cliffside Park", "lat": 40.8221, "lng": -73.988}, {"city": "Belmont", "lat": 42.396, "lng": -71.1795}, {"city": "Cloverleaf", "lat": 29.7882, "lng": -95.1724}, {"city": "Decatur", "lat": 33.7711, "lng": -84.2968}, {"city": "Ewa Gentry", "lat": 21.3344, "lng": -158.0262}, {"city": "Laurel", "lat": 39.095, "lng": -76.8622}, {"city": "San Lorenzo", "lat": 37.6737, "lng": -122.1349}, {"city": "El Cerrito", "lat": 37.9197, "lng": -122.3025}, {"city": "Coral Terrace", "lat": 25.7464, "lng": -80.3049}, {"city": "South Pasadena", "lat": 34.1103, "lng": -118.1573}, {"city": "South Bradenton", "lat": 27.4612, "lng": -82.5821}, {"city": "Palm Springs", "lat": 26.6349, "lng": -80.0968}, {"city": "University Park", "lat": 32.8506, "lng": -96.7937}, {"city": "Terrytown", "lat": 29.9014, "lng": -90.0279}, {"city": "Riverbank", "lat": 37.7268, "lng": -120.9402}, {"city": "Maplewood", "lat": 40.733, "lng": -74.2711}, {"city": "Baldwin", "lat": 40.6634, "lng": -73.6104}, {"city": "Melrose Park", "lat": 41.9029, "lng": -87.8642}, {"city": "Palm Tree", "lat": 41.3411, "lng": -74.1667}, {"city": "Herndon", "lat": 38.9699, "lng": -77.3867}, {"city": "Rockville Centre", "lat": 40.6644, "lng": -73.6383}, {"city": "Suitland", "lat": 38.8492, "lng": -76.9225}, {"city": "Watauga", "lat": 32.8718, "lng": -97.2515}, {"city": "Ashland", "lat": 37.6942, "lng": -122.1159}, {"city": "Woodlawn", "lat": 38.7332, "lng": -77.1149}, {"city": "Lodi", "lat": 40.8784, "lng": -74.0814}, {"city": "San Fernando", "lat": 34.2886, "lng": -118.4363}, {"city": "Peekskill", "lat": 41.2883, "lng": -73.9227}, {"city": "Mill Creek East", "lat": 47.836, "lng": -122.1877}, {"city": "Tysons", "lat": 38.9215, "lng": -77.2273}, {"city": "Bailey's Crossroads", "lat": 38.8477, "lng": -77.1305}, {"city": "Elmwood Park", "lat": 41.9225, "lng": -87.8163}, {"city": "Oak Ridge", "lat": 28.4727, "lng": -81.4169}, {"city": "Valinda", "lat": 34.0401, "lng": -117.93}, {"city": "North Lynnwood", "lat": 47.8533, "lng": -122.2762}, {"city": "Rosemont", "lat": 38.5477, "lng": -121.3553}, {"city": "Cudahy", "lat": 33.9631, "lng": -118.183}, {"city": "Copiague", "lat": 40.6728, "lng": -73.3932}, {"city": "Winter Gardens", "lat": 32.8376, "lng": -116.9268}, {"city": "Hialeah Gardens", "lat": 25.8878, "lng": -80.3569}, {"city": "Carteret", "lat": 40.5848, "lng": -74.2284}, {"city": "West Puente Valley", "lat": 34.0512, "lng": -117.9681}, {"city": "Maywood", "lat": 41.8798, "lng": -87.8442}, {"city": "Monsey", "lat": 41.1181, "lng": -74.0681}, {"city": "West Rancho Dominguez", "lat": 33.9057, "lng": -118.2682}, {"city": "Blue Island", "lat": 41.6578, "lng": -87.6812}, {"city": "Willowbrook", "lat": 33.9199, "lng": -118.2362}, {"city": "Ives Estates", "lat": 25.9632, "lng": -80.183}, {"city": "Landover", "lat": 38.9241, "lng": -76.8875}, {"city": "The Crossings", "lat": 25.6708, "lng": -80.4018}, {"city": "Millbrae", "lat": 37.5994, "lng": -122.4023}, {"city": "West Carson", "lat": 33.8229, "lng": -118.2931}, {"city": "Lealman", "lat": 27.8197, "lng": -82.6847}, {"city": "Hayesville", "lat": 44.9794, "lng": -122.9739}, {"city": "Hillside", "lat": 40.6961, "lng": -74.2286}, {"city": "Jasmine Estates", "lat": 28.293, "lng": -82.6907}, {"city": "Lennox", "lat": 33.938, "lng": -118.3586}, {"city": "Roselle", "lat": 40.6527, "lng": -74.2599}, {"city": "Sunny Isles Beach", "lat": 25.9385, "lng": -80.1246}, {"city": "Massapequa", "lat": 40.6676, "lng": -73.4706}, {"city": "North Bay Shore", "lat": 40.7601, "lng": -73.2618}, {"city": "Kapolei", "lat": 21.3403, "lng": -158.0665}, {"city": "Dover", "lat": 40.002, "lng": -76.8699}, {"city": "Hamtramck", "lat": 42.3954, "lng": -83.056}, {"city": "McNair", "lat": 38.9513, "lng": -77.4116}, {"city": "Mountlake Terrace", "lat": 47.7921, "lng": -122.3076}, {"city": "North Plainfield", "lat": 40.6209, "lng": -74.4386}, {"city": "Sweetwater", "lat": 25.7786, "lng": -80.376}, {"city": "North Bellmore", "lat": 40.6904, "lng": -73.539}, {"city": "Palisades Park", "lat": 40.8472, "lng": -73.9967}, {"city": "South El Monte", "lat": 34.0493, "lng": -118.0484}, {"city": "Columbia Heights", "lat": 45.0484, "lng": -93.2472}, {"city": "Lomita", "lat": 33.7933, "lng": -118.3175}, {"city": "Bayshore Gardens", "lat": 27.4345, "lng": -82.5794}, {"city": "Harrison", "lat": 40.7431, "lng": -74.1531}, {"city": "West Chester", "lat": 39.9601, "lng": -75.6058}, {"city": "South San Jose Hills", "lat": 34.0123, "lng": -117.9041}, {"city": "Elmwood Park", "lat": 40.905, "lng": -74.1201}, {"city": "West Hempstead", "lat": 40.6959, "lng": -73.6507}, {"city": "Norwood", "lat": 39.1605, "lng": -84.4535}, {"city": "Franconia", "lat": 38.7682, "lng": -77.1587}, {"city": "Albany", "lat": 37.8898, "lng": -122.3018}, {"city": "La Crescenta-Montrose", "lat": 34.2322, "lng": -118.2353}, {"city": "Central Falls", "lat": 41.89, "lng": -71.3934}, {"city": "Langley Park", "lat": 38.9897, "lng": -76.9808}, {"city": "Schofield Barracks", "lat": 21.4936, "lng": -158.0617}, {"city": "Lynbrook", "lat": 40.6579, "lng": -73.6742}, {"city": "Hermosa Beach", "lat": 33.8654, "lng": -118.3966}, {"city": "Morristown", "lat": 40.7966, "lng": -74.4772}, {"city": "Sherrelwood", "lat": 39.839, "lng": -105.0014}, {"city": "Mineola", "lat": 40.7469, "lng": -73.6392}, {"city": "Evergreen Park", "lat": 41.7213, "lng": -87.7013}, {"city": "Bellaire", "lat": 29.704, "lng": -95.4622}, {"city": "Point Pleasant", "lat": 40.0772, "lng": -74.0702}, {"city": "Hawthorne", "lat": 40.9579, "lng": -74.1581}, {"city": "Bellwood", "lat": 41.8829, "lng": -87.8762}, {"city": "North Valley Stream", "lat": 40.684, "lng": -73.7077}, {"city": "Seabrook", "lat": 38.9802, "lng": -76.8502}, {"city": "Avenel", "lat": 40.5839, "lng": -74.272}, {"city": "Sudley", "lat": 38.7878, "lng": -77.4961}, {"city": "Winthrop", "lat": 42.3751, "lng": -70.9847}, {"city": "North Massapequa", "lat": 40.7031, "lng": -73.4678}, {"city": "Bryn Mawr-Skyway", "lat": 47.4949, "lng": -122.2411}, {"city": "North Amityville", "lat": 40.7005, "lng": -73.4118}, {"city": "Brookfield", "lat": 41.8245, "lng": -87.847}, {"city": "Rutherford", "lat": 40.8203, "lng": -74.1057}, {"city": "Merrifield", "lat": 38.8731, "lng": -77.2426}, {"city": "Idylwood", "lat": 38.8896, "lng": -77.2055}, {"city": "Hyattsville", "lat": 38.9612, "lng": -76.9548}, {"city": "Iselin", "lat": 40.5702, "lng": -74.317}, {"city": "Mountain House", "lat": 37.774, "lng": -121.5452}, {"city": "Burke Centre", "lat": 38.7903, "lng": -77.2999}, {"city": "Takoma Park", "lat": 38.981, "lng": -77.0028}, {"city": "Dover", "lat": 40.8859, "lng": -74.5597}, {"city": "Cedar Mill", "lat": 45.5355, "lng": -122.8006}, {"city": "Greenfield", "lat": 36.3232, "lng": -121.2451}, {"city": "Pinewood", "lat": 25.8697, "lng": -80.2174}, {"city": "Kingstowne", "lat": 38.7625, "lng": -77.1445}, {"city": "Dumont", "lat": 40.9452, "lng": -73.9923}, {"city": "Country Walk", "lat": 25.6331, "lng": -80.4353}, {"city": "Manassas Park", "lat": 38.7719, "lng": -77.445}, {"city": "Woodmere", "lat": 40.6374, "lng": -73.7219}, {"city": "South Houston", "lat": 29.6611, "lng": -95.2285}, {"city": "Massapequa Park", "lat": 40.6817, "lng": -73.4496}, {"city": "Wahiawa", "lat": 21.5005, "lng": -158.0198}, {"city": "Lansdale", "lat": 40.2417, "lng": -75.2812}, {"city": "Hybla Valley", "lat": 38.7485, "lng": -77.0822}, {"city": "Brownsville", "lat": 25.8216, "lng": -80.2417}, {"city": "East Cleveland", "lat": 41.5318, "lng": -81.5795}, {"city": "Glassmanor", "lat": 38.8181, "lng": -76.9836}, {"city": "Roosevelt", "lat": 40.6797, "lng": -73.5837}, {"city": "Live Oak", "lat": 36.986, "lng": -121.9804}, {"city": "Clayton", "lat": 38.6444, "lng": -90.3302}, {"city": "Glenmont", "lat": 39.0698, "lng": -77.0467}, {"city": "Bull Run", "lat": 38.7802, "lng": -77.5204}, {"city": "Bostonia", "lat": 32.8189, "lng": -116.9479}, {"city": "Artesia", "lat": 33.8676, "lng": -118.0806}, {"city": "South Orange Village", "lat": 40.7491, "lng": -74.2602}, {"city": "New Milford", "lat": 40.9337, "lng": -74.0196}, {"city": "Ojus", "lat": 25.9563, "lng": -80.1606}, {"city": "East Riverdale", "lat": 38.96, "lng": -76.9108}, {"city": "Four Corners", "lat": 44.9291, "lng": -122.9731}, {"city": "Hillcrest Heights", "lat": 38.8373, "lng": -76.9641}, {"city": "Adelphi", "lat": 39.0017, "lng": -76.9649}, {"city": "Hazel Park", "lat": 42.4619, "lng": -83.0977}, {"city": "Stanford", "lat": 37.4252, "lng": -122.1674}, {"city": "East San Gabriel", "lat": 34.1198, "lng": -118.0807}, {"city": "Vincent", "lat": 34.0982, "lng": -117.9238}, {"city": "Cherryland", "lat": 37.6792, "lng": -122.1038}, {"city": "Walnut Park", "lat": 33.9683, "lng": -118.222}, {"city": "Floral Park", "lat": 40.7226, "lng": -73.7029}, {"city": "White Center", "lat": 47.5086, "lng": -122.348}, {"city": "Parkway", "lat": 38.4993, "lng": -121.452}, {"city": "East Rancho Dominguez", "lat": 33.895, "lng": -118.1956}, {"city": "South River", "lat": 40.4455, "lng": -74.3784}, {"city": "Eggertsville", "lat": 42.9665, "lng": -78.8065}, {"city": "North Arlington", "lat": 40.7875, "lng": -74.1273}, {"city": "McFarland", "lat": 35.6781, "lng": -119.2414}, {"city": "Palmetto Estates", "lat": 25.6211, "lng": -80.3616}, {"city": "Parlier", "lat": 36.6087, "lng": -119.5434}, {"city": "West University Place", "lat": 29.7157, "lng": -95.4321}, {"city": "La Palma", "lat": 33.8504, "lng": -118.0406}, {"city": "Avocado Heights", "lat": 34.0381, "lng": -118.0026}, {"city": "Pacific Grove", "lat": 36.6192, "lng": -121.9255}, {"city": "Asbury Park", "lat": 40.2226, "lng": -74.0119}, {"city": "Bellmore", "lat": 40.6569, "lng": -73.5285}, {"city": "Berkley", "lat": 42.4986, "lng": -83.1853}, {"city": "Westbury", "lat": 40.7599, "lng": -73.5891}, {"city": "La Grange", "lat": 41.8072, "lng": -87.8741}, {"city": "Wilkinsburg", "lat": 40.4442, "lng": -79.8733}, {"city": "Fords", "lat": 40.5415, "lng": -74.3124}, {"city": "South Farmingdale", "lat": 40.7175, "lng": -73.4471}, {"city": "West Park", "lat": 25.984, "lng": -80.1923}, {"city": "North New Hyde Park", "lat": 40.746, "lng": -73.6876}, {"city": "Seaford", "lat": 40.6678, "lng": -73.4922}, {"city": "Kenmore", "lat": 42.9646, "lng": -78.8713}, {"city": "Ocean Pointe", "lat": 21.3145, "lng": -158.0289}, {"city": "Newport", "lat": 39.0855, "lng": -84.4868}, {"city": "New Cassel", "lat": 40.76, "lng": -73.5649}, {"city": "Lemon Hill", "lat": 38.5172, "lng": -121.4573}, {"city": "Kemp Mill", "lat": 39.0412, "lng": -77.0215}, {"city": "Pierre", "lat": 44.3748, "lng": -100.3205}, {"city": "Falls Church", "lat": 38.8847, "lng": -77.1751}, {"city": "Weehawken", "lat": 40.7676, "lng": -74.0167}, {"city": "Haddon", "lat": 39.9063, "lng": -75.0625}, {"city": "Ewa Beach", "lat": 21.3181, "lng": -158.0073}, {"city": "Halawa", "lat": 21.3753, "lng": -157.9185}, {"city": "North Fair Oaks", "lat": 37.4754, "lng": -122.2035}, {"city": "Stone Ridge", "lat": 38.9295, "lng": -77.5553}, {"city": "Fairview", "lat": 40.8182, "lng": -74.0022}, {"city": "Hawaiian Gardens", "lat": 33.8303, "lng": -118.0728}, {"city": "Norridge", "lat": 41.9637, "lng": -87.8231}, {"city": "Willowick", "lat": 41.6343, "lng": -81.468}, {"city": "Waimalu", "lat": 21.3913, "lng": -157.9345}, {"city": "Franklin Park", "lat": 40.4439, "lng": -74.5432}, {"city": "Olympia Heights", "lat": 25.7241, "lng": -80.339}, {"city": "Chicago Ridge", "lat": 41.7034, "lng": -87.7795}, {"city": "Collingswood", "lat": 39.916, "lng": -75.0759}, {"city": "Whitefish Bay", "lat": 43.1132, "lng": -87.9004}, {"city": "Bexley", "lat": 39.965, "lng": -82.9343}, {"city": "Harper Woods", "lat": 42.439, "lng": -82.9292}, {"city": "Princeton Meadows", "lat": 40.3332, "lng": -74.5628}, {"city": "Highland Park", "lat": 40.5006, "lng": -74.4283}, {"city": "Forest Park", "lat": 41.8683, "lng": -87.8157}, {"city": "Roselle Park", "lat": 40.6653, "lng": -74.2666}, {"city": "Grover Beach", "lat": 35.1204, "lng": -120.6199}, {"city": "Edgewater", "lat": 40.8237, "lng": -73.974}, {"city": "Huntington", "lat": 38.7916, "lng": -77.074}, {"city": "La Grange Park", "lat": 41.8308, "lng": -87.8723}, {"city": "Shorewood", "lat": 43.0914, "lng": -87.8864}, {"city": "Coatesville", "lat": 39.9849, "lng": -75.8199}, {"city": "Sugarland Run", "lat": 39.0309, "lng": -77.3762}, {"city": "New Carrollton", "lat": 38.9654, "lng": -76.8773}, {"city": "Ridgefield Park", "lat": 40.8543, "lng": -74.0201}, {"city": "Key Biscayne", "lat": 25.6908, "lng": -80.1653}, {"city": "Federal Heights", "lat": 39.8651, "lng": -105.0154}, {"city": "Cornelius", "lat": 45.519, "lng": -123.0514}, {"city": "Kingston", "lat": 41.2652, "lng": -75.8875}, {"city": "Ardmore", "lat": 40.0033, "lng": -75.2947}, {"city": "University Heights", "lat": 41.4948, "lng": -81.5348}, {"city": "Wilton Manors", "lat": 26.1593, "lng": -80.1395}, {"city": "Clarkston", "lat": 33.8117, "lng": -84.2404}, {"city": "Lantana", "lat": 26.5834, "lng": -80.0564}, {"city": "Pelham", "lat": 40.9, "lng": -73.8064}, {"city": "Cherry Creek", "lat": 39.6094, "lng": -104.8645}, {"city": "Minnehaha", "lat": 45.6577, "lng": -122.6204}, {"city": "Patchogue", "lat": 40.7621, "lng": -73.0185}, {"city": "Oak Hills", "lat": 45.5403, "lng": -122.8413}, {"city": "North Merrick", "lat": 40.6871, "lng": -73.5615}, {"city": "Home Gardens", "lat": 33.8784, "lng": -117.5116}, {"city": "Salisbury", "lat": 40.7454, "lng": -73.5604}, {"city": "Emeryville", "lat": 37.8382, "lng": -122.2932}, {"city": "Hasbrouck Heights", "lat": 40.8618, "lng": -74.0741}, {"city": "Red Bank", "lat": 40.3481, "lng": -74.0672}, {"city": "South Miami", "lat": 25.7079, "lng": -80.2952}, {"city": "Clawson", "lat": 42.5367, "lng": -83.1504}, {"city": "Newman", "lat": 37.3157, "lng": -121.0211}, {"city": "Naranja", "lat": 25.5164, "lng": -80.4221}, {"city": "View Park-Windsor Hills", "lat": 33.9955, "lng": -118.3484}, {"city": "North Wantagh", "lat": 40.6983, "lng": -73.5086}, {"city": "Bothell East", "lat": 47.8064, "lng": -122.1845}, {"city": "Alum Rock", "lat": 37.3695, "lng": -121.8241}, {"city": "Westwood Lakes", "lat": 25.7237, "lng": -80.3717}, {"city": "Yeadon", "lat": 39.9325, "lng": -75.2527}, {"city": "Wallington", "lat": 40.8535, "lng": -74.1069}, {"city": "Waipio", "lat": 21.4143, "lng": -157.9965}, {"city": "Maili", "lat": 21.4134, "lng": -158.1702}, {"city": "River Edge", "lat": 40.9268, "lng": -74.0387}, {"city": "Signal Hill", "lat": 33.8029, "lng": -118.1681}, {"city": "Piedmont", "lat": 37.8226, "lng": -122.23}, {"city": "Rossmoor", "lat": 33.7886, "lng": -118.0803}, {"city": "Guttenberg", "lat": 40.7927, "lng": -74.0048}, {"city": "Summit", "lat": 41.7877, "lng": -87.8146}, {"city": "Orange Cove", "lat": 36.6211, "lng": -119.3188}, {"city": "Suffern", "lat": 41.1138, "lng": -74.1421}, {"city": "La Riviera", "lat": 38.5683, "lng": -121.3544}, {"city": "Little Ferry", "lat": 40.8463, "lng": -74.0388}, {"city": "Darby", "lat": 39.921, "lng": -75.2611}, {"city": "Northbrook", "lat": 39.2467, "lng": -84.5796}, {"city": "Lansdowne", "lat": 39.9408, "lng": -75.276}, {"city": "North Lindenhurst", "lat": 40.7072, "lng": -73.3859}, {"city": "Lincoln Village", "lat": 39.9532, "lng": -83.1314}, {"city": "Richmond Heights", "lat": 25.6347, "lng": -80.372}, {"city": "Jacinto City", "lat": 29.7663, "lng": -95.241}, {"city": "East Whittier", "lat": 33.9244, "lng": -117.9887}, {"city": "Boulder Hill", "lat": 41.7112, "lng": -88.3353}, {"city": "Lake Stickney", "lat": 47.8709, "lng": -122.2596}, {"city": "Great Neck", "lat": 40.8028, "lng": -73.7332}, {"city": "West Haverstraw", "lat": 41.2063, "lng": -73.9883}, {"city": "Bound Brook", "lat": 40.5676, "lng": -74.5383}, {"city": "Citrus", "lat": 34.1161, "lng": -117.889}, {"city": "Charter Oak", "lat": 34.1025, "lng": -117.8564}, {"city": "Capitola", "lat": 36.9772, "lng": -121.9538}, {"city": "Del Aire", "lat": 33.9168, "lng": -118.3693}, {"city": "Country Club", "lat": 37.9687, "lng": -121.3408}, {"city": "Timberlane", "lat": 29.8781, "lng": -90.0303}, {"city": "Watervliet", "lat": 42.7243, "lng": -73.7068}, {"city": "Inwood", "lat": 40.6218, "lng": -73.7507}, {"city": "White City", "lat": 42.4316, "lng": -122.8322}, {"city": "Marina del Rey", "lat": 33.9765, "lng": -118.4486}, {"city": "Stonegate", "lat": 39.5356, "lng": -104.8033}, {"city": "West Perrine", "lat": 25.6061, "lng": -80.3639}, {"city": "East Rockaway", "lat": 40.6432, "lng": -73.6672}, {"city": "New Hyde Park", "lat": 40.7324, "lng": -73.6858}, {"city": "Brookdale", "lat": 40.8348, "lng": -74.1798}, {"city": "Westgate", "lat": 26.6994, "lng": -80.0989}, {"city": "West Athens", "lat": 33.9235, "lng": -118.3033}, {"city": "Aiea", "lat": 21.3865, "lng": -157.9232}, {"city": "Keansburg", "lat": 40.4471, "lng": -74.1316}, {"city": "Maywood", "lat": 40.9025, "lng": -74.0634}, {"city": "Bladensburg", "lat": 38.9424, "lng": -76.9263}, {"city": "Wood-Ridge", "lat": 40.8507, "lng": -74.0878}, {"city": "Brentwood", "lat": 40.3734, "lng": -79.9757}, {"city": "Woodlyn", "lat": 39.8774, "lng": -75.3445}, {"city": "South Amboy", "lat": 40.4852, "lng": -74.2831}, {"city": "Leisure World", "lat": 39.1023, "lng": -77.0691}, {"city": "North Kensington", "lat": 39.0392, "lng": -77.0723}, {"city": "Leonia", "lat": 40.8638, "lng": -73.9899}, {"city": "Farmingdale", "lat": 40.7328, "lng": -73.4465}, {"city": "Plainedge", "lat": 40.724, "lng": -73.477}, {"city": "Stony Brook University", "lat": 40.9099, "lng": -73.1213}, {"city": "Folsom", "lat": 39.8924, "lng": -75.3287}, {"city": "Collingdale", "lat": 39.9151, "lng": -75.2776}, {"city": "West Miami", "lat": 25.7578, "lng": -80.2969}, {"city": "New Square", "lat": 41.141, "lng": -74.0294}, {"city": "Seven Corners", "lat": 38.8658, "lng": -77.1445}, {"city": "Greenbriar", "lat": 38.8717, "lng": -77.397}, {"city": "Coral Hills", "lat": 38.8709, "lng": -76.9234}, {"city": "Swissvale", "lat": 40.4207, "lng": -79.8858}, {"city": "Audubon", "lat": 39.8906, "lng": -75.0722}, {"city": "Malverne", "lat": 40.6746, "lng": -73.6721}, {"city": "August", "lat": 37.9797, "lng": -121.2625}, {"city": "Midway City", "lat": 33.7451, "lng": -117.9849}, {"city": "Bogota", "lat": 40.875, "lng": -74.0293}, {"city": "Garden City Park", "lat": 40.7436, "lng": -73.6639}, {"city": "Grandview Heights", "lat": 39.9793, "lng": -83.0408}, {"city": "Harwood Heights", "lat": 41.9663, "lng": -87.8057}, {"city": "Haledon", "lat": 40.9363, "lng": -74.1887}, {"city": "Dormont", "lat": 40.3941, "lng": -80.0377}, {"city": "Alondra Park", "lat": 33.8885, "lng": -118.335}, {"city": "Four Corners", "lat": 39.0235, "lng": -77.0102}, {"city": "Cheviot", "lat": 39.1577, "lng": -84.6139}, {"city": "Broadview Park", "lat": 26.0979, "lng": -80.2088}, {"city": "South San Gabriel", "lat": 34.0489, "lng": -118.0961}, {"city": "Mount Rainier", "lat": 38.9423, "lng": -76.9645}, {"city": "Maplewood", "lat": 38.6121, "lng": -90.324}, {"city": "North Bay Village", "lat": 25.8487, "lng": -80.1535}, {"city": "Conshohocken", "lat": 40.0772, "lng": -75.3035}, {"city": "Bellevue", "lat": 40.4945, "lng": -80.055}, {"city": "Paloma Creek South", "lat": 33.21, "lng": -96.9327}, {"city": "Caldwell", "lat": 40.839, "lng": -74.2776}, {"city": "Temple Hills", "lat": 38.8106, "lng": -76.9495}, {"city": "Riverside", "lat": 40.0358, "lng": -74.9564}, {"city": "Glenside", "lat": 40.1032, "lng": -75.1517}, {"city": "Wilson", "lat": 40.6844, "lng": -75.2407}, {"city": "Rio Bravo", "lat": 27.3648, "lng": -99.482}, {"city": "Guadalupe", "lat": 34.9608, "lng": -120.5735}, {"city": "Boyes Hot Springs", "lat": 38.3126, "lng": -122.4888}, {"city": "Fanwood", "lat": 40.6417, "lng": -74.3857}, {"city": "Holtville", "lat": 32.813, "lng": -115.378}, {"city": "East Franklin", "lat": 40.4933, "lng": -74.4711}, {"city": "Baldwin Harbor", "lat": 40.6296, "lng": -73.6025}, {"city": "Calumet Park", "lat": 41.665, "lng": -87.6578}, {"city": "Glen Ridge", "lat": 40.8041, "lng": -74.2043}, {"city": "Hatboro", "lat": 40.1775, "lng": -75.1054}, {"city": "Waikele", "lat": 21.4025, "lng": -158.0058}, {"city": "Hillcrest", "lat": 41.1298, "lng": -74.035}, {"city": "Park City", "lat": 42.3522, "lng": -87.8915}, {"city": "Montpelier", "lat": 44.2658, "lng": -72.5717}, {"city": "Sky Lake", "lat": 28.4611, "lng": -81.3912}, {"city": "Williston Park", "lat": 40.7587, "lng": -73.6465}, {"city": "Dunellen", "lat": 40.5903, "lng": -74.4656}, {"city": "Glenolden", "lat": 39.8996, "lng": -75.292}, {"city": "Nyack", "lat": 41.0919, "lng": -73.9143}, {"city": "Souderton", "lat": 40.311, "lng": -75.3224}, {"city": "Ridley Park", "lat": 39.8785, "lng": -75.3251}, {"city": "Great Neck Plaza", "lat": 40.7869, "lng": -73.7261}, {"city": "Orland Hills", "lat": 41.5905, "lng": -87.8413}, {"city": "Twin Rivers", "lat": 40.263, "lng": -74.4917}, {"city": "Hewlett", "lat": 40.6422, "lng": -73.6942}, {"city": "South Valley Stream", "lat": 40.6557, "lng": -73.7186}, {"city": "Clifton Heights", "lat": 39.9301, "lng": -75.2958}, {"city": "Lauderdale-by-the-Sea", "lat": 26.199, "lng": -80.0972}, {"city": "Notre Dame", "lat": 41.7014, "lng": -86.2378}, {"city": "Cedarhurst", "lat": 40.6252, "lng": -73.7278}, {"city": "Folcroft", "lat": 39.8891, "lng": -75.277}, {"city": "Guadalupe", "lat": 33.3664, "lng": -111.9633}, {"city": "Manorhaven", "lat": 40.8399, "lng": -73.7127}, {"city": "Ewa Villages", "lat": 21.3418, "lng": -158.039}, {"city": "South Monrovia Island", "lat": 34.1234, "lng": -117.9958}, {"city": "Contra Costa Centre", "lat": 37.9261, "lng": -122.054}, {"city": "Tuckahoe", "lat": 40.953, "lng": -73.823}, {"city": "Castroville", "lat": 36.765, "lng": -121.7535}, {"city": "West View", "lat": 40.5182, "lng": -80.0333}, {"city": "Naples Manor", "lat": 26.0892, "lng": -81.7254}, {"city": "Prospect Park", "lat": 39.8858, "lng": -75.3074}, {"city": "Ambler", "lat": 40.1564, "lng": -75.2215}, {"city": "Forest Glen", "lat": 39.0191, "lng": -77.0445}, {"city": "Bronxville", "lat": 40.9394, "lng": -73.8263}, {"city": "Kingston Estates", "lat": 39.9188, "lng": -74.9898}, {"city": "Cameron Park", "lat": 25.9705, "lng": -97.4775}, {"city": "Saranap", "lat": 37.8878, "lng": -122.076}, {"city": "Kennett Square", "lat": 39.8438, "lng": -75.7113}, {"city": "West Loch Estate", "lat": 21.3617, "lng": -158.0246}, {"city": "Lakeview", "lat": 40.6775, "lng": -73.6493}, {"city": "Binghamton University", "lat": 42.0893, "lng": -75.9684}, {"city": "Fruitridge Pocket", "lat": 38.5326, "lng": -121.4558}, {"city": "Larchmont", "lat": 40.9258, "lng": -73.7529}, {"city": "Pleasure Point", "lat": 36.9618, "lng": -121.9715}, {"city": "District Heights", "lat": 38.8588, "lng": -76.8885}, {"city": "Naval Academy", "lat": 38.9859, "lng": -76.488}, {"city": "Savannah", "lat": 33.2257, "lng": -96.9082}, {"city": "Penn Wynne", "lat": 39.9867, "lng": -75.2715}, {"city": "Norwood", "lat": 39.8865, "lng": -75.2964}, {"city": "Jamesburg", "lat": 40.3494, "lng": -74.44}, {"city": "Mayflower Village", "lat": 34.116, "lng": -118.0096}, {"city": "Elsmere", "lat": 39.7385, "lng": -75.5946}, {"city": "McKees Rocks", "lat": 40.4688, "lng": -80.063}, {"city": "Prospect Park", "lat": 40.938, "lng": -74.1736}, {"city": "Plymouth", "lat": 41.2404, "lng": -75.9505}, {"city": "Bay Harbor Islands", "lat": 25.8878, "lng": -80.1335}, {"city": "White City", "lat": 40.5666, "lng": -111.8636}, {"city": "Mount Carmel", "lat": 40.7959, "lng": -76.4121}, {"city": "Bellevue", "lat": 39.1011, "lng": -84.4776}, {"city": "South Tucson", "lat": 32.1955, "lng": -110.9692}, {"city": "Lewisburg", "lat": 40.9642, "lng": -76.8901}, {"city": "Sharon Hill", "lat": 39.9075, "lng": -75.2678}, {"city": "Media", "lat": 39.9198, "lng": -75.3888}, {"city": "New Brighton", "lat": 40.7355, "lng": -80.3091}, {"city": "Surfside", "lat": 25.8787, "lng": -80.125}, {"city": "Rochelle Park", "lat": 40.9069, "lng": -74.0791}, {"city": "Deer Park", "lat": 39.2039, "lng": -84.3977}, {"city": "Belmar", "lat": 40.1798, "lng": -74.0255}, {"city": "Shaw Heights", "lat": 39.8566, "lng": -105.039}, {"city": "Palm Springs North", "lat": 25.9351, "lng": -80.3339}, {"city": "Waipio Acres", "lat": 21.4689, "lng": -158.0173}, {"city": "South Highpoint", "lat": 27.9086, "lng": -82.7162}, {"city": "Friendship Heights Village", "lat": 38.9633, "lng": -77.09}, {"city": "Kaser", "lat": 41.1214, "lng": -74.0686}, {"city": "Edgewater", "lat": 39.7507, "lng": -105.0626}, {"city": "Kensington", "lat": 37.9084, "lng": -122.2805}, {"city": "Shillington", "lat": 40.3029, "lng": -75.967}, {"city": "Albertson", "lat": 40.7715, "lng": -73.6482}, {"city": "Highwood", "lat": 42.206, "lng": -87.8128}, {"city": "Cutler", "lat": 36.5263, "lng": -119.2884}, {"city": "Twin Lakes", "lat": 36.9646, "lng": -121.9896}, {"city": "Broadmoor", "lat": 37.6914, "lng": -122.4811}, {"city": "Bret Harte", "lat": 37.6021, "lng": -121.0045}, {"city": "Glendale", "lat": 39.7036, "lng": -104.9352}, {"city": "Turtle Creek", "lat": 40.4085, "lng": -79.8214}, {"city": "Carle Place", "lat": 40.75, "lng": -73.6122}, {"city": "Kenneth City", "lat": 27.8155, "lng": -82.7162}, {"city": "Tara Hills", "lat": 37.9939, "lng": -122.3188}, {"city": "South Pasadena", "lat": 27.7526, "lng": -82.7394}, {"city": "Mechanicville", "lat": 42.9037, "lng": -73.6895}, {"city": "Boca Raton", "lat": 26.3752, "lng": -80.108}, {"city": "Lafayette", "lat": 39.9949, "lng": -105.0997}, {"city": "Lee's Summit", "lat": 38.9172, "lng": -94.3816}, {"city": "Rio Rancho", "lat": 35.2872, "lng": -106.6981}, {"city": "South Fulton", "lat": 33.6269, "lng": -84.5802}, {"city": "Beaverton", "lat": 45.4779, "lng": -122.8168}, {"city": "Lawrence", "lat": 38.9597, "lng": -95.2641}, {"city": "Middletown", "lat": 39.5032, "lng": -84.366}, {"city": "San Tan Valley", "lat": 33.1879, "lng": -111.5472}, {"city": "San Marcos", "lat": 33.135, "lng": -117.1744}, {"city": "Sandy", "lat": 40.571, "lng": -111.8505}, {"city": "Federal Way", "lat": 47.3091, "lng": -122.3358}, {"city": "Greece", "lat": 43.2461, "lng": -77.6989}, {"city": "Mandeville", "lat": 30.3751, "lng": -90.0904}, {"city": "Hesperia", "lat": 34.3975, "lng": -117.3147}, {"city": "Brockton", "lat": 42.0821, "lng": -71.0242}, {"city": "Riverview", "lat": 27.8227, "lng": -82.3023}, {"city": "Fishers", "lat": 39.9589, "lng": -85.9661}, {"city": "Bowling Green", "lat": 36.9719, "lng": -86.4373}, {"city": "Roswell", "lat": 34.0391, "lng": -84.3513}, {"city": "Menifee", "lat": 33.6909, "lng": -117.1849}, {"city": "Plantation", "lat": 26.126, "lng": -80.2617}, {"city": "Dover", "lat": 43.1887, "lng": -70.8845}, {"city": "Portsmouth", "lat": 36.8468, "lng": -76.354}, {"city": "Chino", "lat": 33.9836, "lng": -117.6654}, {"city": "Edmond", "lat": 35.6689, "lng": -97.4159}, {"city": "Hanford", "lat": 36.3274, "lng": -119.6549}, {"city": "Dearborn", "lat": 42.3127, "lng": -83.2129}, {"city": "Livonia", "lat": 42.3972, "lng": -83.3733}, {"city": "Vineland", "lat": 39.4653, "lng": -74.9981}, {"city": "Florence", "lat": 34.1781, "lng": -79.7877}, {"city": "Portsmouth", "lat": 43.058, "lng": -70.7826}, {"city": "Slidell", "lat": 30.2881, "lng": -89.7826}, {"city": "Lawton", "lat": 34.6176, "lng": -98.4203}, {"city": "Missoula", "lat": 46.875, "lng": -114.0214}, {"city": "Auburn", "lat": 32.6087, "lng": -85.4899}, {"city": "Rapid City", "lat": 44.0716, "lng": -103.2204}, {"city": "Terre Haute", "lat": 39.4654, "lng": -87.3763}, {"city": "Toms River", "lat": 39.9895, "lng": -74.1654}, {"city": "Suffolk", "lat": 36.6953, "lng": -76.6398}, {"city": "Blacksburg", "lat": 37.23, "lng": -80.4279}, {"city": "Mount Pleasant", "lat": 32.8538, "lng": -79.8204}, {"city": "Carson", "lat": 33.8374, "lng": -118.2559}, {"city": "Greenburgh", "lat": 41.033, "lng": -73.8413}, {"city": "Conroe", "lat": 30.3239, "lng": -95.4825}, {"city": "Alafaya", "lat": 28.5278, "lng": -81.1865}, {"city": "Livermore", "lat": 37.6862, "lng": -121.7608}, {"city": "New Braunfels", "lat": 29.6994, "lng": -98.1148}, {"city": "Fall River", "lat": 41.7137, "lng": -71.1014}, {"city": "Albany", "lat": 31.5776, "lng": -84.1762}, {"city": "Norwalk", "lat": 41.1144, "lng": -73.4215}, {"city": "O'Fallon", "lat": 38.785, "lng": -90.7175}, {"city": "Newton", "lat": 42.3316, "lng": -71.2085}, {"city": "Muncie", "lat": 40.1989, "lng": -85.395}, {"city": "Hamilton", "lat": 40.2046, "lng": -74.6765}, {"city": "Town 'n' Country", "lat": 28.0108, "lng": -82.576}, {"city": "Decatur", "lat": 39.8556, "lng": -88.9337}, {"city": "Jackson", "lat": 42.2431, "lng": -84.4037}, {"city": "Fort Myers", "lat": 26.6195, "lng": -81.8303}, {"city": "Goodyear", "lat": 33.2613, "lng": -112.3622}, {"city": "Dalton", "lat": 34.769, "lng": -84.9712}, {"city": "Clarkstown", "lat": 41.1319, "lng": -73.966}, {"city": "Cheektowaga", "lat": 42.9082, "lng": -78.7466}, {"city": "Bryan", "lat": 30.6657, "lng": -96.3668}, {"city": "Waukegan", "lat": 42.3697, "lng": -87.8716}, {"city": "Anderson", "lat": 40.0891, "lng": -85.6893}, {"city": "Redwood City", "lat": 37.5026, "lng": -122.2252}, {"city": "Hoover", "lat": 33.3754, "lng": -86.8064}, {"city": "Lake Forest", "lat": 33.6606, "lng": -117.6712}, {"city": "Napa", "lat": 38.2976, "lng": -122.3011}, {"city": "Largo", "lat": 27.9088, "lng": -82.7711}, {"city": "Bloomington", "lat": 44.8306, "lng": -93.3151}, {"city": "Johns Creek", "lat": 34.0333, "lng": -84.2027}, {"city": "Newport Beach", "lat": 33.6151, "lng": -117.8669}, {"city": "Mission", "lat": 26.2041, "lng": -98.3251}, {"city": "Troy", "lat": 42.5818, "lng": -83.1457}, {"city": "Madera", "lat": 36.9631, "lng": -120.0782}, {"city": "Joplin", "lat": 37.0758, "lng": -94.5018}, {"city": "Chino Hills", "lat": 33.9508, "lng": -117.7253}, {"city": "Franklin", "lat": 35.9216, "lng": -86.8525}, {"city": "Melbourne", "lat": 28.1085, "lng": -80.6627}, {"city": "Port Huron", "lat": 42.9822, "lng": -82.4387}, {"city": "Colonie", "lat": 42.7396, "lng": -73.7874}, {"city": "Springfield", "lat": 39.9297, "lng": -83.7957}, {"city": "Zephyrhills", "lat": 28.2408, "lng": -82.1796}, {"city": "St. Augustine", "lat": 29.8977, "lng": -81.31}, {"city": "Flagstaff", "lat": 35.1872, "lng": -111.6195}, {"city": "Pleasanton", "lat": 37.6663, "lng": -121.8805}, {"city": "Atascocita", "lat": 29.9777, "lng": -95.1953}, {"city": "Westland", "lat": 42.3192, "lng": -83.3805}, {"city": "Auburn", "lat": 47.3039, "lng": -122.2108}, {"city": "Cranston", "lat": 41.7658, "lng": -71.4857}, {"city": "Folsom", "lat": 38.6668, "lng": -121.1422}, {"city": "Springdale", "lat": 36.1899, "lng": -94.1574}, {"city": "Warwick", "lat": 41.7062, "lng": -71.4334}, {"city": "Farmington Hills", "lat": 42.486, "lng": -83.3771}, {"city": "Newark", "lat": 40.0705, "lng": -82.4251}, {"city": "Williamsburg", "lat": 37.2692, "lng": -76.7076}, {"city": "Brooklyn Park", "lat": 45.1112, "lng": -93.3505}, {"city": "Hattiesburg", "lat": 31.3074, "lng": -89.317}, {"city": "Alexandria", "lat": 31.2923, "lng": -92.4702}, {"city": "Florence", "lat": 34.8303, "lng": -87.6654}, {"city": "Valdosta", "lat": 30.8502, "lng": -83.2788}, {"city": "Plymouth", "lat": 45.0225, "lng": -93.4618}, {"city": "Buckeye", "lat": 33.4314, "lng": -112.6429}, {"city": "Georgetown", "lat": 30.6668, "lng": -97.6953}, {"city": "Cedar Park", "lat": 30.5106, "lng": -97.8196}, {"city": "The Villages", "lat": 28.9021, "lng": -81.9888}, {"city": "Kokomo", "lat": 40.464, "lng": -86.1277}, {"city": "Perris", "lat": 33.7899, "lng": -117.2233}, {"city": "St. Joseph", "lat": 39.7599, "lng": -94.821}, {"city": "Flower Mound", "lat": 33.0344, "lng": -97.1146}, {"city": "Pharr", "lat": 26.1685, "lng": -98.1904}, {"city": "Alton", "lat": 38.9034, "lng": -90.1523}, {"city": "Loveland", "lat": 40.4166, "lng": -105.0623}, {"city": "Boynton Beach", "lat": 26.5281, "lng": -80.0811}, {"city": "Anderson", "lat": 34.5211, "lng": -82.6479}, {"city": "Jonesboro", "lat": 35.8212, "lng": -90.6791}, {"city": "Parma", "lat": 41.3843, "lng": -81.7286}, {"city": "Layton", "lat": 41.0769, "lng": -111.9621}, {"city": "Elizabethtown", "lat": 37.703, "lng": -85.877}, {"city": "Texarkana", "lat": 33.4487, "lng": -94.0815}, {"city": "Kankakee", "lat": 41.1019, "lng": -87.8643}, {"city": "Porterville", "lat": 36.0644, "lng": -119.0338}, {"city": "Baytown", "lat": 29.7586, "lng": -94.9669}, {"city": "Upland", "lat": 34.1178, "lng": -117.6603}, {"city": "Camarillo", "lat": 34.223, "lng": -119.0322}, {"city": "South Jordan", "lat": 40.557, "lng": -111.9782}, {"city": "Battle Creek", "lat": 42.2986, "lng": -85.2296}, {"city": "San Marcos", "lat": 29.8736, "lng": -97.9381}, {"city": "San Ramon", "lat": 37.7625, "lng": -121.9365}, {"city": "Lake Jackson", "lat": 29.0516, "lng": -95.4522}, {"city": "Bethlehem", "lat": 40.6266, "lng": -75.3679}, {"city": "Wyoming", "lat": 42.8909, "lng": -85.7066}, {"city": "Oshkosh", "lat": 44.0228, "lng": -88.5619}, {"city": "Hammond", "lat": 41.6169, "lng": -87.491}, {"city": "Waldorf", "lat": 38.6085, "lng": -76.9195}, {"city": "Missouri City", "lat": 29.563, "lng": -95.5365}, {"city": "Pasco", "lat": 46.2506, "lng": -119.1304}, {"city": "Wheeling", "lat": 40.0752, "lng": -80.6951}, {"city": "Brick", "lat": 40.06, "lng": -74.1099}, {"city": "Kendall", "lat": 25.6697, "lng": -80.3556}, {"city": "Rancho Cordova", "lat": 38.574, "lng": -121.2523}, {"city": "Conway", "lat": 35.0754, "lng": -92.4694}, {"city": "Gary", "lat": 41.5906, "lng": -87.3472}, {"city": "Altoona", "lat": 40.5082, "lng": -78.4007}, {"city": "Lodi", "lat": 38.1218, "lng": -121.2932}, {"city": "Arlington Heights", "lat": 42.0955, "lng": -87.9825}, {"city": "Bolingbrook", "lat": 41.6903, "lng": -88.1019}, {"city": "Rochester Hills", "lat": 42.6645, "lng": -83.1563}, {"city": "Winchester", "lat": 39.1735, "lng": -78.1746}, {"city": "Framingham", "lat": 42.3085, "lng": -71.4368}, {"city": "Hilton Head Island", "lat": 32.1896, "lng": -80.7499}, {"city": "Union City", "lat": 37.603, "lng": -122.0187}, {"city": "Owensboro", "lat": 37.7574, "lng": -87.1173}, {"city": "Jackson", "lat": 35.6535, "lng": -88.8353}, {"city": "Cleveland", "lat": 35.1817, "lng": -84.8707}, {"city": "Wausau", "lat": 44.962, "lng": -89.6459}, {"city": "Anniston", "lat": 33.6712, "lng": -85.8136}, {"city": "Apple Valley", "lat": 34.5328, "lng": -117.2104}, {"city": "Mansfield", "lat": 40.7656, "lng": -82.5275}, {"city": "Schaumburg", "lat": 42.0307, "lng": -88.0838}, {"city": "Pocatello", "lat": 42.8724, "lng": -112.4646}, {"city": "Woodbury", "lat": 44.9056, "lng": -92.923}, {"city": "Southfield", "lat": 42.4765, "lng": -83.2605}, {"city": "Ellicott City", "lat": 39.2773, "lng": -76.8344}, {"city": "Dale City", "lat": 38.6473, "lng": -77.3459}, {"city": "Maple Grove", "lat": 45.1089, "lng": -93.4626}, {"city": "Pittsburg", "lat": 38.0182, "lng": -121.8964}, {"city": "Morgantown", "lat": 39.638, "lng": -79.9468}, {"city": "Mansfield", "lat": 32.569, "lng": -97.1211}, {"city": "Hammond", "lat": 30.5061, "lng": -90.4563}, {"city": "Dothan", "lat": 31.2335, "lng": -85.4069}, {"city": "Harrisonburg", "lat": 38.4361, "lng": -78.8735}, {"city": "Wenatchee", "lat": 47.4356, "lng": -120.3283}, {"city": "Waukesha", "lat": 43.0087, "lng": -88.2464}, {"city": "Redmond", "lat": 47.6762, "lng": -122.1169}, {"city": "Sumter", "lat": 33.9392, "lng": -80.393}, {"city": "Redlands", "lat": 34.0511, "lng": -117.1712}, {"city": "Daphne", "lat": 30.6286, "lng": -87.8866}, {"city": "Mount Vernon", "lat": 48.4202, "lng": -122.3115}, {"city": "Weston", "lat": 26.1006, "lng": -80.4054}, {"city": "St. Charles", "lat": 38.7954, "lng": -90.5157}, {"city": "Cherry Hill", "lat": 39.9034, "lng": -74.9947}, {"city": "Janesville", "lat": 42.6855, "lng": -89.0136}, {"city": "Sherman", "lat": 33.6274, "lng": -96.6218}, {"city": "North Richland Hills", "lat": 32.8605, "lng": -97.218}, {"city": "Broomfield", "lat": 39.9541, "lng": -105.0527}, {"city": "El Paso de Robles", "lat": 35.6394, "lng": -120.656}, {"city": "Bristol", "lat": 36.5572, "lng": -82.2154}, {"city": "Casas Adobes", "lat": 32.3423, "lng": -111.0114}, {"city": "Walnut Creek", "lat": 37.9024, "lng": -122.0398}, {"city": "Poinciana", "lat": 28.1217, "lng": -81.482}, {"city": "Glen Burnie", "lat": 39.1559, "lng": -76.6072}, {"city": "Lehi", "lat": 40.4136, "lng": -111.8726}, {"city": "Homestead", "lat": 25.4665, "lng": -80.4472}, {"city": "West Bend", "lat": 43.4184, "lng": -88.1824}, {"city": "Delray Beach", "lat": 26.455, "lng": -80.0905}, {"city": "Sheboygan", "lat": 43.7403, "lng": -87.7316}, {"city": "Lake Elsinore", "lat": 33.6847, "lng": -117.3344}, {"city": "Daytona Beach", "lat": 29.1994, "lng": -81.0982}, {"city": "Los Lunas", "lat": 34.8115, "lng": -106.7803}, {"city": "Lima", "lat": 40.741, "lng": -84.1121}, {"city": "Decatur", "lat": 34.573, "lng": -86.9906}, {"city": "Rocklin", "lat": 38.8075, "lng": -121.2488}, {"city": "Rogers", "lat": 36.3172, "lng": -94.1526}, {"city": "Castle Rock", "lat": 39.3763, "lng": -104.8535}, {"city": "Hanover", "lat": 39.8117, "lng": -76.9835}, {"city": "Bossier City", "lat": 32.5227, "lng": -93.6666}, {"city": "Dubuque", "lat": 42.5008, "lng": -90.7067}, {"city": "Rockville", "lat": 39.0834, "lng": -77.1552}, {"city": "Victoria", "lat": 28.8285, "lng": -96.985}, {"city": "Saratoga Springs", "lat": 43.0674, "lng": -73.7775}, {"city": "Ames", "lat": 42.0259, "lng": -93.6215}, {"city": "West Des Moines", "lat": 41.5522, "lng": -93.7805}, {"city": "Yorba Linda", "lat": 33.889, "lng": -117.7714}, {"city": "Casper", "lat": 42.842, "lng": -106.3207}, {"city": "Palatine", "lat": 42.1181, "lng": -88.043}, {"city": "Corvallis", "lat": 44.5697, "lng": -123.278}, {"city": "Ankeny", "lat": 41.7285, "lng": -93.6033}, {"city": "Rowlett", "lat": 32.9157, "lng": -96.5488}, {"city": "Lakeville", "lat": 44.6774, "lng": -93.252}, {"city": "Alpharetta", "lat": 34.0704, "lng": -84.2739}, {"city": "Longview", "lat": 46.1461, "lng": -122.9629}, {"city": "DeKalb", "lat": 41.9313, "lng": -88.7482}, {"city": "Petaluma", "lat": 38.2423, "lng": -122.6267}, {"city": "Laguna Niguel", "lat": 33.5275, "lng": -117.705}, {"city": "Eagan", "lat": 44.8169, "lng": -93.1638}, {"city": "Kenner", "lat": 30.0109, "lng": -90.2549}, {"city": "Bay City", "lat": 43.5903, "lng": -83.8886}, {"city": "North Little Rock", "lat": 34.7808, "lng": -92.2371}, {"city": "Sammamish", "lat": 47.6017, "lng": -122.0416}, {"city": "Shawnee", "lat": 39.0158, "lng": -94.8076}, {"city": "Jupiter", "lat": 26.9199, "lng": -80.1128}, {"city": "Old Bridge", "lat": 40.4004, "lng": -74.3126}, {"city": "Doral", "lat": 25.8151, "lng": -80.3565}, {"city": "Carbondale", "lat": 37.7221, "lng": -89.2238}, {"city": "Blaine", "lat": 45.1696, "lng": -93.2077}, {"city": "Weirton", "lat": 40.406, "lng": -80.5671}, {"city": "Franklin", "lat": 40.4759, "lng": -74.5515}, {"city": "Tulare", "lat": 36.1996, "lng": -119.34}, {"city": "Wellington", "lat": 26.6461, "lng": -80.2699}, {"city": "Pflugerville", "lat": 30.452, "lng": -97.6022}, {"city": "Palo Alto", "lat": 37.3913, "lng": -122.1468}, {"city": "Middletown", "lat": 40.3893, "lng": -74.082}, {"city": "Great Falls", "lat": 47.5022, "lng": -111.2995}, {"city": "Michigan City", "lat": 41.7099, "lng": -86.8705}, {"city": "Eden Prairie", "lat": 44.8488, "lng": -93.4595}, {"city": "Port Orange", "lat": 29.1084, "lng": -81.0137}, {"city": "Dublin", "lat": 37.7161, "lng": -121.8963}, {"city": "Grand Forks", "lat": 47.9218, "lng": -97.0886}, {"city": "Noblesville", "lat": 40.0354, "lng": -86.0042}, {"city": "San Clemente", "lat": 33.4498, "lng": -117.6103}, {"city": "Brentwood", "lat": 37.9355, "lng": -121.7191}, {"city": "Carmichael", "lat": 38.6337, "lng": -121.323}, {"city": "Eastvale", "lat": 33.9617, "lng": -117.5802}, {"city": "Chapel Hill", "lat": 35.927, "lng": -79.0391}, {"city": "Rocky Mount", "lat": 35.9676, "lng": -77.8048}, {"city": "Haverhill", "lat": 42.7838, "lng": -71.0871}, {"city": "Beloit", "lat": 42.523, "lng": -89.0184}, {"city": "Gloucester", "lat": 39.7924, "lng": -75.0363}, {"city": "Glens Falls", "lat": 43.3109, "lng": -73.6459}, {"city": "Fairbanks", "lat": 64.8353, "lng": -147.6534}, {"city": "Springfield", "lat": 44.0538, "lng": -122.981}, {"city": "Bethesda", "lat": 38.9866, "lng": -77.1188}, {"city": "Johnstown", "lat": 40.3258, "lng": -78.9193}, {"city": "West Hartford", "lat": 41.7669, "lng": -72.7536}, {"city": "Dundalk", "lat": 39.2703, "lng": -76.4942}, {"city": "Castro Valley", "lat": 37.7091, "lng": -122.0631}, {"city": "Coon Rapids", "lat": 45.1755, "lng": -93.3095}, {"city": "Elmira", "lat": 42.0938, "lng": -76.8097}, {"city": "Mankato", "lat": 44.1712, "lng": -93.9773}, {"city": "Albany", "lat": 44.6274, "lng": -123.0966}, {"city": "Encinitas", "lat": 33.049, "lng": -117.2613}, {"city": "Leander", "lat": 30.5728, "lng": -97.8618}, {"city": "Greenwich", "lat": 41.0665, "lng": -73.6368}, {"city": "Parkersburg", "lat": 39.2624, "lng": -81.542}, {"city": "Waltham", "lat": 42.3889, "lng": -71.2423}, {"city": "Port Charlotte", "lat": 26.9918, "lng": -82.114}, {"city": "Palm Harbor", "lat": 28.0847, "lng": -82.7481}, {"city": "San Luis Obispo", "lat": 35.2669, "lng": -120.6691}, {"city": "Sebring", "lat": 27.477, "lng": -81.453}, {"city": "Council Bluffs", "lat": 41.2369, "lng": -95.8517}, {"city": "Hamilton", "lat": 39.3938, "lng": -84.5653}, {"city": "Moore", "lat": 35.3293, "lng": -97.4758}, {"city": "Casa Grande", "lat": 32.9068, "lng": -111.7624}, {"city": "Monessen", "lat": 40.1519, "lng": -79.8828}, {"city": "Fairfield", "lat": 41.1775, "lng": -73.2733}, {"city": "Rome", "lat": 34.2661, "lng": -85.1862}, {"city": "Millcreek", "lat": 40.6892, "lng": -111.8291}, {"city": "Sanford", "lat": 28.7893, "lng": -81.276}, {"city": "Burnsville", "lat": 44.7648, "lng": -93.2795}, {"city": "Morristown", "lat": 36.2046, "lng": -83.3006}, {"city": "Reston", "lat": 38.9497, "lng": -77.3461}, {"city": "Lakewood", "lat": 47.1628, "lng": -122.5299}, {"city": "Hamden", "lat": 41.3961, "lng": -72.9215}, {"city": "Spring", "lat": 30.0613, "lng": -95.383}, {"city": "Gadsden", "lat": 34.009, "lng": -86.0156}, {"city": "Taylor", "lat": 42.226, "lng": -83.2688}, {"city": "Novi", "lat": 42.4786, "lng": -83.4893}, {"city": "Marietta", "lat": 33.9533, "lng": -84.5422}, {"city": "Hot Springs", "lat": 34.4892, "lng": -93.0501}, {"city": "Woodland", "lat": 38.6712, "lng": -121.75}, {"city": "Bensalem", "lat": 40.1086, "lng": -74.9431}, {"city": "Commerce City", "lat": 39.8642, "lng": -104.8434}, {"city": "South Hill", "lat": 47.1203, "lng": -122.2848}, {"city": "Plymouth", "lat": 41.8783, "lng": -70.6309}, {"city": "Bristol", "lat": 41.6812, "lng": -72.9407}, {"city": "Columbus", "lat": 39.2093, "lng": -85.9183}, {"city": "Bangor", "lat": 44.8322, "lng": -68.7906}, {"city": "Greenwood", "lat": 39.6019, "lng": -86.1073}, {"city": "Bartlett", "lat": 35.2337, "lng": -89.8195}, {"city": "Bradenton", "lat": 27.49, "lng": -82.5739}, {"city": "Pontiac", "lat": 42.6493, "lng": -83.2878}, {"city": "Staunton", "lat": 38.1593, "lng": -79.0611}, {"city": "Meriden", "lat": 41.5367, "lng": -72.7944}, {"city": "Clay", "lat": 43.1809, "lng": -76.1955}, {"city": "Apex", "lat": 35.7239, "lng": -78.8728}, {"city": "Royal Oak", "lat": 42.5084, "lng": -83.1539}, {"city": "Benton Harbor", "lat": 42.1159, "lng": -86.4488}, {"city": "Lower Merion", "lat": 40.0282, "lng": -75.2807}, {"city": "St. Clair Shores", "lat": 42.4921, "lng": -82.8957}, {"city": "Des Plaines", "lat": 42.0345, "lng": -87.9009}, {"city": "Lewiston", "lat": 44.0915, "lng": -70.1681}, {"city": "Midland", "lat": 43.6241, "lng": -84.2319}, {"city": "Bowie", "lat": 38.9569, "lng": -76.7409}, {"city": "Caldwell", "lat": 43.6453, "lng": -116.6591}, {"city": "San Rafael", "lat": 37.9905, "lng": -122.5222}, {"city": "Hamburg", "lat": 42.7394, "lng": -78.8581}, {"city": "Richland", "lat": 46.2824, "lng": -119.2938}, {"city": "St. Peters", "lat": 38.7824, "lng": -90.6061}, {"city": "Wesley Chapel", "lat": 28.2106, "lng": -82.3238}, {"city": "Hendersonville", "lat": 36.3063, "lng": -86.5998}, {"city": "Huntersville", "lat": 35.4058, "lng": -80.8727}, {"city": "Southampton", "lat": 40.8996, "lng": -72.4937}, {"city": "Santee", "lat": 32.8554, "lng": -116.9851}, {"city": "Beckley", "lat": 37.7878, "lng": -81.1841}, {"city": "Titusville", "lat": 28.5727, "lng": -80.8193}, {"city": "Cartersville", "lat": 34.1639, "lng": -84.8007}, {"city": "Walla Walla", "lat": 46.067, "lng": -118.3366}, {"city": "Orland Park", "lat": 41.6074, "lng": -87.8619}, {"city": "Towson", "lat": 39.3944, "lng": -76.619}, {"city": "Manchester", "lat": 41.7753, "lng": -72.5242}, {"city": "Weymouth", "lat": 42.1984, "lng": -70.9466}, {"city": "Parker", "lat": 39.5084, "lng": -104.7753}, {"city": "Palm Beach Gardens", "lat": 26.8466, "lng": -80.1679}, {"city": "Bozeman", "lat": 45.6832, "lng": -111.0552}, {"city": "East Stroudsburg", "lat": 41.0023, "lng": -75.1779}, {"city": "Taunton", "lat": 41.9036, "lng": -71.0943}, {"city": "Midwest City", "lat": 35.463, "lng": -97.3709}, {"city": "Goldsboro", "lat": 35.3778, "lng": -77.972}, {"city": "Euless", "lat": 32.8508, "lng": -97.0799}, {"city": "Manhattan", "lat": 39.1886, "lng": -96.6046}, {"city": "Shoreline", "lat": 47.7564, "lng": -122.3426}, {"city": "Jackson", "lat": 40.098, "lng": -74.3579}, {"city": "Piscataway", "lat": 40.5467, "lng": -74.4636}, {"city": "Lake Havasu City", "lat": 34.5006, "lng": -114.3113}, {"city": "Smyrna", "lat": 33.8633, "lng": -84.5168}, {"city": "Cape Girardeau", "lat": 37.3108, "lng": -89.5597}, {"city": "Grants Pass", "lat": 42.4333, "lng": -123.3317}, {"city": "Blue Springs", "lat": 39.0124, "lng": -94.2721}, {"city": "Southaven", "lat": 34.9514, "lng": -89.9787}, {"city": "Tinley Park", "lat": 41.567, "lng": -87.805}, {"city": "Diamond Bar", "lat": 33.9991, "lng": -117.8161}, {"city": "Pittsfield", "lat": 42.4517, "lng": -73.2605}, {"city": "Eagle Pass", "lat": 28.7125, "lng": -100.484}, {"city": "Lenexa", "lat": 38.9609, "lng": -94.8018}, {"city": "Hazleton", "lat": 40.9504, "lng": -75.9724}, {"city": "Twin Falls", "lat": 42.5645, "lng": -114.4615}, {"city": "Brookhaven", "lat": 33.8744, "lng": -84.3314}, {"city": "Novato", "lat": 38.092, "lng": -122.5576}, {"city": "Tigard", "lat": 45.4237, "lng": -122.7845}, {"city": "Abington", "lat": 40.1108, "lng": -75.1146}, {"city": "Highland", "lat": 34.1113, "lng": -117.1654}, {"city": "Dearborn Heights", "lat": 42.3164, "lng": -83.2769}, {"city": "Grapevine", "lat": 32.9343, "lng": -97.0744}, {"city": "Fond du Lac", "lat": 43.7718, "lng": -88.4396}, {"city": "Hacienda Heights", "lat": 33.997, "lng": -117.9728}, {"city": "Apple Valley", "lat": 44.7457, "lng": -93.2006}, {"city": "Chicopee", "lat": 42.1764, "lng": -72.5719}, {"city": "Cathedral City", "lat": 33.8363, "lng": -116.4642}, {"city": "Delano", "lat": 35.767, "lng": -119.2637}, {"city": "Bentonville", "lat": 36.3546, "lng": -94.2306}, {"city": "Stonecrest", "lat": 33.6842, "lng": -84.1372}, {"city": "Kettering", "lat": 39.6957, "lng": -84.1495}, {"city": "Colton", "lat": 34.0538, "lng": -117.3254}, {"city": "Kingston", "lat": 41.9295, "lng": -73.9968}, {"city": "West Haven", "lat": 41.2739, "lng": -72.9672}, {"city": "St. Cloud", "lat": 28.2294, "lng": -81.2829}, {"city": "Normal", "lat": 40.5218, "lng": -88.9881}, {"city": "Milford", "lat": 41.2256, "lng": -73.0616}, {"city": "Arroyo Grande", "lat": 35.1241, "lng": -120.5845}, {"city": "Minnetonka", "lat": 44.9322, "lng": -93.4598}, {"city": "Wayne", "lat": 40.9481, "lng": -74.2453}, {"city": "Yucaipa", "lat": 34.0336, "lng": -117.0429}, {"city": "Brunswick", "lat": 31.145, "lng": -81.474}, {"city": "Williamsport", "lat": 41.2398, "lng": -77.0371}, {"city": "Union", "lat": 42.1258, "lng": -76.0329}, {"city": "Elyria", "lat": 41.3761, "lng": -82.1063}, {"city": "Leesburg", "lat": 39.1058, "lng": -77.5544}, {"city": "Mount Prospect", "lat": 42.0641, "lng": -87.9375}, {"city": "Bristol", "lat": 40.1216, "lng": -74.8667}, {"city": "Pinellas Park", "lat": 27.8589, "lng": -82.7078}, {"city": "Bellevue", "lat": 41.1535, "lng": -95.9357}, {"city": "West Sacramento", "lat": 38.5557, "lng": -121.5504}, {"city": "Apopka", "lat": 28.7014, "lng": -81.5304}, {"city": "Lewiston", "lat": 46.3934, "lng": -116.9934}, {"city": "Millcreek", "lat": 42.0861, "lng": -80.1193}, {"city": "Grand Island", "lat": 40.9214, "lng": -98.3584}, {"city": "Palm Desert", "lat": 33.7378, "lng": -116.3695}, {"city": "Milford city", "lat": 41.2256, "lng": -73.0625}, {"city": "Watertown", "lat": 43.9734, "lng": -75.9094}, {"city": "Little Elm", "lat": 33.1856, "lng": -96.929}, {"city": "Chambersburg", "lat": 39.9315, "lng": -77.6556}, {"city": "Peabody", "lat": 42.5335, "lng": -70.9724}, {"city": "Wylie", "lat": 33.0362, "lng": -96.5161}, {"city": "Beaufort", "lat": 32.4597, "lng": -80.7235}, {"city": "DeSoto", "lat": 32.5992, "lng": -96.8633}, {"city": "Edina", "lat": 44.8914, "lng": -93.3602}, {"city": "Wheaton", "lat": 41.8561, "lng": -88.1083}, {"city": "Lacey", "lat": 47.046, "lng": -122.7934}, {"city": "Summerville", "lat": 33.0015, "lng": -80.1799}, {"city": "Parsippany-Troy Hills", "lat": 40.8601, "lng": -74.4238}, {"city": "Maricopa", "lat": 33.0404, "lng": -112.0006}, {"city": "Stratford", "lat": 41.207, "lng": -73.1305}, {"city": "Lompoc", "lat": 34.6618, "lng": -120.4714}, {"city": "Howell", "lat": 40.1819, "lng": -74.1977}, {"city": "Kentwood", "lat": 42.8852, "lng": -85.5925}, {"city": "Levittown", "lat": 40.1537, "lng": -74.853}, {"city": "Sierra Vista", "lat": 31.563, "lng": -110.3153}, {"city": "Madison", "lat": 34.7114, "lng": -86.7626}, {"city": "Smyrna", "lat": 35.9722, "lng": -86.5253}, {"city": "Glendora", "lat": 34.1449, "lng": -117.8468}, {"city": "Burien", "lat": 47.4762, "lng": -122.3394}, {"city": "Herriman", "lat": 40.4899, "lng": -112.0171}, {"city": "Farmington", "lat": 36.7555, "lng": -108.1823}, {"city": "New Bern", "lat": 35.0955, "lng": -77.0723}, {"city": "Hinesville", "lat": 31.8247, "lng": -81.6135}, {"city": "Beaumont", "lat": 33.9076, "lng": -116.9766}, {"city": "Collierville", "lat": 35.0471, "lng": -89.6988}, {"city": "West Lafayette", "lat": 40.4432, "lng": -86.9239}, {"city": "Florissant", "lat": 38.7996, "lng": -90.3269}, {"city": "Hoffman Estates", "lat": 42.0639, "lng": -88.1468}, {"city": "Queen Creek", "lat": 33.2386, "lng": -111.6343}, {"city": "Kannapolis", "lat": 35.4764, "lng": -80.6403}, {"city": "Methuen Town", "lat": 42.734, "lng": -71.1889}, {"city": "Sahuarita", "lat": 31.9323, "lng": -110.9654}, {"city": "Traverse City", "lat": 44.7547, "lng": -85.6035}, {"city": "Severn", "lat": 39.1355, "lng": -76.6958}, {"city": "Catalina Foothills", "lat": 32.3041, "lng": -110.8835}, {"city": "Galveston", "lat": 29.2487, "lng": -94.891}, {"city": "Cookeville", "lat": 36.1484, "lng": -85.5114}, {"city": "Mishawaka", "lat": 41.6736, "lng": -86.1669}, {"city": "Rowland Heights", "lat": 33.9716, "lng": -117.8911}, {"city": "Bullhead City", "lat": 35.1205, "lng": -114.546}, {"city": "Irondequoit", "lat": 43.2096, "lng": -77.5705}, {"city": "Stillwater", "lat": 36.1316, "lng": -97.074}, {"city": "East Hartford", "lat": 41.7634, "lng": -72.6152}, {"city": "Forney", "lat": 32.744, "lng": -96.4529}, {"city": "Azusa", "lat": 34.1386, "lng": -117.9124}, {"city": "Orangetown", "lat": 41.0526, "lng": -73.9475}, {"city": "Ashburn", "lat": 39.03, "lng": -77.4711}, {"city": "Bloomsburg", "lat": 41.0027, "lng": -76.4561}, {"city": "Morehead City", "lat": 34.7308, "lng": -76.7387}, {"city": "Coral Gables", "lat": 25.7037, "lng": -80.2715}, {"city": "Enid", "lat": 36.4061, "lng": -97.8701}, {"city": "Oroville", "lat": 39.4999, "lng": -121.5634}, {"city": "Wilson", "lat": 35.7312, "lng": -77.9284}, {"city": "Lawrence", "lat": 39.8674, "lng": -85.9905}, {"city": "Portage", "lat": 42.2, "lng": -85.5906}, {"city": "Minot", "lat": 48.2375, "lng": -101.2781}, {"city": "Dunwoody", "lat": 33.9418, "lng": -84.3122}, {"city": "Poway", "lat": 32.9871, "lng": -117.0201}, {"city": "Haverford", "lat": 39.9868, "lng": -75.3164}, {"city": "San Jacinto", "lat": 33.797, "lng": -116.9916}, {"city": "Troy", "lat": 42.7354, "lng": -73.6751}, {"city": "Newark", "lat": 37.5204, "lng": -122.0312}, {"city": "Cuyahoga Falls", "lat": 41.1641, "lng": -81.5207}, {"city": "Lower Paxton", "lat": 40.3183, "lng": -76.7983}, {"city": "Downers Grove", "lat": 41.7949, "lng": -88.017}, {"city": "Bedford", "lat": 32.8464, "lng": -97.135}, {"city": "Reedley", "lat": 36.5987, "lng": -119.4473}, {"city": "Dublin", "lat": 40.1112, "lng": -83.1454}, {"city": "Marana", "lat": 32.4355, "lng": -111.1558}, {"city": "Murray", "lat": 40.6498, "lng": -111.8874}, {"city": "Roswell", "lat": 33.373, "lng": -104.5294}, {"city": "Pascagoula", "lat": 30.3665, "lng": -88.5507}, {"city": "Tuckahoe", "lat": 37.5878, "lng": -77.5858}, {"city": "St. Louis Park", "lat": 44.9488, "lng": -93.3649}, {"city": "Rio Grande City", "lat": 26.3808, "lng": -98.8215}, {"city": "Draper", "lat": 40.4957, "lng": -111.8605}, {"city": "Palm Springs", "lat": 33.8017, "lng": -116.5382}, {"city": "Paducah", "lat": 37.0711, "lng": -88.6436}, {"city": "Findlay", "lat": 41.0467, "lng": -83.6379}, {"city": "Bel Air South", "lat": 39.5051, "lng": -76.3197}, {"city": "Kyle", "lat": 29.9937, "lng": -97.8859}, {"city": "Monroe", "lat": 41.9154, "lng": -83.385}, {"city": "Lincoln", "lat": 38.8759, "lng": -121.2916}, {"city": "Ocoee", "lat": 28.5787, "lng": -81.5338}, {"city": "Burleson", "lat": 32.517, "lng": -97.3343}, {"city": "Farmers Branch", "lat": 32.9272, "lng": -96.8804}, {"city": "East Lansing", "lat": 42.748, "lng": -84.4835}, {"city": "Uniontown", "lat": 39.8994, "lng": -79.7244}, {"city": "Jeffersonville", "lat": 38.3376, "lng": -85.7026}, {"city": "Winder", "lat": 33.9917, "lng": -83.7218}, {"city": "Wauwatosa", "lat": 43.0615, "lng": -88.0347}, {"city": "Littleton", "lat": 39.5915, "lng": -105.0188}, {"city": "Cumberland", "lat": 39.6515, "lng": -78.7585}, {"city": "Cedar Hill", "lat": 32.581, "lng": -96.9591}, {"city": "Carrollton", "lat": 33.5817, "lng": -85.0837}, {"city": "Rancho Santa Margarita", "lat": 33.6318, "lng": -117.5989}, {"city": "Washington", "lat": 39.747, "lng": -75.0724}, {"city": "East Brunswick", "lat": 40.4281, "lng": -74.4179}, {"city": "Beavercreek", "lat": 39.731, "lng": -84.0624}, {"city": "Niagara Falls", "lat": 43.0921, "lng": -79.0147}, {"city": "McLean", "lat": 38.9436, "lng": -77.1943}, {"city": "East Providence", "lat": 41.8065, "lng": -71.3565}, {"city": "East Honolulu", "lat": 21.2975, "lng": -157.7211}, {"city": "Chesterfield", "lat": 38.6588, "lng": -90.5804}, {"city": "Bothell", "lat": 47.7735, "lng": -122.2044}, {"city": "West Orange", "lat": 40.7893, "lng": -74.2627}, {"city": "Glenview", "lat": 42.0825, "lng": -87.8216}, {"city": "Mentor", "lat": 41.6895, "lng": -81.3361}, {"city": "Keller", "lat": 32.9337, "lng": -97.2255}, {"city": "Danville", "lat": 40.1423, "lng": -87.6114}, {"city": "Spring Hill", "lat": 35.7438, "lng": -86.9116}, {"city": "Roseville", "lat": 42.5074, "lng": -82.9369}, {"city": "Elmhurst", "lat": 41.8973, "lng": -87.9432}, {"city": "New Philadelphia", "lat": 40.486, "lng": -81.4402}, {"city": "Perinton", "lat": 43.0781, "lng": -77.4283}, {"city": "Sandusky", "lat": 41.4437, "lng": -82.7149}, {"city": "El Dorado Hills", "lat": 38.675, "lng": -121.049}, {"city": "Salina", "lat": 38.8137, "lng": -97.6143}, {"city": "Euclid", "lat": 41.5904, "lng": -81.5188}, {"city": "Kingman", "lat": 35.217, "lng": -114.0105}, {"city": "Farmington", "lat": 37.7821, "lng": -90.4288}, {"city": "Weatherford", "lat": 32.7536, "lng": -97.7723}, {"city": "Middletown", "lat": 41.5476, "lng": -72.6549}, {"city": "Roseburg", "lat": 43.2232, "lng": -123.3518}, {"city": "Biloxi", "lat": 30.4422, "lng": -88.9512}, {"city": "Leavenworth", "lat": 39.3239, "lng": -94.924}, {"city": "Fort Pierce", "lat": 27.4256, "lng": -80.3431}, {"city": "Winter Garden", "lat": 28.5421, "lng": -81.5966}, {"city": "Oro Valley", "lat": 32.4208, "lng": -110.9768}, {"city": "Morgan Hill", "lat": 37.1326, "lng": -121.6417}, {"city": "Potomac", "lat": 39.0141, "lng": -77.1943}, {"city": "Pinehurst", "lat": 35.1922, "lng": -79.4684}, {"city": "Danville", "lat": 36.5831, "lng": -79.4087}, {"city": "Rockwall", "lat": 32.9169, "lng": -96.4377}, {"city": "Coachella", "lat": 33.6905, "lng": -116.143}, {"city": "Wake Forest", "lat": 35.9629, "lng": -78.5141}, {"city": "Pearl City", "lat": 21.4031, "lng": -157.9566}, {"city": "Tupelo", "lat": 34.2692, "lng": -88.7318}, {"city": "South Brunswick", "lat": 40.384, "lng": -74.5256}, {"city": "West Seneca", "lat": 42.8374, "lng": -78.7509}, {"city": "Attleboro", "lat": 41.9311, "lng": -71.295}, {"city": "Pine Bluff", "lat": 34.2116, "lng": -92.0178}, {"city": "Marion", "lat": 40.5933, "lng": -83.1237}, {"city": "Evesham", "lat": 39.8605, "lng": -74.8947}, {"city": "Middletown", "lat": 40.179, "lng": -74.9059}, {"city": "Hilo", "lat": 19.6886, "lng": -155.0864}, {"city": "Mount Pleasant", "lat": 41.112, "lng": -73.8122}, {"city": "Lufkin", "lat": 31.3217, "lng": -94.7277}, {"city": "Manitowoc", "lat": 44.0991, "lng": -87.6811}, {"city": "Lake Ridge", "lat": 38.6843, "lng": -77.3059}, {"city": "Selma", "lat": 36.5715, "lng": -119.6143}, {"city": "Strongsville", "lat": 41.3128, "lng": -81.8313}, {"city": "Wallingford", "lat": 41.4587, "lng": -72.8039}, {"city": "Webster", "lat": 43.2294, "lng": -77.4454}, {"city": "Danville", "lat": 37.8121, "lng": -121.9698}, {"city": "Bridgewater", "lat": 40.5934, "lng": -74.6076}, {"city": "Quincy", "lat": 39.9335, "lng": -91.3799}, {"city": "Lancaster", "lat": 39.7249, "lng": -82.6049}, {"city": "Riverton", "lat": 40.5177, "lng": -111.9635}, {"city": "The Colony", "lat": 33.0925, "lng": -96.8977}, {"city": "Urbandale", "lat": 41.639, "lng": -93.7813}, {"city": "Plainfield", "lat": 41.6206, "lng": -88.2252}, {"city": "Monroe", "lat": 40.3191, "lng": -74.4286}, {"city": "Lombard", "lat": 41.8742, "lng": -88.0157}, {"city": "Prescott", "lat": 34.585, "lng": -112.4475}, {"city": "Eureka", "lat": 40.7942, "lng": -124.1568}, {"city": "Sayreville", "lat": 40.4656, "lng": -74.3237}, {"city": "Enfield", "lat": 41.9839, "lng": -72.5548}, {"city": "Altamonte Springs", "lat": 28.6615, "lng": -81.3953}, {"city": "Del Rio", "lat": 29.3708, "lng": -100.88}, {"city": "Bountiful", "lat": 40.8722, "lng": -111.8647}, {"city": "Desert Hot Springs", "lat": 33.9551, "lng": -116.543}, {"city": "Peachtree Corners", "lat": 33.967, "lng": -84.2319}, {"city": "Haltom City", "lat": 32.8176, "lng": -97.2707}, {"city": "Southington", "lat": 41.605, "lng": -72.8802}, {"city": "Ormond Beach", "lat": 29.296, "lng": -81.1003}, {"city": "Cutler Bay", "lat": 25.5765, "lng": -80.3356}, {"city": "Adrian", "lat": 41.8994, "lng": -84.0446}, {"city": "Goose Creek", "lat": 32.9925, "lng": -80.0054}, {"city": "Moorhead", "lat": 46.8673, "lng": -96.7461},