[{"city": "Caracas", "lat": 10.5, "lng": -66.9333}, {"city": "Maracaibo", "lat": 10.6333, "lng": -71.6333}, {"city": "Valencia", "lat": 10.1667, "lng": -68.0}, {"city": "Barquisimeto", "lat": 10.0678, "lng": -69.3467}, {"city": "Ciudad Guayana", "lat": 8.3596, "lng": -62.6517}, {"city": "Catia La Mar", "lat": 10.6038, "lng": -67.0303}, {"city": "Ciudad Bolivar", "lat": 8.1167, "lng": -63.55}, {"city": "Santa Teresa del Tuy", "lat": 10.2333, "lng": -66.65}, {"city": "Maturin", "lat": 9.7457, "lng": -63.1832}, {"city": "Barcelona", "lat": 10.1333, "lng": -64.6833}, {"city": "Maracay", "lat": 10.2469, "lng": -67.5958}, {"city": "Cumana", "lat": 10.45, "lng": -64.1667}, {"city": "Cabimas", "lat": 10.4, "lng": -71.4333}, {"city": "Puerto La Cruz", "lat": 10.2167, "lng": -64.6167}, {"city": "Merida", "lat": 8.5833, "lng": -71.1333}, {"city": "Punto Fijo", "lat": 11.7167, "lng": -70.1833}, {"city": "San Cristobal", "lat": 7.7682, "lng": -72.2322}, {"city": "Barinas", "lat": 8.6226, "lng": -70.2075}, {"city": "Coro", "lat": 11.395, "lng": -69.6816}, {"city": "Turmero", "lat": 10.2283, "lng": -67.4753}, {"city": "Los Teques", "lat": 10.3411, "lng": -67.0406}, {"city": "Baruta", "lat": 10.4335, "lng": -66.8754}, {"city": "San Felipe", "lat": 10.3353, "lng": -68.7458}, {"city": "Cua", "lat": 10.1667, "lng": -66.8833}, {"city": "La Victoria", "lat": 10.2278, "lng": -67.3336}, {"city": "El Tigre", "lat": 8.8858, "lng": -64.2611}, {"city": "Guarenas", "lat": 10.4739, "lng": -66.5383}, {"city": "Puerto Cabello", "lat": 10.4705, "lng": -68.0296}, {"city": "La Guaira", "lat": 10.6, "lng": -66.9331}, {"city": "Guacara", "lat": 10.2333, "lng": -67.8833}, {"city": "Tocuyito", "lat": 10.0889, "lng": -68.0922}, {"city": "Acarigua", "lat": 9.5597, "lng": -69.2019}, {"city": "San Fernando", "lat": 7.894, "lng": -67.473}, {"city": "Guanare", "lat": 9.0436, "lng": -69.7489}, {"city": "Valera", "lat": 9.3206, "lng": -70.6078}, {"city": "Araure", "lat": 9.5667, "lng": -69.2167}, {"city": "Guatire", "lat": 10.4717, "lng": -66.5406}, {"city": "San Diego", "lat": 10.2558, "lng": -67.9539}, {"city": "Carupano", "lat": 10.6722, "lng": -63.2403}, {"city": "Santa Rita", "lat": 10.2003, "lng": -67.5514}, {"city": "Anaco", "lat": 9.4333, "lng": -64.4667}, {"city": "Palo Negro", "lat": 10.16, "lng": -67.5582}, {"city": "Ocumare del Tuy", "lat": 10.1136, "lng": -66.7814}, {"city": "Villa de Cura", "lat": 10.0386, "lng": -67.4894}, {"city": "Yaritagua", "lat": 10.0753, "lng": -69.1283}, {"city": "Calabozo", "lat": 8.9219, "lng": -67.4283}, {"city": "Los Guayos", "lat": 10.1833, "lng": -67.9333}, {"city": "Tariba", "lat": 7.8167, "lng": -72.2167}, {"city": "Guasdualito", "lat": 7.2467, "lng": -70.7292}, {"city": "Cagua", "lat": 10.1875, "lng": -67.4611}, {"city": "Porlamar", "lat": 10.9556, "lng": -63.8478}, {"city": "Machiques", "lat": 10.0667, "lng": -72.5667}, {"city": "Ciudad Ojeda", "lat": 10.2, "lng": -71.3}, {"city": "San Carlos", "lat": 9.65, "lng": -68.5833}, {"city": "Charallave", "lat": 10.2431, "lng": -66.8622}, {"city": "La Asuncion", "lat": 11.0333, "lng": -63.8628}, {"city": "Valle de La Pascua", "lat": 9.2033, "lng": -66.0103}, {"city": "Santa Lucia", "lat": 10.2606, "lng": -66.6639}, {"city": "Carora", "lat": 10.1692, "lng": -70.0783}, {"city": "Quibor", "lat": 9.9281, "lng": -69.5778}, {"city": "Socopo", "lat": 8.2322, "lng": -70.8206}, {"city": "Tinaquillo", "lat": 9.9167, "lng": -68.3}, {"city": "El Limon", "lat": 10.3003, "lng": -67.6336}, {"city": "San Juan de los Morros", "lat": 9.901, "lng": -67.354}, {"city": "Tucupita", "lat": 9.0575, "lng": -62.0452}, {"city": "Puerto Ayacucho", "lat": 5.6631, "lng": -67.6264}, {"city": "Lecherias", "lat": 10.1889, "lng": -64.6951}, {"city": "Trujillo", "lat": 9.3658, "lng": -70.4369}, {"city": "Rubio", "lat": 7.7, "lng": -72.35}, {"city": "Cantaura", "lat": 9.3005, "lng": -64.3564}, {"city": "La Grita", "lat": 8.1333, "lng": -71.9833}, {"city": "Maiquetia", "lat": 10.5958, "lng": -66.9772}, {"city": "San Carlos del Zulia", "lat": 9.0, "lng": -71.95}, {"city": "Cabudare", "lat": 10.0331, "lng": -69.2633}, {"city": "Caripito", "lat": 10.111, "lng": -63.1048}, {"city": "Zaraza", "lat": 9.3394, "lng": -65.3167}, {"city": "San Antonio del Tachira", "lat": 7.8145, "lng": -72.4431}, {"city": "Upata", "lat": 8.0204, "lng": -62.41}, {"city": "Sanare", "lat": 9.7822, "lng": -69.7931}, {"city": "Santa Cruz de Los Taques", "lat": 11.8231, "lng": -70.2535}, {"city": "El Tocuyo", "lat": 9.7822, "lng": -69.7931}, {"city": "Altagracia de Orituco", "lat": 9.8504, "lng": -66.38}, {"city": "Santa Rita", "lat": 10.5367, "lng": -71.5108}, {"city": "Sabaneta", "lat": 8.7522, "lng": -69.9325}, {"city": "Puerto Piritu", "lat": 10.0667, "lng": -65.05}, {"city": "La Colonia Tovar", "lat": 10.4167, "lng": -67.2833}, {"city": "Chaguaramas", "lat": 9.3385, "lng": -66.2525}, {"city": "Tucacas", "lat": 10.7978, "lng": -68.3175}, {"city": "Onoto", "lat": 9.5958, "lng": -65.1897}, {"city": "San Jose de Aerocuar", "lat": 10.6014, "lng": -63.3278}, {"city": "Uracoa", "lat": 8.9956, "lng": -62.3521}, {"city": "Bruzual", "lat": 8.0494, "lng": -69.3316}, {"city": "Mucuchies", "lat": 8.75, "lng": -70.9167}, {"city": "Mapire", "lat": 7.7411, "lng": -64.7107}, {"city": "El Dorado", "lat": 6.7167, "lng": -61.6167}, {"city": "La Esmeralda", "lat": 3.1738, "lng": -65.5466}, {"city": "El Manteco", "lat": 7.35, "lng": -62.5453}]