[{"city": "Pristina", "lat": 42.6633, "lng": 21.1622}, {"city": "Malisheve", "lat": 42.4828, "lng": 20.7458}, {"city": "Kline", "lat": 42.6167, "lng": 20.5667}, {"city": "Kamenice", "lat": 42.5839, "lng": 21.575}, {"city": "Fushe Kosove", "lat": 42.63, "lng": 21.12}, {"city": "Shtime", "lat": 42.4333, "lng": 21.0333}, {"city": "Hani i Elezit", "lat": 42.1475, "lng": 21.2992}, {"city": "Mamushe", "lat": 42.3167, "lng": 20.7167}, {"city": "Junik", "lat": 42.4761, "lng": 20.2775}, {"city": "Ranillug", "lat": 42.492, "lng": 21.559}, {"city": "Partesh", "lat": 42.4019, "lng": 21.4336}, {"city": "Decan", "lat": 42.5333, "lng": 20.2833}, {"city": "Ferizaj", "lat": 42.3667, "lng": 21.1667}, {"city": "Prizren", "lat": 42.2128, "lng": 20.7392}, {"city": "Gllogovc", "lat": 42.6167, "lng": 20.9}, {"city": "Gjilan", "lat": 42.4647, "lng": 21.4669}, {"city": "Mitrovice", "lat": 42.8833, "lng": 20.8667}, {"city": "Obiliq", "lat": 42.69, "lng": 21.0778}, {"city": "Rahovec", "lat": 42.3994, "lng": 20.6547}, {"city": "Vushtrri", "lat": 42.8222, "lng": 20.9694}, {"city": "Lipjan", "lat": 42.53, "lng": 21.1386}, {"city": "Suhareke", "lat": 42.38, "lng": 20.8219}, {"city": "Gjakove", "lat": 42.3833, "lng": 20.4333}, {"city": "Peje", "lat": 42.6603, "lng": 20.2917}, {"city": "Viti", "lat": 42.3167, "lng": 21.35}, {"city": "Kacanik", "lat": 42.2467, "lng": 21.2553}, {"city": "Skenderaj", "lat": 42.7467, "lng": 20.7886}, {"city": "Podujeve", "lat": 42.9167, "lng": 21.2}, {"city": "Zvecan", "lat": 42.9, "lng": 20.8333}, {"city": "Kllokot", "lat": 42.3667, "lng": 21.3833}, {"city": "Istog", "lat": 42.7833, "lng": 20.4833}, {"city": "Dragash", "lat": 42.0611, "lng": 20.6528}, {"city": "Shterpce", "lat": 42.2333, "lng": 21.0167}, {"city": "Zubin Potok", "lat": 42.9167, "lng": 20.6833}, {"city": "Leposaviq", "lat": 43.1, "lng": 20.8}, {"city": "Gracanice", "lat": 42.6, "lng": 21.2}, {"city": "Novoberde", "lat": 42.6, "lng": 21.4333}, {"city": "Matican", "lat": 42.6449, "lng": 21.1918}, {"city": "Pozharan", "lat": 42.3648, "lng": 21.3372}, {"city": "Dushanove", "lat": 42.2347, "lng": 20.7091}, {"city": "Hajvali", "lat": 42.6167, "lng": 21.1833}, {"city": "Donje Zabare", "lat": 42.8714, "lng": 20.8411}, {"city": "Lubizhde", "lat": 42.238, "lng": 20.7615}, {"city": "Bresje", "lat": 42.6264, "lng": 21.0874}, {"city": "Korishe", "lat": 42.2576, "lng": 20.7981}, {"city": "Vitomirice", "lat": 42.6819, "lng": 20.3173}, {"city": "Damjan", "lat": 42.296, "lng": 20.5162}]